id,name,formattedAddress,lat,lng,checkinsCount,tipCount,usersCount,visitsCount,likesCount,rating,categories_ids,categories_names,ratingSignals
53ea8701498efde99ac6e836,"Магазин ""Пролісок""",['Україна'],50.491814917981245,30.34552574157715,21,1,18,58,1,0,"['4bf58dd8d48988d1f9941735', '4bf58dd8d48988d1f5941735', '4bf58dd8d48988d186941735']","['Food & Drink Shop', 'Gourmet Shop', 'Liquor Store']",0
524d44d311d2791295269fca,"Завод ""Теплозвукоизоляция""",['Україна'],50.494253628936875,30.339405990687656,39,0,26,68,0,0,['4eb1bea83b7b6f98df247e06'],['Factory'],0
538a3e48498e33f16c3cd646,garage Klevec,['Україна'],50.49314279222589,30.345727213195705,6,0,5,11,0,0,['52f2ab2ebcbc57f1066b8b44'],['Auto Garage'],0
56b44484498e3f17ca6d0948,ТОВ Розком,['Україна'],50.49522282856604,30.345165399077324,9,0,16,40,0,0,['4eb1bea83b7b6f98df247e06'],['Factory'],0
5580f7fe498ebc8deceb7d41,У Черта Дома,['Україна'],50.49135533011221,30.345093216798578,29,0,5,31,0,0,['4d954b06a243a5684965b473'],['Residential Building (Apartment / Condo)'],0
530c97b711d2dde0143a2059,"МЕТАЛЛОБАЗА ООО ""Альфа Металл Компани""","['Киевская 8', 'Вишневе, 08298', 'Україна']",50.49222534477874,30.340008759552095,8,0,6,9,2,0,['4f04b1572fb6e1c99f3db0bf'],['Storage Facility'],0
53c66808498e331fe0478de9,Катех Электро,['Україна'],50.49887192624401,30.343668188759057,5,0,7,8,1,0,['4eb1bea83b7b6f98df247e06'],['Factory'],0
52cc663a498eb4cebd27d64c,Roznau Aprtmnt,['Україна'],50.49158553134896,30.341547408046374,4,0,7,11,0,0,['4d954b06a243a5684965b473'],['Residential Building (Apartment / Condo)'],0
532cafab498e905ac6c35217,The Elizabeth Kingdom,"['Пономарева 18а', 'Україна']",50.491695404052734,30.34374237060547,29,0,23,57,0,0,['4d954b06a243a5684965b473'],['Residential Building (Apartment / Condo)'],0
572e4384498edf83e2ad3138,Беседка у Клевцов,['Україна'],50.49272,30.346284,2,0,2,3,0,0,['4bf58dd8d48988d162941735'],['Other Great Outdoors'],0
507d2fb1e4b0d8cafc42e44a,Нино,['Україна'],50.492719383238665,30.340103906008974,59,2,44,90,3,5.2,['4bf58dd8d48988d16d941735'],['Café'],10
5401fb57498e5bf523e0e6af,Детская площадка на ДОЗе,"['Улица Пономарева 18', 'п.г.т. Коцюбинское', 'Україна']",50.49110794067383,30.346508026123047,3,0,3,4,0,0,['4bf58dd8d48988d1e7941735'],['Playground'],0
53d89039498e8f0cc79403ea,Экми-мебель,"['Пгт.Коцюбинское', 'Киев, 08298', 'Україна']",50.49374008178711,30.344045639038086,6,0,5,10,0,0,['5032764e91d4c4b30a586d5a'],['Campaign Office'],0
5211b24811d284d4977e6792,в/ч А 3796/ картографічний центр,['Україна'],50.491249084472656,30.34322738647461,2,0,2,2,0,0,['4e52adeebd41615f56317744'],['Military Base'],0
5389ce1c498e33f16c3ad41d,❤Мир Влюбленных❤,['Україна'],50.49284546688278,30.3458716928331,52,0,10,57,0,0,['4d954b06a243a5684965b473'],['Residential Building (Apartment / Condo)'],0
532de05c498ec7dfcd13cd01,ДОЗ,['Україна'],50.49123520417494,30.34368537833635,11,0,11,11,0,0,['4f2a25ac4b909258e854f55f'],['Neighborhood'],0
56d60979498e5a61f73fb623,Milev's Residence,"['Пономарёва, 18а', 'Коцюбинське', 'Україна']",50.491837,30.343876,3,0,1,3,0,0,['4d954b06a243a5684965b473'],['Residential Building (Apartment / Condo)'],0
5215c7e211d20589fdbe7926,Деревообрабатывающий завод,['Україна'],50.49231643264074,30.34465718718375,21,0,14,22,1,0,['4eb1bea83b7b6f98df247e06'],['Factory'],0
4ff316a3e4b09c1e85bad553,Сосо,['Україна'],50.49202253040297,30.345590258092994,33,0,22,40,0,0,['4bf58dd8d48988d16d941735'],['Café'],0
547a766e498e43be5a693b1c,Банька,"['Пономарева 7', 'Коцюбинське, 08298', 'Україна']",50.49287639467489,30.340015661920283,30,0,34,83,0,0,['4bf58dd8d48988d130941735'],['Building'],0
57d6a4a4498eb6ebd195b88d,пономарева 18А,"['Коцюбинське', 'Україна']",50.491077,30.343922,31,0,16,64,0,0,['4d954b06a243a5684965b473'],['Residential Building (Apartment / Condo)'],0
5336b5d2498e7258d13d8088,MOS,['Україна'],50.49285996023495,30.338862048285776,83,1,77,257,7,7.7,['4bf58dd8d48988d110951735'],['Salon / Barbershop'],9
5354ef42498e614ef30894e5,"Садове товариство ""40-річчя Жовтня""","['Київ', 'Україна']",50.496259055706716,30.34736365834784,54,0,77,219,1,0,['4f2a210c4b9023bd5841ed28'],['Housing Development'],0
55c25274498e9b94f7d1a70c,Пиццерия ВВ,"['Пономарева, 18-б', 'Коцюбинське', 'Україна']",50.491713662332714,30.345049687772907,330,3,280,1024,13,8.7,['4bf58dd8d48988d1ca941735'],['Pizza Place'],15
537e6fe1498e0a200b4d6014,"АЗС ""Злагода""",['Україна'],50.49264862188003,30.33944716916458,123,0,123,398,1,0,['4bf58dd8d48988d113951735'],['Gas Station'],0
