id,name,formattedAddress,lat,lng,checkinsCount,tipCount,usersCount,visitsCount,likesCount,rating,categories_ids,categories_names,ratingSignals
51ff4be4498e5525492367ab,"Стоматология ""Оптима-Дентал""","['Василия Степанченка,3 (Служебная,3)', 'Київ', 'Україна']",50.47167931312861,30.3684398213102,177,1,57,285,1,0,['4bf58dd8d48988d178941735'],"[""Dentist's Office""]",0
534147c6498edbdeb2044aad,DMG Models,"['Ул. Ивана Франка 15А', 'Київ', 'Україна']",50.47145260604601,30.37209472806052,10,0,9,10,0,0,['4bf58dd8d48988d173941735'],['Auditorium'],0
57b5f61f38fa113f89e49852,iGarage,"['Київ', 'Україна']",50.476427,30.371326,18,0,32,138,0,0,['52f2ab2ebcbc57f1066b8b44'],['Auto Garage'],0
5516f61c498e07ed9eb93523,"СТО ""PS.Sport""",['Україна'],50.471689,30.370961,254,0,96,632,3,0,['4bf58dd8d48988d124951735'],['Automotive Shop'],0
559b8ec0498e450ad9ef2ee5,GoSmart,['Україна'],50.47711719842113,30.368270874023434,37,0,53,89,0,0,['52f2ab2ebcbc57f1066b8b44'],['Auto Garage'],0
550844ce498e0ee5edae5ce1,Pole Flying,"['Ул. Полевая 21', 'Київ', 'Україна']",50.47360013601173,30.374226125602306,12,0,4,12,1,0,['52e81612bcbc57f1066b79ef'],['Country Dance Club'],0
52f1ed2a498e5618b085ea82,АТП НАНУ,"['Служебная, 5', 'Київ', 'Україна']",50.471931264795096,30.36809721952074,61,0,106,211,0,0,['4c38df4de52ce0d596b336e1'],['Parking'],0
54f1fdd7498e3eb5cca8e24e,Поезд 043 Киев - Ивано-Франковск,['Україна'],50.471134187204704,30.369748375561873,22,0,20,22,0,0,['4bf58dd8d48988d12a951735'],['Train'],0
59004c9b0d173f6deff015ad,Киевские Пирожки,"['Малинская, 1', 'Київ', 'Україна']",50.477823,30.36931,1,0,1,1,1,0,['4bf58dd8d48988d16a941735'],['Bakery'],0
