id,name,formattedAddress,lat,lng,checkinsCount,tipCount,usersCount,visitsCount,likesCount,rating,categories_ids,categories_names,ratingSignals
512120d7e4b01ed291233751,"–ö–æ—Ü—é–±–∏–Ω—Å–∫–æ–µ, —É–ª. –ü–æ–Ω–æ–º–∞—Ä–µ–≤–∞,34","['–ü–æ–Ω–æ–º–∞—Ä–µ–≤–∞ 34', '–ö–æ—Ü—é–±–∏–Ω—Å—å–∫–µ', '–£–∫—Ä–∞—ó–Ω–∞']",50.49078268636383,30.3441383438026,189,2,80,300,5,0,['4d954b06a243a5684965b473'],['Residential Building (Apartment / Condo)'],0
5534a538498edd6644be8ca2,delivery-auto,['–£–∫—Ä–∞—ó–Ω–∞'],50.490565,30.339266,12,0,13,36,0,0,['52e81612bcbc57f1066b7a36'],['Warehouse'],0
56ba005a498ef2a3d5eb4c9c,EGbro,"['–ü–æ–Ω–æ–º–∞—Ä–µ–≤–∞ 24/–î', '–ö–æ—Ü—é–±–∏–Ω—Å—å–∫–µ', '–£–∫—Ä–∞—ó–Ω–∞']",50.48834,30.345848,1,0,1,1,0,0,['4bf58dd8d48988d1e5931735'],['Music Venue'],0
51bddbc4498efb7c22483e42,–≥–∞—Ä–∞–∂–∏,['–£–∫—Ä–∞—ó–Ω–∞'],50.4884201547538,30.34480496924181,13,0,10,13,0,0,['4c38df4de52ce0d596b336e1'],['Parking'],0
559fe52e498e89f152151ed1,–í–æ–∑–ª–µ –ú–∞–ª–µ–Ω—å–∫–æ–≥–æ,['–£–∫—Ä–∞—ó–Ω–∞'],50.49070403057618,30.344363822341517,3,0,3,3,0,0,['4d954b0ea243a5684a65b473'],['Convenience Store'],0
531c91ae498e1a8910bc5c9c,–õ—ñ—Å,['–£–∫—Ä–∞—ó–Ω–∞'],50.481534553913775,30.340088857310498,51,0,40,51,4,0,['52e81612bcbc57f1066b7a23'],['Forest'],0
525ea81211d2275345c1d61b,–ü—Ä–æ–º–°–ò–ó,"['–≤—É–ª. –ü–æ–Ω–æ–º–∞—Ä—å–æ–≤–∞, 32', '–ö–æ—Ü—é–±–∏–Ω—Å—å–∫–µ, 08298', '–£–∫—Ä–∞—ó–Ω–∞']",50.48960675009825,30.34497771597097,35,0,31,60,0,0,['4bf58dd8d48988d124941735'],['Office'],0
53962205498e65d34f3b64d7,Emka house üè†,['–£–∫—Ä–∞—ó–Ω–∞'],50.49061965942383,30.343673706054688,76,0,2,84,0,0,"['4d954b06a243a5684965b473', '4bf58dd8d48988d103941735']","['Residential Building (Apartment / Condo)', 'Home (private)']",0
5326ee0e498ea4799a78de49,promopack,"['–ü–æ–Ω–∞–º–∞—Ä–µ–≤–∞,30', '–ö–∏—ó–≤', '–£–∫—Ä–∞—ó–Ω–∞']",50.49044,30.343254,27,0,17,52,0,0,['4f04b1572fb6e1c99f3db0bf'],['Storage Facility'],0
57c13e74498eefb22dfdd246,–ñ–µ–ª–µ–∑–Ω–æ–¥–æ—Ä–æ–∂–Ω–∞—è 9,"['–ñ–µ–ª–µ–∑–Ω–æ–¥–æ—Ä–æ–∂–Ω–∞—è 9', '–ö–æ—Ü—é–±–∏–Ω—Å—å–∫–µ', '–£–∫—Ä–∞—ó–Ω–∞']",50.48876,30.338469,12,0,7,21,0,0,['4d954b06a243a5684965b473'],['Residential Building (Apartment / Condo)'],0
52fff55311d227d3423425eb,–°–ø–æ—Ä—Ç-–±–∞—Ä –ö–æ—Ü—é–±–∏–Ω—Å–∫–æ–µ,['–£–∫—Ä–∞—ó–Ω–∞'],50.489075990196554,30.335398049646287,216,0,51,262,4,0,['4bf58dd8d48988d116941735'],['Bar'],0
58d916ae0593e1250682f903,–ù–æ–≤–∞—è –ü–æ—á—Ç–∞,"['–≤—É–ª. –ü–æ–Ω–æ–º–∞—Ä—å–æ–≤–∞, 30', '–£–∫—Ä–∞—ó–Ω–∞']",50.49035,30.34282,4,0,2,6,0,0,['4bf58dd8d48988d172941735'],['Post Office'],0
53dbfb67498e7e54c9798f5a,—Ç–∞–º –≥–¥–µ –≤—Å–µ–≥–¥–∞ –≤–µ—Å–µ–ª–æüòÜüòã‚úåÔ∏è,['–£–∫—Ä–∞—ó–Ω–∞'],50.487911469631946,30.34386450672402,46,0,30,117,0,0,['4d954b06a243a5684965b473'],['Residential Building (Apartment / Condo)'],0
567b7f98498e6a84e383b22d,–ö–æ—Ü—é–±–∏–Ω—Å–∫–æ–µ –∏—Å–ø—Ä–∞–≤–∏—Ç–µ–ª—å–Ω–∞—è –∫–æ–ª–æ–Ω–∏—è,['–£–∫—Ä–∞—ó–Ω–∞'],50.486899769019985,30.33962234050089,35,0,23,56,1,0,['5310b8e5bcbc57f1066bcbf1'],['Prison'],0
4f69f551e4b0f35b73ee8378,"–ñ–ö ""–ö–æ—Ü—é–±–∏–Ω—Å–∫–∏–π""","['—É–ª. –ü–æ–Ω–æ–º–∞—Ä—ë–≤–∞, 26', '–ö–∏—ó–≤', '–£–∫—Ä–∞—ó–Ω–∞']",50.48820866425516,30.343864188357042,673,2,539,2014,9,0,['4f2a210c4b9023bd5841ed28'],['Housing Development'],0
58552de35804ea5d62889351,LACAR coffee trailer,"['–ü–æ–Ω–æ–º–∞—Ä–µ–≤–∞ 30', '–£–∫—Ä–∞—ó–Ω–∞']",50.490619,30.342368,41,3,39,97,2,0,['4bf58dd8d48988d1e0931735'],['Coffee Shop'],0
