id,name,formattedAddress,lat,lng,checkinsCount,tipCount,usersCount,visitsCount,likesCount,rating,categories_ids,categories_names,ratingSignals
537f1b99498e956dc85c5f7d,Binotel,"['Здолбуновская, 7д', 'Київ', 'Україна']",50.41192626953125,30.602153778076172,50,0,165,225,1,0,['4bf58dd8d48988d125941735'],['Tech Startup'],0
537b56e6498ea6fcc48f7ace,"ООО ""МЕГАПОЛИС- ЭКСПРЕСС""","['вул. Причальна, 5', 'Київ', 'Україна']",50.412693,30.600054,8,0,9,20,0,0,['4bf58dd8d48988d1f8941735'],['Furniture / Home Store'],0
4fc735cce4b04e646d2d68c1,Hertz,"['Здолбуновская 7д', 'Київ', 'Україна']",50.41198533487888,30.60244038815657,20,0,26,43,1,0,['4bf58dd8d48988d1ef941735'],['Rental Car Location'],0
55a39fab498e3c94e906f24a,Lux окна,"['Здолбуновская 7Д', 'Київ', 'Україна']",50.411976,30.602657,5,0,6,9,1,0,['52e816a6bcbc57f1066b7a54'],['Warehouse Store'],0
51a99d04498ea50bcb957417,ФрансСервис СТО,"['Здолбунівська 7Д', 'Київ', 'Україна']",50.411888122558594,30.602386474609375,20,2,11,31,2,0,['4eb1c1623b7b52c0e1adc2ec'],['Auto Dealership'],0
4f50c282e4b0a3428a7b7ac7,L-Master,"['Klemanskaya street, 1/5', 'Київ', 'Україна']",50.414514701260174,30.60072281505924,359,1,196,556,6,6.1,['4bf58dd8d48988d1f8941735'],['Furniture / Home Store'],11
5544e665498e804deb322277,Новус,['Україна'],50.41128448549926,30.59981602186792,92,1,74,95,5,0,['52f2ab2ebcbc57f1066b8b42'],['Big Box Store'],0
5081566de4b03db1756837cd,СТО Арт Драйв,"['Здолбуновская 7д', 'Київ', 'Україна']",50.41175824683447,30.602391840116727,133,2,99,204,3,0,['4bf58dd8d48988d124951735'],['Automotive Shop'],0
500e5ee3e4b0b5aafe4fc61e,Art Drive,"['Здолбуновская 4Д', 'Київ', 'Україна']",50.41183708528494,30.60219256789956,53,0,85,141,0,0,['4eb1c1623b7b52c0e1adc2ec'],['Auto Dealership'],0
52deb362498eb43ddf564cf9,"Мойка ""Арт драйв""","['вул. Здолбунівська, 7Д', 'Київ', 'Україна']",50.411867,30.602635,12,1,11,15,1,0,['4f04ae1f2fb6e1c99f3db0ba'],['Car Wash'],0
53c67d84498e769a4a523b24,Bravo97,['Україна'],50.41311787830533,30.602862659460374,48,0,36,97,0,0,['4eb1bea83b7b6f98df247e06'],['Factory'],0
575c162d498e708744b6efd3,Зоомаркет,"[""Zdolbunivs'ka vulytsya, 7G (ТЦ Новус)"", 'Київ', 'Україна']",50.411486,30.601998,5,0,5,5,0,0,['4bf58dd8d48988d100951735'],['Pet Store'],0
5549f21b498e8dae10f6bb47,"Кафе ""Хвилинка відпочинку""","['здолбуновсквя 7г', 'Київ', 'Україна']",50.410746532116384,30.60545325279236,47,1,18,49,2,0,['4bf58dd8d48988d16d941735'],['Café'],0
52de2886498ee11773c40694,СП УДТ,"['Клеманская 5', 'Київ, 02081', 'Україна']",50.41474151611328,30.6010799407959,29,0,99,131,1,0,['4bf58dd8d48988d112951735'],['Hardware Store'],0
5741926f498e7647f92c406d,Баня Пляж Беседки для пикника,['Україна'],50.411358,30.597668,114,0,24,122,1,0,['56aa371be4b08b9a8d5734c3'],['Waterfront'],0
53da7ecc498e346fa1d8e171,КХУ,['Україна'],50.41728965658272,30.603940850485664,2,0,4,4,0,0,['4bf58dd8d48988d198941735'],['College Academic Building'],0
56c20edfcd108fea48ef72ca,Ежевика,"['Теодора Драйзера 8', 'Україна']",50.41784210284542,30.604880440252373,4,0,4,4,0,0,['52f2ab2ebcbc57f1066b8b24'],['Frame Store'],0
52f8e0f2498eabe0026b5b96,ТОВ Українські Абразиви,"['Клеманськая 3', 'Київ', 'Україна']",50.41723233146072,30.604698320104706,16,0,3,17,1,0,['4bf58dd8d48988d174941735'],['Coworking Space'],0
57566909498e799b64319465,ЗБК - ДБК ВРУ,"['Клеманская 6-8', 'Київ', 'Україна']",50.415905,30.605804,3,0,1,3,0,0,['4eb1bea83b7b6f98df247e06'],['Factory'],0
50ba165ee4b0c783581bbb30,Автошина сервис,"['Канальная 2', 'Київ', 'Україна']",50.41902139695225,30.606622302498135,17,2,23,26,1,0,['4bf58dd8d48988d124951735'],['Automotive Shop'],0
4e7e49262c5b002a351244a6,Drag,"['Київ', 'Україна']",50.41669673105546,30.608007172188163,36,0,42,50,0,0,['4bf58dd8d48988d1fe931735'],['Bus Station'],0
53c843fc498e4f7da7c5a5fb,олиранк,"['Сортировочная', 'Київ', 'Україна']",50.41783027032108,30.605079784292258,47,1,31,83,1,0,['52e816a6bcbc57f1066b7a54'],['Warehouse Store'],0
53d20974498e0558e52a339f,канальная 2,['Україна'],50.41886667910695,30.60470323208564,16,0,18,34,0,0,['4bf58dd8d48988d124941735'],['Office'],0
4e1dbca6887794dc24948b09,Київський християнський університет / Kyiv Christian University (Київський християнський університет),"['вул. Сортувальна, 5а', 'Київ, 02081', 'Україна']",50.418256786168335,30.608089310045735,166,4,54,183,3,0,['4bf58dd8d48988d1ae941735'],['University'],0
4ffbf812e4b00c8921a07d25,Фабрика Велма,['Україна'],50.4160222135224,30.605512339475023,7,0,15,17,0,0,['4eb1bea83b7b6f98df247e06'],['Factory'],0
55d466c8498eab2c81153ca8,"Поезд ""Киев — Санкт-Петербург""",['Україна'],50.41899707270704,30.606227202749423,6,0,5,6,0,0,['4bf58dd8d48988d12a951735'],['Train'],0
53553196498e25547200a172,"Шиномонтаж ""Indian""","['Клеманская 3', 'Київ', 'Україна']",50.41674760599511,30.60397920349577,21,0,10,27,1,0,['4bf58dd8d48988d124951735'],['Automotive Shop'],0
56374644498e8209bc716a87,Happy Room,['Україна'],50.418818,30.606131,4,0,2,4,0,0,['4bf58dd8d48988d162941735'],['Other Great Outdoors'],0
5569c6da498e4867129e3904,Автобус Свободных!!!:),['Україна'],50.42036621856424,30.603467571724963,5,0,11,11,0,0,['52f2ab2ebcbc57f1066b8b50'],['Cable Car'],0
52d68c2d498ece8c954338ba,Кафе на Клеманской,"['Клеманская 3', 'Україна']",50.415929,30.603525,5,0,3,5,1,0,['4bf58dd8d48988d16d941735'],['Café'],0
521e896e498e85b1cc176a13,"Доставка суши ""Мамалат""",['Україна'],50.416905,30.60783,5,3,2,5,3,0,['4bf58dd8d48988d1d2941735'],['Sushi Restaurant'],0
4e427a43887719193968d6a5,Автомойка,"['Клеманская 3', 'Київ', 'Україна']",50.41621049374305,30.604196449882533,34,0,16,35,0,0,['4f04ae1f2fb6e1c99f3db0ba'],['Car Wash'],0
54303d78498e6631c103b192,кушнир-хаус,['Україна'],50.4174919128418,30.603296279907227,1,0,1,1,0,0,['50aaa49e4b90af0d42d5de11'],['Castle'],0
5040acc7e4b0591b2243890a,Атма склад,['Україна'],50.416938,30.603437,4,0,3,4,0,0,['4bf58dd8d48988d112951735'],['Hardware Store'],0
51977e1c498e4d7d9eb40e8d,Склад Fabs,"['Клеманская 3', 'Київ', 'Україна']",50.41674233030352,30.60366536420412,11,1,6,11,1,0,['4f04b1572fb6e1c99f3db0bf'],['Storage Facility'],0
58aae783e18e656cc6e263d1,luxtorg,"['Канальная 2', 'Київ', 'Україна']",50.418292,30.605467,1,0,1,1,0,0,['4bf58dd8d48988d1f8941735'],['Furniture / Home Store'],0
505b1427e4b0799d785ef958,Академия Фитнеса,"['Днепровская Набережная 19-А', 'Київ', 'Україна']",50.418634743811104,30.60765934989877,13,0,4,13,0,0,['4bf58dd8d48988d1b2941735'],['College Gym'],0
53b3f898498ea0178ae8b4b8,ул.Клеманская,['Україна'],50.41656221034733,30.60697560707987,36,0,93,119,1,0,['4bf58dd8d48988d1f9931735'],['Road'],0
51a37666498e38ca09f28e26,"Сортировочная 2, склад- магазин Текстиль- контакт",['Україна'],50.41837080928261,30.607118898612185,50,3,48,55,1,0,['4f04b1572fb6e1c99f3db0bf'],['Storage Facility'],0
555339cb498e5cfa813bdbe9,БФ Шина,"[""Kanal'na Street, 2"", 'Київ', 'Україна']",50.419063,30.606303,79,1,111,182,0,0,['4bf58dd8d48988d124941735'],['Office'],0
4f8fcc67e4b0d414c332fbac,Склад Цветов,['Україна'],50.41605355234909,30.603148903092634,255,4,277,412,17,7.0,['4bf58dd8d48988d11b951735'],['Flower Shop'],25
58c2880f7a8f044c6ebfab26,Пешеходный мост через Дарницкое шоссе,"['Київ, 02000', 'Україна']",50.42053,30.604464,5,0,4,5,0,0,['4bf58dd8d48988d1df941735'],['Bridge'],0
50a21389e4b09f2bf5c39ea9,Сортировочная,['Україна'],50.41794149268467,30.60534074466391,5,0,4,5,0,0,['4bf58dd8d48988d1f9931735'],['Road'],0
4e1dbec7a809ef911ebe7a2c,"Склад-магазин ""Текстиль-Контакт""","['вул. Клеманська, 7 (Клеманская)', 'Київ', 'Україна']",50.418148947494736,30.606665156414213,716,7,1300,2098,39,7.0,['4bf58dd8d48988d1f8941735'],['Furniture / Home Store'],60
4ee1f5b08b816da57c60b3f3,Экзотик-Флора,"['вул. Клеманська, 3', 'Київ, 02081', 'Україна']",50.41589471295708,30.603181214687154,706,3,1413,3110,54,8.5,['4bf58dd8d48988d11b951735'],['Flower Shop'],65
51430b4ae4b050cd9b16899e,СТО Mazda,['Україна'],50.420740538964935,30.600780355274512,10,0,3,12,0,0,['4bf58dd8d48988d112951735'],['Hardware Store'],0
51b04d5d498e5e2e4039d76f,СТО глазурит,"['Канальная', 'Київ', 'Україна']",50.41694078728986,30.599768854992284,32,0,68,271,2,0,['4bf58dd8d48988d124951735'],['Automotive Shop'],0
542b05f1498e4c803f9eb0f2,Невзрачная Будка,['Україна'],50.418633336921786,30.602837541642014,15,0,27,41,0,0,['5310b8e5bcbc57f1066bcbf1'],['Prison'],0
523c065d11d2e4f7a33a9d72,Гаражи,['Україна'],50.419796761756125,30.598263560611986,12,0,13,15,0,0,['4bf58dd8d48988d113951735'],['Gas Station'],0
55e9addf498e1f69243e228c,Премиум Газ Сервис,"['Березняковская 23', 'Київ', 'Україна']",50.42071335091038,30.601123015480255,22,0,75,121,1,0,['52f2ab2ebcbc57f1066b8b44'],['Auto Garage'],0
558bf7c7498e19b8560089d7,Deutche Bike,"['Здолбуновская 7г', 'Київ', 'Україна']",50.41175036192931,30.60423661850972,10,1,18,29,1,0,['4bf58dd8d48988d115951735'],['Bike Shop'],0
51a7053d498eeedebd6c3a71,Науково-гостинний Комплекс,"['Пр-т Червонозоряний, 3', 'Україна']",50.413030498285906,30.60711590023576,5,1,3,5,1,0,['4bf58dd8d48988d1fa931735'],['Hotel'],0
54703499498eee1c1123a846,Лабораторія бігу,['Україна'],50.413175278149986,30.60661401096717,23,0,24,29,2,0,['4bf58dd8d48988d1f2941735'],['Sporting Goods Shop'],0
51fcd788498e2025ccd3eb50,Центральний міський морг,"['вул. Оранжерейна, 9 (Міська клінічна лікарня №1)', 'Київ', 'Україна']",50.41446312663987,30.604530710418704,79,0,50,80,1,0,['4bf58dd8d48988d104941735'],['Medical Center'],0
54ecb896498eea13cc942990,Origin Oil,"['Здолбуновская', 'Україна']",50.41231403911019,30.604407847608073,12,0,12,20,0,0,['4bf58dd8d48988d124951735'],['Automotive Shop'],0
4fcb6f1de4b035b3380b63a0,"ул. Здолбуновская, 3","['ул. Здолбуновская, 3', 'Україна']",50.41458214746281,30.60708274029146,27,0,13,29,0,0,['4d954b06a243a5684965b473'],['Residential Building (Apartment / Condo)'],0
51557734e4b0f41898b0d70a,Автостекло,['Україна'],50.41291745644437,30.6051970331021,30,0,50,74,2,0,['4bf58dd8d48988d124951735'],['Automotive Shop'],0
54f99a08498ecb535a7b4e57,ИнТайм 34,['Україна'],50.41174408625822,30.604209364164294,37,1,117,205,0,0,['4bf58dd8d48988d172941735'],['Post Office'],0
51b6f033498e7652701db4c7,Delivery auto,['Україна'],50.41555083094519,30.604761933658455,55,1,84,150,0,0,['4f04b1572fb6e1c99f3db0bf'],['Storage Facility'],0
4f9edbbde4b0e5be417bba8a,EKO Маркет,"['Здолбуновская 7А', 'Київ', 'Україна']",50.412619906194756,30.603747367858887,10,0,10,10,0,0,['4bf58dd8d48988d118951735'],['Grocery Store'],0
5739f254498ecc75a8d8de93,Магазин взуття Mida,"['Здолбунівська 7', 'Київ', 'Україна']",50.4117,30.60583,17,0,10,17,0,0,['4bf58dd8d48988d107951735'],['Shoe Store'],0
500ebd1be4b04d4cc267af5c,Arena Discount Store,"['Здолбуновская 3а', 'Київ', 'Україна']",50.41300929124303,30.6060027093401,316,6,283,438,14,6.3,['4bf58dd8d48988d1f2941735'],['Sporting Goods Shop'],23
51f68e2c498e7656ae2bc068,Сто,['Україна'],50.413082122802734,30.603343963623047,11,0,17,18,0,0,['52f2ab2ebcbc57f1066b8b44'],['Auto Garage'],0
58c92e88040d5332a2e4e3cb,Porezki.Net,"['Здолбуновская 7-Г', 'Київ', 'Україна']",50.411213,30.604291,9,0,4,9,0,0,['4eb1bea83b7b6f98df247e06'],['Factory'],0
579c920e498ee0d5776d065d,SkateSpot Arena,"['Київ', 'Україна']",50.413078,30.606107,10,0,4,13,0,0,['52e81612bcbc57f1066b7a26'],['Recreation Center'],0
57405f98498eb3b8282d215b,Malina,"['Здолбуновская 7г', 'Україна']",50.410883,30.606298,10,0,6,10,0,0,['4bf58dd8d48988d104951735'],['Boutique'],0
58ff54aff00a704dc6c1d802,Sushi-Point,"['Здолбуновская, 7-г', 'Київ', 'Україна']",50.41148,30.605687,2,0,1,2,0,0,['4bf58dd8d48988d1d2941735'],['Sushi Restaurant'],0
513b1551e4b0cb9983911e5c,экспресс-мойка,['Україна'],50.41238935623913,30.60692215092934,170,1,94,199,7,6.2,['4f04ae1f2fb6e1c99f3db0ba'],['Car Wash'],11
57015489498e512559ad3a0f,Divin salon une beaute,"['вул.Здолбунівська, 7г', 'Київ', 'Україна']",50.41149862549988,30.60612916946411,6,0,4,6,1,0,['4bf58dd8d48988d110951735'],['Salon / Barbershop'],0
5374cb36498e53295d30ac60,Subaru,['Україна'],50.41334006490433,30.607458280302225,111,0,54,132,2,0,['4eb1c1623b7b52c0e1adc2ec'],['Auto Dealership'],0
53ce42a5498ee536a98d3daf,RunLab,"['Здолбуновская', 'Київ', 'Україна']",50.41314640782205,30.606475011317364,120,3,121,154,8,6.9,['4bf58dd8d48988d1f2941735'],['Sporting Goods Shop'],14
4eb94d80f5b94bd85d6baef4,Автомойка Sonax,['Україна'],50.41236817247103,30.60692584865744,776,10,1134,2178,36,7.6,['4f04ae1f2fb6e1c99f3db0ba'],['Car Wash'],52
4e35216fa8092599ee01b19a,Шиномонтаж,"[""7A, Zdolbunivs'ka St."", 'Київ', 'Україна']",50.412723604052005,30.606675776211073,170,2,153,236,5,6.1,['4bf58dd8d48988d124951735'],['Automotive Shop'],9
574fce02498e851d7c2f00ab,Олиранк,"['Здолбуновская 7г', 'Київ', 'Україна']",50.41195,30.604445,24,1,14,36,1,0,['52e816a6bcbc57f1066b7a54'],['Warehouse Store'],0
562fb183498e30ea1e85706b,Нова Пошта №352,"['вул. Здолбунівська, 7г', 'Київ', 'Україна']",50.41187422313587,30.605963739388898,106,1,43,122,2,0,['4bf58dd8d48988d172941735'],['Post Office'],0
5289d25011d235ac8228ae60,Сиба-Вендинг Украина,"['здолбуновская 3д', 'Київ', 'Україна']",50.4144772351267,30.60705671363779,2235,0,236,2704,2,0,['4bf58dd8d48988d124941735'],['Office'],0
55d20b5c498e0440c06e9ff2,Hesburger,"['вул. Здолбунівська, 7г', 'Київ', 'Україна']",50.41092260006939,30.606284506677977,1055,23,956,1684,59,5.4,['4bf58dd8d48988d16e941735'],['Fast Food Restaurant'],136
53be8b89498e60cac8ac8c15,Автоцентр «Интерциклон»,"['вул. Здолбунівська, 3', 'Київ, 02081', 'Україна']",50.413385011934885,30.607595177167315,2072,27,2767,6214,107,8.2,"['52f2ab2ebcbc57f1066b8b44', '4bf58dd8d48988d124951735', '4f04ae1f2fb6e1c99f3db0ba']","['Auto Garage', 'Automotive Shop', 'Car Wash']",149
5895ab71326c5a6fe16a4323,Karlson Park,"['7G, Zdolbunivska St.', 'Kiev', 'Україна']",50.41134,30.606771,37,0,22,37,0,0,['5744ccdfe4b0c0459246b4b5'],['Indoor Play Area'],0
