id,name,formattedAddress,lat,lng,checkinsCount,tipCount,usersCount,visitsCount,likesCount,rating,categories_ids,categories_names,ratingSignals
539b5807498e71ce2a50bdb8,–§—É—Ç–±–æ–ª—å–Ω—ã–π –∫–∏–Ω–æ—Ç–µ–∞—Ç—Ä :: Football cinema ‚öΩÔ∏è,"['—É–ª. –ß–∫–∞–ª–æ–≤–∞ 85', '–ü–µ—Ç—Ä–æ–ø–∞–≤–ª–æ–≤—Å–∫–∞—è –ë–æ—Ä—â–∞–≥–æ–≤–∫–∞, 08130', '–£–∫—Ä–∞—ó–Ω–∞']",50.428181,30.345074,2,0,3,3,0,0,['4bf58dd8d48988d17f941735'],['Movie Theater'],0
50e1e75de4b0c73e7d6f8eec,–ü–æ–ª–µ–≤–∞—è 124,['–£–∫—Ä–∞—ó–Ω–∞'],50.42537652198508,30.343731128958925,11,0,14,38,1,0,['4d954b06a243a5684965b473'],['Residential Building (Apartment / Condo)'],0
5415c06e498e89ee8b057e81,–ë–∞—Ç—É—Ç,['–£–∫—Ä–∞—ó–Ω–∞'],50.422641,30.339315,2,0,8,13,1,0,['4bf58dd8d48988d182941735'],['Theme Park'],0
532d5866498eb06b95555e3c,—Å–æ–ª–Ω–µ—á–Ω–∞—è –ø–æ–ª—è–Ω–∞ üåû,['–£–∫—Ä–∞—ó–Ω–∞'],50.428296,30.338331,2,0,4,8,0,0,['4bf58dd8d48988d162941735'],['Other Great Outdoors'],0
53ae88ee498e7b0d794ff254,–≤—É–ª. –ß–∫–∞–ª–æ–≤–∞,"['–ö–∏—ó–≤', '–£–∫—Ä–∞—ó–Ω–∞']",50.430312218110494,30.3441859105282,7,0,1,7,0,0,['4bf58dd8d48988d1f9931735'],['Road'],0
53961421498e5a2187759d4a,Paula's Wonderland,"['No Taxis Can Find This Place', '–£–∫—Ä–∞—ó–Ω–∞']",50.42396420849001,30.345764967894635,13,0,11,21,1,0,['4bf58dd8d48988d1d6941735'],['Strip Club'],0
51981dca498e965e7c9350f5,Kostya's Home,['–£–∫—Ä–∞—ó–Ω–∞'],50.424720882006405,30.34299747990087,5,0,2,5,0,0,"['4d954b06a243a5684965b473', '4bf58dd8d48988d103941735']","['Residential Building (Apartment / Condo)', 'Home (private)']",0
512a0d04e4b0447bae831215,–ö—Ä–∞–º–Ω–∏—Ü—è,"['–°–æ—Ñ–∏–µ–≤—Å–∫–∞—è –ë–æ—Ä—â–∞–≥–æ–≤–∫–∞, —É–ª. –®–µ–≤—á–µ–Ω–∫–∞, 274', '–ö–∏—ó–≤', '–£–∫—Ä–∞—ó–Ω–∞']",50.42197385586447,30.345720031195484,54,1,89,157,8,7.6,['4bf58dd8d48988d1f9941735'],['Food & Drink Shop'],9
57b7460e498e1601d712d96b,–°–¢–û –Ω–∞ –§–µ—Ä–º–µ—Ä—Å–∫–æ–π,"['–í—É–ª. –§–µ—Ä–º–µ—Ä—Å–∫–∞—è', '–°–æ—Ñ—ñ—ó–≤—Å—å–∫–∞ –ë–æ—Ä—â–∞–≥—ñ–≤–∫–∞', '–£–∫—Ä–∞—ó–Ω–∞']",50.422312,30.338838,1,0,5,8,0,0,['52f2ab2ebcbc57f1066b8b44'],['Auto Garage'],0
532f059a498e1b8bd5517425,"–®–∞—à–ª—ã—á–Ω–∞—è ""–£ –ô–µ—Ç–∏!""",['–£–∫—Ä–∞—ó–Ω–∞'],50.42414,30.340411,59,0,22,72,1,0,['4bf58dd8d48988d1df931735'],['BBQ Joint'],0
53b66a1e498e83df9081ea26,–ë–µ—Å–µ–¥–∫–∞ —É –ô–µ—Ç–∏,"['–°–æ—Ñ–∏–µ–≤—Å–∫–∞—è –ë–æ—Ä—â–∞–≥–æ–≤–∫–∞', '–£–∫—Ä–∞—ó–Ω–∞']",50.424127,30.340505,3,0,6,6,0,0,['4bf58dd8d48988d1de941735'],['Vineyard'],0
5363f70b498e33d4b3f29848,–ü–æ—á—Ç–∏–∫–∏,['–£–∫—Ä–∞—ó–Ω–∞'],50.42295,30.340944,3,0,3,4,0,0,['4bf58dd8d48988d18e941735'],['Comedy Club'],0
53ae89e5498e1475af077313,–ì–µ–Ω–¥–µ–ª—å –Ω–∞ —É–ª. –ß–∫–∞–ª–æ–≤–∞üç´üç¶,['–£–∫—Ä–∞—ó–Ω–∞'],50.430627,30.343751,2,0,5,9,0,0,['4bf58dd8d48988d1ff941735'],['Miscellaneous Shop'],0
53a2d866498e76e4d42e92ce,–ü–ª–∞—Ü–¥–∞—Ä–º –ò–º.–î–º–∏—Ç—Ä–∏—è,['–£–∫—Ä–∞—ó–Ω–∞'],50.421585,30.343421,51,1,4,106,0,0,['4e52adeebd41615f56317744'],['Military Base'],0
57653fd2cd10563d3f72c7d0,–ø–∞—Ç–∏ —É –†–æ–º—á–∏–∫–∞ –Ω–∞ —Ö–∞—Ç–µ,['–£–∫—Ä–∞—ó–Ω–∞'],50.421139,30.338258,10,0,17,40,1,0,['4bf58dd8d48988d121941735'],['Lounge'],0
52dd4af0498eca19523e1539,Posudus.com.ua,"['—É–ª. –Ø—Ä–æ–≤–∞—è, 46', '–ö–∏—ó–≤', '–£–∫—Ä–∞—ó–Ω–∞']",50.42194366455078,30.339799880981445,3,0,4,6,2,0,['4bf58dd8d48988d1ff941735'],['Miscellaneous Shop'],0
5024ee28e4b0cdd7eb851cf7,Seven hill,['–£–∫—Ä–∞—ó–Ω–∞'],50.426645,30.339882,2,0,3,3,0,0,[],[],0
53622908498ea1a0ee70e145,–ì—Ä—è–¥–∫–∏,"['–§–µ—Ä–º–µ—Ä—Å–∫–∞—è', '–°–æ—Ñ–∏–µ–≤—Å–∫–∞—è –ë–æ—Ä—â–∞–≥–æ–≤–∫–∞', '–£–∫—Ä–∞—ó–Ω–∞']",50.424247340423754,30.340258260290163,28,0,6,33,1,0,['4bf58dd8d48988d15a941735'],['Garden'],0
5299e2b311d2e613b50bc364,Partyhard House,['–£–∫—Ä–∞—ó–Ω–∞'],50.42354624123918,30.34297682377423,24,0,16,27,2,0,"['4bf58dd8d48988d11a941735', '4bf58dd8d48988d103941735']","['Other Nightlife', 'Home (private)']",0
55e05f92498ed112b4d84613,–ñ–ö ¬´–£—é—Ç–Ω—ã–π –∫–≤–∞—Ä—Ç–∞–ª¬ª,"['–≤—É–ª. –ö–æ—Ä–æ–ª–µ–Ω–∫–∞', 'Sofiyivska Borschagivka', '–£–∫—Ä–∞—ó–Ω–∞']",50.42092461906694,30.340160682217107,18,0,14,27,0,0,['4f2a210c4b9023bd5841ed28'],['Housing Development'],0
573a107138faf9c0f0de4dfc,Castle,['–£–∫—Ä–∞—ó–Ω–∞'],50.424014,30.347588,27,0,17,56,0,0,['4deefb944765f83613cdba6e'],['Historic Site'],0
51fb4183498e696bffbf4727,"–ê–û ""–ê–§ ""–ê–ª–µ–∫—Å–∞–Ω–¥—Ä–æ–≤ –∏ –ü–∞—Ä—Ç–Ω–µ—Ä—ã""","['—É–ª. –ü–æ–ª–µ–≤–∞—è, 58', '—Å. –°–æ—Ñ–∏–µ–≤—Å–∫–∞—è –ë–æ—Ä—â–∞–≥–æ–≤–∫–∞, 08131', '–£–∫—Ä–∞—ó–Ω–∞']",50.424049377441406,30.346561431884766,33,0,18,52,1,0,['4bf58dd8d48988d174941735'],['Coworking Space'],0
4e480e781f6e29f10dbb76a5,–°–∏–º –°–∏–º,"['–°.–ü–µ—Ç—Ä–æ–ø–∞–≤–ª–æ–≤—Å–∫–∞—è –ë–æ—Ä—â–∞–≥–æ–≤–∫–∞. —É–ª –ü–µ—Ç—Ä–æ–ø–∞–≤–ª–æ–≤—Å–∫–∞—è 20', '–ö–∏—ó–≤', '–£–∫—Ä–∞—ó–Ω–∞']",50.421668716490984,30.34184502348839,37,5,41,54,1,0,['4d4b7105d754a06374d81259'],['Food'],0
58d6c8938190793d239a7d63,–†–æ–¥–Ω–æ–π –ü—Ä–∏—Ç–æ–Ω,"['–£–ª. –ü–æ–ª–µ–≤–∞—è 9', '–°–æ—Ñ—ñ—ó–≤—Å—å–∫–∞ –ë–æ—Ä—â–∞–≥—ñ–≤–∫–∞', '–£–∫—Ä–∞—ó–Ω–∞']",50.423672,30.343066,4,0,2,4,0,0,['54541900498ea6ccd0202697'],['Health & Beauty Service'],0
5713d3c2498e83b7c30280c4,–ü–ª–∞–∫—É—á–∞—è –ò–≤–∞,['–£–∫—Ä–∞—ó–Ω–∞'],50.429121184030166,30.3472557817448,46,0,38,92,0,0,['52f2ab2ebcbc57f1066b8b53'],['RV Park'],0
