id,name,formattedAddress,lat,lng,checkinsCount,tipCount,usersCount,visitsCount,likesCount,rating,categories_ids,categories_names,ratingSignals
52ad745211d22ac71a77e708,–∫–∞—á–∞–ª–æ–≤–∞ 5,['–£–∫—Ä–∞—ó–Ω–∞'],50.42435640777793,30.409473756526157,21,0,23,43,0,0,['4bf58dd8d48988d124951735'],['Automotive Shop'],0
546e62c1498e2e61fb04f73a,night club LIFT,['–£–∫—Ä–∞—ó–Ω–∞'],50.42219817838209,30.41032909118595,9,0,9,9,0,0,['4bf58dd8d48988d11f941735'],['Nightclub'],0
501aa0d6e4b03c99d15b4ab2,–ì–∞—Ä–∞–∂–Ω—ã–π –∫–æ–º–ø–ª–µ–∫c –ü–∞–ª—É–±–∞,"['—É–ª. –ö–∞—á–∞–ª–æ–≤–∞', '–ö–∏—ó–≤', '–£–∫—Ä–∞—ó–Ω–∞']",50.42554778748165,30.41162508228591,46,1,23,49,0,0,['4c38df4de52ce0d596b336e1'],['Parking'],0
5090e674e4b07c64df4850e4,–û–ø—Ç–∏–º –°–µ—Ä–≤–∏—Å,"['–ö–∞—á–∞–ª–æ–≤–∞ 5–∞', '–£–∫—Ä–∞—ó–Ω–∞']",50.422141,30.411831,19,0,33,67,0,0,['4bf58dd8d48988d130941735'],['Building'],0
5273c97211d2ae894bb50b57,–ú–æ–π–∫–∞ —É –¢–∞—Ä–∞—Å–∞))),"['–ö–∞—á–∞–ª–æ–≤–∞ 3', '–£–∫—Ä–∞—ó–Ω–∞']",50.425241,30.412518,47,2,21,67,2,0,['4f04ae1f2fb6e1c99f3db0ba'],['Car Wash'],0
4fd1dad5e4b096c7d2f73a4e,–ú–µ—Ç–∞–ª-–•–æ–ª–¥–∏–Ω–≥ –ê–ª—å—è–Ω—Å,['–£–∫—Ä–∞—ó–Ω–∞'],50.423935247093716,30.410203155414408,48,0,68,160,0,0,['4bf58dd8d48988d124941735'],['Office'],0
552e61c9498ee799a0f29bb5,DOLCE&GABBANA,"['–≤—É–ª. –ö–∞—á–∞–ª–æ–≤–∞ 5 –∞', '–ö–∏—ó–≤', '–£–∫—Ä–∞—ó–Ω–∞']",50.422100851838074,30.41179829222174,21,1,27,29,3,0,"['4bf58dd8d48988d103951735', '4bf58dd8d48988d104951735']","['Clothing Store', 'Boutique']",0
56965e7f498e1d543e3828a3,üò¥üè°üíü‚ò£,['–£–∫—Ä–∞—ó–Ω–∞'],50.426712,30.414331,96,0,53,242,1,0,['4d954b06a243a5684965b473'],['Residential Building (Apartment / Condo)'],0
53024ccd498e6a1536f054ff,my homeüè©üòç,"['–ö–∏—ó–≤', '–£–∫—Ä–∞—ó–Ω–∞']",50.42593113825493,30.415385345723596,110,0,2,130,0,0,"['4d954b06a243a5684965b473', '4bf58dd8d48988d103941735']","['Residential Building (Apartment / Condo)', 'Home (private)']",0
52b2fb80498e32f6bab3efcd,–ö–∞—á–∞–ª–æ–≤–∞ 3,['–£–∫—Ä–∞—ó–Ω–∞'],50.427775060847154,30.41403384468973,29,1,40,122,0,0,['4d954b06a243a5684965b473'],['Residential Building (Apartment / Condo)'],0
50f9ece0e4b064cc7a40e52b,–≠—Ç–æ—Ç –ú–∏—Ä –°–ª–æ–≤–Ω–æ –° –î–µ—à–µ–≤–æ–π –ü–∞–Ω–µ–ª–∏,['–£–∫—Ä–∞—ó–Ω–∞'],50.42623194271224,30.415067053627403,37,0,13,38,1,0,['4bf58dd8d48988d1a0941735'],['College Classroom'],0
52753d6911d2557728f6103a,"–±—É–ª. –í–∞—Ü–ª–∞–≤–∞ –ì–∞–≤–µ–ª–∞, 36-–í","['–±—É–ª. –í–∞—Ü–ª–∞–≤–∞ –ì–∞–≤–µ–ª–∞, 36-–í', '–£–∫—Ä–∞—ó–Ω–∞']",50.42589426864555,30.41538490414422,57,0,35,88,1,0,['4d954b06a243a5684965b473'],['Residential Building (Apartment / Condo)'],0
58b454d17d0f6d3e47f1a76c,"–°–¢–û ""Garage 349""","['–ö–∞—á–∞–ª–æ–≤–∞ 3', '–ö–∏—ó–≤', '–£–∫—Ä–∞—ó–Ω–∞']",50.426865,30.41376,8,1,10,23,1,0,"['56aa371be4b08b9a8d5734d3', '4bf58dd8d48988d124951735']","['Auto Workshop', 'Automotive Shop']",0
51710212498ed86fd11b68d7,–ú—É–∑—ã–∫–∞–ª—å–Ω–∞—è —à–∫–æ–ª–∞ #14 –∏–º. –î. –ö–∞–±–∞–ª–µ–≤—Å–∫–æ–≥–æ,"['–ë—É–ª. –õ–µ–ø—Å–µ 69', '–ö–∏—ó–≤', '–£–∫—Ä–∞—ó–Ω–∞']",50.42684769824757,30.41537843331595,56,1,28,60,0,0,['4f04b10d2fb6e1c99f3db0be'],['Music School'],0
535ab1d8498e7865170bfd90,"–±—É–ª. –í–∞—Ü–ª–∞–≤–∞ –ì–∞–≤–µ–ª–∞, 34–í","['–±—É–ª. –í–∞—Ü–ª–∞–≤–∞ –ì–∞–≤–µ–ª–∞, 34–í', '–£–∫—Ä–∞—ó–Ω–∞']",50.4265251159668,30.415119171142578,16,0,14,37,0,0,['4d954b06a243a5684965b473'],['Residential Building (Apartment / Condo)'],0
5470f6b8498e5d894553c180,–í–µ—Å–µ–ª–µ –ë—Ä–µ–≥–ª–æ ),"['–ê–∫–∞–¥–µ–º–∏–∫–∞ –ë–µ–ª–µ—Ü–∫–æ–≥–æ 9', '–ö–∏—ó–≤', '–£–∫—Ä–∞—ó–Ω–∞']",50.4305419921875,30.41741180419922,30,0,43,95,0,0,['4d954b06a243a5684965b473'],['Residential Building (Apartment / Condo)'],0
4fb8a70ae4b079befa63fdc9,–ü–∞—Ä–∏–∫–º–∞—Ö–µ—Ä—Å–∫–∞—è,['–£–∫—Ä–∞—ó–Ω–∞'],50.43039023429121,30.415970547256514,10,0,2,11,0,0,['4f04aa0c2fb6e1c99f3db0b8'],['Nail Salon'],0
5616c03c498ef3e95864521b,kievhomeüè†‚è≥,"['–ê–∫–∞–¥–µ–º—ñ–∫–∞ –ë—ñ–ª–µ—Ü—å–∫–æ–≥–æ 9–∞', '–ö–∏—ó–≤', '–£–∫—Ä–∞—ó–Ω–∞']",50.43061292813002,30.417820034278133,89,0,3,91,0,0,['5032891291d4c4b30a586d68'],['Assisted Living'],0
57446237498e4ee5dafaa8f5,–Ω–∞ –º–µ—Å—Ç–Ω–æ—Å—Ç–∏,['–£–∫—Ä–∞—ó–Ω–∞'],50.430432,30.415917,1,0,1,1,0,0,['52e81612bcbc57f1066b7a25'],['Pedestrian Plaza'],0
5188dffb498ecc6fb484fe6a,–ú–∞–Ω–∏–∫—é—Ä—á–∏–∫,"['–ò–≤–∞–Ω–∞ –õ–µ–ø—Å–µ 36-–ë', '–£–∫—Ä–∞—ó–Ω–∞']",50.42842304414913,30.415931051136884,9,0,3,9,0,0,['4f04aa0c2fb6e1c99f3db0b8'],['Nail Salon'],0
51ffb3fd498eb0a0d822703e,"–±—É–ª. –í–∞—Ü–ª–∞–≤–∞ –ì–∞–≤–µ–ª–∞, 77","['–±—É–ª. –í–∞—Ü–ª–∞–≤–∞ –ì–∞–≤–µ–ª–∞, 77', '–£–∫—Ä–∞—ó–Ω–∞']",50.42904746007874,30.416709058357878,16,1,5,16,0,0,['4d954b06a243a5684965b473'],['Residential Building (Apartment / Condo)'],0
51361a1fe4b0a9c8f8c36480,–®–∏–Ω–Ω–∏–∫,['–£–∫—Ä–∞—ó–Ω–∞'],50.428539,30.415525,3,0,5,5,0,0,['4eb1c1623b7b52c0e1adc2ec'],['Auto Dealership'],0
55e851ca498ebb47a404e534,–ê–ª–µ—Å—è & –ì–µ—Ä–¥–∞ home,"['–ê–∫–∞–¥–µ–º–∏–∫–∞ –ë–µ–ª–µ—Ü–∫–æ–≥–æ 11', '–ö–∏—ó–≤', '–£–∫—Ä–∞—ó–Ω–∞']",50.430361,30.416002,7,0,1,7,0,0,['4d954b06a243a5684965b473'],['Residential Building (Apartment / Condo)'],0
540407a9498eae2180793aa0,–®–∫–æ–ª–∞ #310 –¢–≤–æ—Ä—á—ñ—Å—Ç—å,['–£–∫—Ä–∞—ó–Ω–∞'],50.42884847943886,30.417995664711135,8,0,5,19,0,0,['4f4533804b9074f6e4fb0105'],['Elementary School'],0
54251683498e501d0ee2e322,–±—É–ª. –Ü–≤–∞–Ω–µ –õ–µ–ø—Å–∞ 75–∞,"['–±—É–ª. –Ü–≤–∞–Ω–µ –õ–µ–ø—Å–∞ 75–∞', '–ö–∏—ó–≤', '–£–∫—Ä–∞—ó–Ω–∞']",50.42920397098974,30.416615229895278,28,0,28,60,0,0,['4d954b06a243a5684965b473'],['Residential Building (Apartment / Condo)'],0
4fd46fa6e4b0aa9a72ac1800,–ì–æ—Å—Ç–∏–Ω–∏—Ü–∞ ¬´–ê–ª—ë–Ω–∫–∞¬ª,"['–±—É–ª. –ò–≤–∞–Ω–∞ –õ–µ–ø—Å–µ, 40–∞', '–ö–∏—ó–≤', '–£–∫—Ä–∞—ó–Ω–∞']",50.42987147490324,30.417713239649192,57,2,12,57,0,0,['4bf58dd8d48988d1fb931735'],['Motel'],0
52a4fd4d11d2ed010b0ac47c,–ù–æme :-),"['–∞–∫–∞–¥–µ–º–∏–∫–∞ –ë–∏–ª–µ—Ü–∫–æ–≥–æ 9–±', '–£–∫—Ä–∞—ó–Ω–∞']",50.42999267578125,30.417957305908203,50,0,5,52,0,0,['4d954b06a243a5684965b473'],['Residential Building (Apartment / Condo)'],0
54268f99498e54fc398ec6a3,–≤–≥–æ—Å—Ç—è—Ö *),['–£–∫—Ä–∞—ó–Ω–∞'],50.4305305480957,30.417552947998047,4,0,4,7,0,0,['4bf58dd8d48988d1a3941735'],['College Residence Hall'],0
5002a368e4b0f448e99908a0,–ü–µ—Ä—É–∫–∞—Ä–µ–Ω—å–∫–∞,"['–ê–∫–∞–¥–µ–º–∏–∫–∞ –ë–µ–ª–µ—Ü–∫–æ–≥–æ, 11', '–ö–∏—ó–≤, 03126', '–£–∫—Ä–∞—ó–Ω–∞']",50.430223035791975,30.41598090746085,138,3,73,241,6,0,['4bf58dd8d48988d110951735'],['Salon / Barbershop'],0
51dc69f0498e78177537c9ed,–ë–µ–ª–µ—Ü–∫–æ–≥–æ 18,['–£–∫—Ä–∞—ó–Ω–∞'],50.43064396529458,30.41573868151344,66,0,24,93,0,0,['4d954b06a243a5684965b473'],['Residential Building (Apartment / Condo)'],0
5603192d498e1615e93e53b3,Yofikiüè©üë´,"['–ê–∫–∞–¥–µ–º–∏–∫–∞ –ë–µ–ª–µ—Ü–∫–æ–≥–æ 9-–±', '–ö–∏—ó–≤', '–£–∫—Ä–∞—ó–Ω–∞']",50.429879,30.417954,290,0,65,466,0,0,['4d954b06a243a5684965b473'],['Residential Building (Apartment / Condo)'],0
4e21b5ae22717a5245cd68fb,–û–±–Ω–æ–≤–∫–∞ / 'Obnovka' Second Hand,['–£–∫—Ä–∞—ó–Ω–∞'],50.429120561104156,30.415647405201444,19,0,7,19,0,0,['4bf58dd8d48988d1f7941735'],['Flea Market'],0
571ba759498e95f8057f0ec2,–°–∫–≤–µ—Ä –Ω–∞ –±—É–ª—å–≤–∞—Ä–µ,"['–±—É–ª—å–≤–∞—Ä –ò–≤–∞–Ω–∞ –õ–µ–ø—Å–µ 77', '–£–∫—Ä–∞—ó–Ω–∞']",50.4287,30.416286,7,0,5,8,0,0,['4bf58dd8d48988d163941735'],['Park'],0
577ac425498eb9d1040bef50,—É–ª–∏—Ü–∞ –ê–∫–∞–¥–µ–º–∏–∫–∞ –ë–µ–ª–µ—Ü–∫–æ–≥–æ 9,"['–£–ª–∏—Ü–∞ –ê–∫–∞–¥–µ–º–∏–∫–∞ –ë–µ–ª–µ—Ü–∫–æ–≥–æ 9', '–ö–∏—ó–≤', '–£–∫—Ä–∞—ó–Ω–∞']",50.43056,30.417416,4,0,3,4,0,0,['4d954b06a243a5684965b473'],['Residential Building (Apartment / Condo)'],0
500a6181e0e25447ac115a4a,–ú—è—Å–Ω–∞—è –≥–∏–ª—å–¥–∏—è,"['—É–ª. –ê–∫–∞–¥–µ–º–∏–∫–∞ –ë–µ–ª–µ—Ü–∫–æ–≥–æ, 11', '–ö–∏—ó–≤, 03126', '–£–∫—Ä–∞—ó–Ω–∞']",50.43023022388804,30.415179471456767,103,2,17,104,0,0,['4bf58dd8d48988d11d951735'],['Butcher'],0
51d7213c894b258178969153,–§–æ—Ä–∞,"['–≤—É–ª. –ë—ñ–ª–µ—Ü—å–∫–æ–≥–æ, 11', '–ö–∏—ó–≤', '–£–∫—Ä–∞—ó–Ω–∞']",50.43016039118738,30.415949821472164,758,4,267,1010,2,4.9,['4bf58dd8d48988d118951735'],['Grocery Store'],12
57a2395f498e68b1921983ed,–ü–ò–í–ú–ê–ì,"['–ö–∏—ó–≤', '–£–∫—Ä–∞—ó–Ω–∞']",50.42917,30.41583,82,2,72,226,2,0,['56aa371ce4b08b9a8d57356c'],['Beer Bar'],0
4c132bc1a5eb76b03f99bfb7,–ê–≤—Ç–æ—Ä–∏–Ω–æ–∫,"['–≤—É–ª–∏—Ü—è –ê–∫–∞–¥–µ–º—ñ–∫–∞ –ë—ñ–ª–µ—Ü—å–∫–æ–≥–æ, 26.', '–ö–∏—ó–≤', '–£–∫—Ä–∞—ó–Ω–∞']",50.42999423185548,30.41551451765972,28,1,15,28,1,0,['4bf58dd8d48988d130941735'],['Building'],0
51950512498ec9068a67bb50,"–º–∞–≥–∞–∑–∏–Ω ""–ë—É–¥—å–º–æ""","['–ë—É–ª—å–≤–∞—Ä –ò–≤–∞–Ω–∞ –õ–µ–ø—Å–µ, 75 (–ë—É–ª—å–≤–∞—Ä –õ–µ–ø—Å–µ - –ê–∫–∞–¥–µ–º–∏–∫–∞ –ë–µ–ª–µ—Ü–∫–æ–≥–æ)', '–ö–∏—ó–≤', '–£–∫—Ä–∞—ó–Ω–∞']",50.42944624298776,30.415312124328725,10,1,4,10,1,0,['4bf58dd8d48988d1f9941735'],['Food & Drink Shop'],0
510a66afe4b070a10c94e3d2,"–û—Å—Ç–∞–Ω–æ–≤–∫–∞ ""–£–ª. –ê–∫–∞–¥–µ–º–∏–∫–∞ –ë–µ–ª–µ—Ü–∫–æ–≥–æ""",['–£–∫—Ä–∞—ó–Ω–∞'],50.4300589892519,30.414726498943747,38,0,28,46,0,0,['52f2ab2ebcbc57f1066b8b51'],['Tram Station'],0
5649c93f498e6fcc46d6d8b1,–£–∫—Ä –ü–æ—Å—Ç –ì—Ä—É–ø–ø –ü–ª—é—Å,"['–ë—É–ª.–ò–≤–∞–Ω–∞ –õ–µ–ø—Å–µ 24', '–ö–∏—ó–≤', '–£–∫—Ä–∞—ó–Ω–∞']",50.4301284795986,30.414314317264,13,0,4,13,0,0,['52e81612bcbc57f1066b7a36'],['Warehouse'],0
5130efc6e4b01d3a61c843aa,"–±—É–ª. –í–∞—Ü–ª–∞–≤–∞ –ì–∞–≤–µ–ª–∞, 73/22","['–±—É–ª. –í–∞—Ü–ª–∞–≤–∞ –ì–∞–≤–µ–ª–∞, 73/22', '–£–∫—Ä–∞—ó–Ω–∞']",50.43019485473633,30.41507339477539,133,0,22,140,0,0,['4d954b06a243a5684965b473'],['Residential Building (Apartment / Condo)'],0
4f855e90e4b04695df18ee09,–ê–≤—Ç–æ—Ä—ã–Ω–æ–∫,"['–±—É–ª. –í–∞—Ü–ª–∞–≤–∞ –ì–∞–≤–µ–ª–∞', '–£–∫—Ä–∞—ó–Ω–∞']",50.4299277843838,30.413853714270157,336,2,544,865,7,5.2,['4bf58dd8d48988d124951735'],['Automotive Shop'],23
57cdaa09498e646cd93e69e1,–î–∏–Ω—å –î–∏–Ω—å,"['—É–ª. –ê–∫–∞–¥–µ–º–∏–∫–∞ –ë–µ–ª–µ—Ü–∫–æ–≥–æ, 11', '–ö–∏—ó–≤', '–£–∫—Ä–∞—ó–Ω–∞']",50.43025207519531,30.416187286376953,17,0,4,17,0,0,['4bf58dd8d48988d10c951735'],['Cosmetics Shop'],0
4f6db3e1121d7483f0d7f91e,–§–∞—Ä–º–∞—Ü—ñ—è,"['–Ü–≤–∞–Ω–∞ –õ–µ–ø—Å–µ, 75', '–ö–∏—ó–≤', '–£–∫—Ä–∞—ó–Ω–∞']",50.43025298651001,30.41502633735562,116,1,12,117,1,0,['4bf58dd8d48988d10f951735'],['Pharmacy'],0
4e2c44cec65bcaf4003706d4,FancyLove.com.ua,"['–ë—É–ª—å–≤–∞—Ä –õ–µ–ø—Å–µ, 73/22 (—É–ª.–ë–µ–ª–µ—Ü–∫–æ–≥–æ)', '–ö–∏—ó–≤, 03126', '–£–∫—Ä–∞—ó–Ω–∞']",50.43050211320217,30.415005683898926,861,6,270,1153,12,7.9,['4bf58dd8d48988d128951735'],['Gift Shop'],20
583db9ff9435a96e33311bbe,–ú–æ–ª–æ–∫–æ –≤—ñ–¥ –§–µ—Ä–º–µ—Ä–∞,"['—É–ª.–ë–µ–ª–µ—Ü–∫–æ–≥–æ, 11', '–ö–∏—ó–≤', '–£–∫—Ä–∞—ó–Ω–∞']",50.43017,30.415936,66,1,17,79,5,0,['52f2ab2ebcbc57f1066b8b45'],['Organic Grocery'],0
52387f7911d2e399f7957f9d,–¢—Ä–∞–º–≤–∞–π–Ω–∞ –∑—É–ø–∏–Ω–∫–∞ ¬´–ê–∫–∞–¥–µ–º—ñ–∫–∞ –ë—ñ–ª–µ—Ü—å–∫–æ–≥–æ¬ª,"['–ë—É–ª—å–≤–∞—Ä –õ–µ–ø—Å–µ', '–ö–∏—ó–≤', '–£–∫—Ä–∞—ó–Ω–∞']",50.43031490972752,30.414941813572934,183,0,243,552,3,0,['52f2ab2ebcbc57f1066b8b51'],['Tram Station'],0
4f9bff3be4b0b045848d84e9,–¶–µ–Ω—Ç—Ä –û—Ö–æ—Ä–æ–Ω–∏ –¢–≤–∞—Ä–∏–Ω,['–£–∫—Ä–∞—ó–Ω–∞'],50.426265,30.416693,11,0,9,12,0,0,['4bf58dd8d48988d100951735'],['Pet Store'],0
568b8fa4498eab13285f0ae5,–ü—ñ–≤–¥–µ–Ω–Ω–∏–π –ü–æ—à—Ç–∞–º—Ç,"['–±—É–ª. –Ü–≤–∞–Ω–∞ –õ–µ–ø—Å–µ 34–ê', '–ö–∏—ó–≤', '–£–∫—Ä–∞—ó–Ω–∞']",50.42716979980469,30.416893005371094,5,0,6,6,0,0,['4bf58dd8d48988d172941735'],['Post Office'],0
50b08d95e4b0d8a9f072f23b,"–±—É–ª. –í–∞—Ü–ª–∞–≤–∞ –ì–∞–≤–µ–ª–∞, 34","['–±—É–ª. –í–∞—Ü–ª–∞–≤–∞ –ì–∞–≤–µ–ª–∞, 34', '–£–∫—Ä–∞—ó–Ω–∞']",50.42738387825163,30.416457208343274,221,1,51,281,1,0,['4d954b06a243a5684965b473'],['Residential Building (Apartment / Condo)'],0
555e1a89498ec057580b1c8a,–û—Ä–∞–Ω–∂–µ–≤—ã–π –ª–µ—Å–æ–∫,"['–ë—É–ª.–ò–≤–∞–Ω–∞ –õ–µ–ø—Å–µ', '–£–∫—Ä–∞—ó–Ω–∞']",50.42685943670758,30.41665414415508,91,0,61,153,5,0,"['4bf58dd8d48988d162941735', '4bf58dd8d48988d163941735']","['Other Great Outdoors', 'Park']",0
54c44bdc498ea74d80e752b0,"–±—É–ª. –í–∞—Ü–ª–∞–≤–∞ –ì–∞–≤–µ–ª–∞, 30","['–±—É–ª. –í–∞—Ü–ª–∞–≤–∞ –ì–∞–≤–µ–ª–∞, 30', '–ö–∏—ó–≤', '–£–∫—Ä–∞—ó–Ω–∞']",50.42777591394273,30.416941978303054,6,0,4,12,0,0,['4d954b06a243a5684965b473'],['Residential Building (Apartment / Condo)'],0
570d5114498ed395d1901fa3,Dom,['–£–∫—Ä–∞—ó–Ω–∞'],50.426853,30.417078,3,0,2,3,0,0,['4d954b06a243a5684965b473'],['Residential Building (Apartment / Condo)'],0
51476cd6e4b0702d38bad385,"–±—É–ª. –í–∞—Ü–ª–∞–≤–∞ –ì–∞–≤–µ–ª–∞, 38","['–±—É–ª. –í–∞—Ü–ª–∞–≤–∞ –ì–∞–≤–µ–ª–∞, 38', '–£–∫—Ä–∞—ó–Ω–∞']",50.42634073199137,30.416964958022803,72,0,35,92,0,0,['4d954b06a243a5684965b473'],['Residential Building (Apartment / Condo)'],0
57a1d367498e501f48184693,–≤–µ—Ç–µ—Ä–∏–Ω–∞—Ä–Ω–∞—è –∫–ª–∏–Ω–∏–∫–∞ —Å–æ–ª–æ–º–µ—Å–∫–æ–≥–æ —Ä–∞–π–æ–Ω–∞,['–£–∫—Ä–∞—ó–Ω–∞'],50.426315,30.416623,6,0,5,7,0,0,['5032897c91d4c4b30a586d69'],['Pet Service'],0
5665f491498e680e9e41cb25,–ê–Ω–∏–Ω –¥–≤–æ—Ä–∏–∫üêªüå≤,['–£–∫—Ä–∞—ó–Ω–∞'],50.425894307140176,30.41569983821233,16,0,5,20,0,0,['4bf58dd8d48988d1f1931735'],['General Entertainment'],0
50eea010e4b0316bc24cea2c,–ü–∞—Ä–∏–∫–º–∞—Ö–µ—Ä—Å–∫–∞—è,"['–±—É–ª. –Ü–≤–∞–Ω–∞ –õ–µ–ø—Å–µ, 36–±', '–ö–∏—ó–≤', '–£–∫—Ä–∞—ó–Ω–∞']",50.42668091393567,30.415901492045986,28,1,19,33,0,0,['4bf58dd8d48988d110951735'],['Salon / Barbershop'],0
58658e65abc6d60cc36196ab,"–±—É–ª. –í–∞—Ü–ª–∞–≤–∞ –ì–∞–≤–µ–ª–∞, 79","['Vaclava Havela 79', '–ö–∏—ó–≤, 03126', '–£–∫—Ä–∞—ó–Ω–∞']",50.42758,30.41759,5,0,2,5,1,0,['4d954b06a243a5684965b473'],['Residential Building (Apartment / Condo)'],0
550853e3498e9eb5c269fe80,Maria's Nails,"['–ë—É–ª—å–≤–∞—Ä –õ–µ–ø—Å–µ 38', '–ö–∏—ó–≤', '–£–∫—Ä–∞—ó–Ω–∞']",50.42658754743111,30.417497664292195,95,0,90,211,0,0,['545419b1498ea6ccd0202f58'],['Home Service'],0
51e86148498e425e315f9d20,"–°–∞–ª–æ–Ω –∫—Ä–∞—Å–æ—Ç—ã ""–§–ª–æ—Ä–µ—Å""","['–ë—É–ª. –ò–≤–∞–Ω–∞ –õ–µ–ø—Å–µ 79', '–ö–∏—ó–≤', '–£–∫—Ä–∞—ó–Ω–∞']",50.427311767460765,30.417221785948975,52,2,53,105,3,0,['4bf58dd8d48988d110951735'],['Salon / Barbershop'],0
4fb16aafe4b0cb0e302b37c3,–í–µ—Ç–∫–ª–∏–Ω–∏–∫–∞,"['–î–æ–±—Ä—É–∂—Å–∫–∞—è,8', '–ö–∏—ó–≤', '–£–∫—Ä–∞—ó–Ω–∞']",50.42622748431915,30.416651125883966,346,11,383,766,1,0,['4d954af4a243a5684765b473'],['Veterinarian'],0
55260b30498efe982be7396b,–í –º–∞–º–∫–∏–Ω–æ–π —Ç–∞—á–∫–µ,['–£–∫—Ä–∞—ó–Ω–∞'],50.4278678894043,30.415576934814453,8,0,11,19,0,0,['54541b70498ea6ccd0204bff'],['Transportation Service'],0
52387e8311d2ac8954aafa50,–ó—É–ø–∏–Ω–∫–∞ —Ç—Ä–∞–º–≤–∞—é ‚Äò–í—É–ª. –î–æ–±—Ä—É–∑—å–∫–∞‚Äò,"['–ë—É–ª—å–≤–∞—Ä –õ–µ–ø—Å–µ', '–ö–∏—ó–≤', '–£–∫—Ä–∞—ó–Ω–∞']",50.42685460217267,30.41821914250541,91,0,53,122,0,0,['52f2ab2ebcbc57f1066b8b51'],['Tram Station'],0
517bd268e4b0af460c1fb05d,"–±—É–ª. –í–∞—Ü–ª–∞–≤–∞ –ì–∞–≤–µ–ª–∞, 36","['–±—É–ª. –í–∞—Ü–ª–∞–≤–∞ –ì–∞–≤–µ–ª–∞, 36', '–ö–∏—ó–≤', '–£–∫—Ä–∞—ó–Ω–∞']",50.42705629325082,30.417703100679326,232,1,60,265,2,0,['4d954b06a243a5684965b473'],['Residential Building (Apartment / Condo)'],0
56431db3498edd7c55aaa570,–ê–ø—Ç–µ–∫–∞,"['–ò–≤–∞–Ω–∞ –õ–µ–ø—Å–µ 79', '–£–∫—Ä–∞—ó–Ω–∞']",50.427801,30.417164,8,0,6,8,0,0,['4bf58dd8d48988d10f951735'],['Pharmacy'],0
51984608498edba168d4b96c,–û—Å—Ç–∞–Ω–æ–≤–∫–∞ –î–æ–±—Ä—É–∂—Å–∫–∞—è,['–£–∫—Ä–∞—ó–Ω–∞'],50.426551744379736,30.41644306239622,220,0,80,287,1,0,['4bf58dd8d48988d1fe931735'],['Bus Station'],0
567960b2498e613c62b51216,"–±—É–ª. –í–∞—Ü–ª–∞–≤–∞ –ì–∞–≤–µ–ª–∞, 34–ë","['–±—É–ª. –í–∞—Ü–ª–∞–≤–∞ –ì–∞–≤–µ–ª–∞, 34–ë', '–ö–∏—ó–≤', '–£–∫—Ä–∞—ó–Ω–∞']",50.427002680240896,30.415672137666302,43,0,54,159,0,0,['4d954b06a243a5684965b473'],['Residential Building (Apartment / Condo)'],0
52e816bd498e51eeb96e8cf8,–¶–∞—Ä—Å–∫–∏–π –ü—Ä–∏—é—Ç :–∑,"['–ë—É–ª—å–≤–∞—Ä –ò–≤–∞–Ω–∞ –õ–µ–ø—Å–µ 34–ë', '–ö–∏—ó–≤', '–£–∫—Ä–∞—ó–Ω–∞']",50.42679606331153,30.41546350194209,77,0,5,80,1,0,['4d954b06a243a5684965b473'],['Residential Building (Apartment / Condo)'],0
530e281b498e2bf96e030059,Sir Richard's Residenceüè©,"['–ë—É–ª—å–≤–∞—Ä –ò–≤–∞–Ω–∞ –õ–µ–ø—Å–µ 34–±', '–ö–∏—ó–≤', '–£–∫—Ä–∞—ó–Ω–∞']",50.426842,30.416096,144,0,46,226,0,0,['4d954b06a243a5684965b473'],['Residential Building (Apartment / Condo)'],0
57cb4b55498e00f917e7c44c,-=_–ø–∞–Ω–∞—î—Ö–∞–ª–æ_=-,"['–ö–∏—ó–≤', '–£–∫—Ä–∞—ó–Ω–∞']",50.42774,30.41595,29,0,32,73,0,0,['53e510b7498ebcb1801b55d4'],['Night Market'],0
5224fed0498eedf974d8b5ea,–ê–¢–ë,"['–±—É–ª. –õ–µ–ø—Å–µ, 79–∞', '–ö–∏—ó–≤', '–£–∫—Ä–∞—ó–Ω–∞']",50.42793901011119,30.417000189551363,430,3,518,1669,8,4.8,['4bf58dd8d48988d118951735'],['Grocery Store'],34
5253f6b111d2d28fe1bb37c2,"–û–û–û ""–¢–µ—Ö–Ω–æ–í–ï–î""","['–ë—É–ª—å–≤–∞—Ä –ò–≤–∞–Ω–∞ –õ–µ–ø—Å–µ 79', '–ö–∏—ó–≤', '–£–∫—Ä–∞—ó–Ω–∞']",50.42762929363162,30.417296971662616,106,0,6,112,0,0,['4bf58dd8d48988d124941735'],['Office'],0
50d2da56e4b08f489456cba6,–í–æ–∏–Ω—Å–∫–∞—è —á–∞—Å—Ç—å –ê2788,"['–ö–∞—á–∞–ª–æ–≤–∞, 3', '–ö–∏—ó–≤', '–£–∫—Ä–∞—ó–Ω–∞']",50.427576892954136,30.412688255310062,33,0,22,41,0,0,['4e52adeebd41615f56317744'],['Military Base'],0
53721c21498effdaafd3d52b,"–î–ü ""–ú–∏–ª–∫–∏–ª–µ–Ω–¥-–£–∫—Ä–∞–∏–Ω–∞""",['–£–∫—Ä–∞—ó–Ω–∞'],50.429874,30.409344,13,0,28,63,0,0,['4bf58dd8d48988d130941735'],['Building'],0
51b052f8498e61158d430f6b,"–•–æ–ª–æ–¥–æ–∫–æ–º–±–∏–Ω–∞—Ç 4 –ü–ü ""–†–æ—Å—å""","['–ê–∫–∞–¥–µ–º–∏–∫–∞ –ë–∏–ª–µ—Ü–∫–æ–≥–æ 34', '–£–∫—Ä–∞—ó–Ω–∞']",50.429606373562045,30.409262381956157,53,0,40,93,0,0,['4bf58dd8d48988d124941735'],['Office'],0
51924e0e498e6750b4dba850,–®–∏–Ω–æ–º–æ–Ω—Ç–∞–∂,['–£–∫—Ä–∞—ó–Ω–∞'],50.426686,30.410728,18,0,29,38,1,0,['4eb1c1623b7b52c0e1adc2ec'],['Auto Dealership'],0
502b907ae4b02c4b194c3ee5,–û—Ä–∏–º–∏-–¢—Ä–µ–π–¥,"['–ê–∫–∞–¥–µ–º–∏–∫–∞-–ë–µ–ª–µ—Ü–∫–æ–≥–æ 30', '–ö–∏—ó–≤', '–£–∫—Ä–∞—ó–Ω–∞']",50.42950843845637,30.412291854943263,54,0,18,86,1,0,['4bf58dd8d48988d124941735'],['Office'],0
5173f047498e1d9156e577bd,–ì–∞—Ä–∞–∂–Ω—ã–π –ö–æ–æ–ø–µ—Ä–∞—Ç–∏–≤ –û—Ç—Ä–∞–¥–Ω—ã–π 1,"['–û—Ç—Ä–∞–¥–Ω—ã–π 1', '–ö–∏—ó–≤', '–£–∫—Ä–∞—ó–Ω–∞']",50.42657194292206,30.410302804169934,92,0,88,248,0,0,['4bf58dd8d48988d162941735'],['Other Great Outdoors'],0
536a781d498ef35c4d2af4e2,–£ –§–∏–ª–∏ –∏ –†—É—Å–ª–∞–Ω–∞,['–£–∫—Ä–∞—ó–Ω–∞'],50.42518615722656,30.416994094848633,3,0,3,3,0,0,['4d954b06a243a5684965b473'],['Residential Building (Apartment / Condo)'],0
4f61d515e4b0ed0157b48263,Altis Development,['–£–∫—Ä–∞—ó–Ω–∞'],50.421410733487846,30.41304891251526,15,0,9,15,0,0,['4bf58dd8d48988d124941735'],['Office'],0
51cf7523498e216504f6f6ac,"–±—É–ª. –í–∞—Ü–ª–∞–≤–∞ –ì–∞–≤–µ–ª–∞, 38–ì","['–±—É–ª. –í–∞—Ü–ª–∞–≤–∞ –ì–∞–≤–µ–ª–∞, 38–ì', '–£–∫—Ä–∞—ó–Ω–∞']",50.42556012887014,30.4159715005846,98,2,41,131,0,0,['4d954b06a243a5684965b473'],['Residential Building (Apartment / Condo)'],0
5065cf32e4b001fa51d250fa,"–∫–∞—Ñ–µ ""—Ä–µ—Ç—Ä–æ""",['–£–∫—Ä–∞—ó–Ω–∞'],50.42429666232797,30.417483865197052,5,2,5,5,0,0,['4bf58dd8d48988d155941735'],['Gastropub'],0
54671e16498eb46210d497a3,–î–æ–º Trojan'–æ–≤,['–£–∫—Ä–∞—ó–Ω–∞'],50.425093,30.416531,10,0,35,81,1,0,['50aaa49e4b90af0d42d5de11'],['Castle'],0
53899251498eed7dcdada97c,Dron's house,['–£–∫—Ä–∞—ó–Ω–∞'],50.4244,30.417501,7,0,3,7,0,0,"['4d954b06a243a5684965b473', '4bf58dd8d48988d103941735']","['Residential Building (Apartment / Condo)', 'Home (private)']",0
573f7585498ecc22f7405067,"–±—É–ª. –í–∞—Ü–ª–∞–≤–∞ –ì–∞–≤–µ–ª–∞, 40–ë","['–±—É–ª. –í–∞—Ü–ª–∞–≤–∞ –ì–∞–≤–µ–ª–∞, 40–ë', '–£–∫—Ä–∞—ó–Ω–∞']",50.424713,30.417034,1,0,1,1,0,0,['4d954b06a243a5684965b473'],['Residential Building (Apartment / Condo)'],0
53a1bd5f11d26fd0b9e25e80,–ö–∏—ó–≤–∂–∏—Ç–ª–æ,"['–£–ª.–õ–µ–ø—Å–µ 38-–ì (–º. –ë–µ—Ä–µ—Å—Ç–µ–π—Å–∫–∞—è)', '–ö–∏—ó–≤, 03126', '–£–∫—Ä–∞—ó–Ω–∞']",50.42538,30.41603,1,1,1,1,0,0,['4bf58dd8d48988d1ee931735'],['Hostel'],0
5605240f498e9b2a611dbce1,Diana's residenceüíï,"['–ë—É–ª—å–≤–∞—Ä –ò–≤–∞–Ω–∞ –õ–µ–ø—Å–µ 36-–í', '–ö–∏—ó–≤', '–£–∫—Ä–∞—ó–Ω–∞']",50.42563179199773,30.415318844185204,29,0,8,41,0,0,['4d954b06a243a5684965b473'],['Residential Building (Apartment / Condo)'],0
5644aa9f498e1a0b4b2a9d5a,My apartments‚ù§Ô∏è,"['–ë—É–ª—å–≤–∞—Ä –õ–µ–ø—Å–µ 40–ë', '–ö–∏—ó–≤', '–£–∫—Ä–∞—ó–Ω–∞']",50.42510493703342,30.416724970242132,83,0,136,503,0,0,['4d954b06a243a5684965b473'],['Residential Building (Apartment / Condo)'],0
