id,name,formattedAddress,lat,lng,checkinsCount,tipCount,usersCount,visitsCount,likesCount,rating,categories_ids,categories_names,ratingSignals
57653adf498ed02d5ec89a49,лавочка-цілувалочка,['Україна'],50.419583,30.560147,6,0,5,6,0,0,['52e81612bcbc57f1066b7a22'],['Botanical Garden'],0
4feda653e4b0a13f9f88adba,Оранжерея / Warm House,['Україна'],50.41462759007206,30.560929641083863,27,0,26,27,1,0,"['4eb1c0253b7b52c0e1adc2e9', '4bf58dd8d48988d103941735']","['Garden Center', 'Home (private)']",0
536bab96498e4b46ee9c81ab,"смотровая площадка ""полевой клен"" #420","['Тимирязевская 1', 'Київ', 'Україна']",50.418905,30.567474,11,0,11,13,0,0,['4bf58dd8d48988d165941735'],['Scenic Lookout'],0
5656f1c5498e8673e49d6504,Выставка Орел и Решка в Оранжерее,"['Темирязевская 1', 'Україна']",50.41433892588472,30.56104113307999,98,4,107,114,10,5.5,['507c8c4091d498d9fc8c67a9'],['Public Art'],20
4fb0ea4ce4b047f11def68f3,Лабиринт,['Україна'],50.41802433977684,30.5584139725785,57,0,85,88,2,0,['4eb1c0253b7b52c0e1adc2e9'],['Garden Center'],0
5166b6dbe4b07cad38077939,Березовая Роща,"['Национальный Ботанический Сад', 'Київ', 'Україна']",50.42028877986986,30.55874455463974,189,2,129,212,2,0,['4bf58dd8d48988d162941735'],['Other Great Outdoors'],0
5393fc0c498ea18b1c95e513,Йога в бодсаду,['Україна'],50.41157531738281,30.56133270263672,3,0,3,3,0,0,['4bf58dd8d48988d15f941735'],['Field'],0
520e302b11d25a994009d0d5,Стадион для Американского Футбола (Аллея ООН),['Україна'],50.41575212499723,30.561958028712485,11,0,9,11,0,0,['4cce455aebf7b749d5e191f5'],['Soccer Field'],0
5139c5a1e4b0a4dac737dda1,Едемський Сад,['Україна'],50.41987013576235,30.559470171542724,32,1,30,33,1,0,['4bf58dd8d48988d162941735'],['Other Great Outdoors'],0
52ab058311d2a9ade6c66ee7,ул. Землянская,['Україна'],50.42065707885445,30.56240251186101,24,0,29,45,0,0,['4d954b06a243a5684965b473'],['Residential Building (Apartment / Condo)'],0
4e4f7329d164978659ca5d90,Зверинецкий пещерный монастырь,"['вул. Тімірязєвська, 1', 'Київ', 'Україна']",50.415278,30.561944,71,0,55,71,3,0,"['4bf58dd8d48988d13a941735', '4eb1d4d54b900d56c88a45fc']","['Temple', 'Mountain']",0
5366126e498e4ed27d38a90e,Идеальное место,['Україна'],50.416696,30.566045,2,0,2,2,0,0,['52e81612bcbc57f1066b7a22'],['Botanical Garden'],0
5728d78d498eb3d1343e6ecf,"""Два серця"" лавка",['Україна'],50.41556,30.558266,3,0,3,3,0,0,['4bf58dd8d48988d162941735'],['Other Great Outdoors'],0
55af90f7498e6a04bb3ad80e,TopShop,['Україна'],50.420233265991975,30.55816890641694,5,0,5,5,0,0,['4bf58dd8d48988d104951735'],['Boutique'],0
55005eec498e75638f8f2356,Vidiscope,"['Бастионная, 14', 'Київ', 'Україна']",50.41686,30.559296,4,0,10,13,0,0,['52e81612bcbc57f1066b7a31'],['TV Station'],0
51cab7fe498e3935720b6f4e,Логово Белок,"['Национальный Ботанический Сад', 'Україна']",50.41936916433932,30.562681362072404,62,0,47,66,5,0,['4bf58dd8d48988d163941735'],['Park'],0
51939f66498e7e08d919163f,"""Времена Года""","['Национальный Ботанический Сад', 'Україна']",50.41543508976156,30.559659768246828,35,0,21,35,1,0,['4bf58dd8d48988d15a941735'],['Garden'],0
4fed9c22e4b0f34ae643a9f4,Долина троянд / Rose Garden,['Україна'],50.41814896408416,30.56006602009505,83,1,85,90,7,7.5,['4bf58dd8d48988d15a941735'],['Garden'],8
5163ff59e4b0ec7be4655c75,Беседка у Платана,"['Национальный Ботанический Сад', 'Київ', 'Україна']",50.418457,30.56361,82,0,21,85,1,0,['4bf58dd8d48988d162941735'],['Other Great Outdoors'],0
51825b61498e8e4063afa0b7,Аллея сирени,['Україна'],50.4175875320091,30.563809253213588,156,3,113,166,4,0,"['4bf58dd8d48988d162941735', '4bf58dd8d48988d15a941735']","['Other Great Outdoors', 'Garden']",0
55f2d345498e7dade854c3e4,На Вершине Ботсада),['Україна'],50.41199343934552,30.56373767498383,6,0,2,6,0,0,['4eb1d4d54b900d56c88a45fc'],['Mountain'],0
540b0ca8498e51456f4d1b91,Оранжерейний комплекс,"['ул. Тімірязівська, 1', 'Київ', 'Україна']",50.4143364686715,30.562076896245106,190,3,229,241,17,7.8,['52e81612bcbc57f1066b7a22'],['Botanical Garden'],19
52822ab311d2b80d0e50aede,"Аптека ""Здоровая Аптека""","['Ул.Киквидзе 1/2', 'Україна']",50.41803730468175,30.561446394084154,50,0,29,52,1,0,['4bf58dd8d48988d10f951735'],['Pharmacy'],0
55f7ec13498e98d11ff3b090,Буддийская Ступа в Ботсаду,['Україна'],50.41220447733397,30.560130398023283,50,0,66,73,2,0,['52e81612bcbc57f1066b7a3e'],['Buddhist Temple'],0
512cab13e4b0d2e98545704d,Сад Магнолий,"['Национальный Ботанический Сад', 'Україна']",50.415044691369005,30.563877164121337,372,2,390,431,22,8.7,['4bf58dd8d48988d15a941735'],['Garden'],22
51277063e4b08f05b07a4218,Корейський Традиційний Сад,['Україна'],50.41276733978997,30.56035365633113,214,5,282,329,4,6.3,['4bf58dd8d48988d15a941735'],['Garden'],10
5728d1d4498e9546f0074674,Сад азалій,"['вул. Тимірязєвська', '01014', 'Україна']",50.41665,30.560171,41,1,40,43,2,0,['4bf58dd8d48988d163941735'],['Park'],0
4dd8d2bbe4cd37c893ce420b,Видубицький чоловічий монастир,"['вул. Видубицька, 40', 'Київ', 'Україна']",50.41715617259984,30.56856701519582,2853,15,2814,4590,125,9.0,"['52e81612bcbc57f1066b7a40', '4bf58dd8d48988d132941735', '4deefb944765f83613cdba6e']","['Monastery', 'Church', 'Historic Site']",142
50bb548ce4b094f1711769a1,Эдемский Сад,"['вул. Тимірязівська, 1', 'Київ', 'Україна']",50.41514424318031,30.56067354188093,377,6,405,442,14,6.9,"['52e81612bcbc57f1066b7a22', '4bf58dd8d48988d15f941735']","['Botanical Garden', 'Field']",22
4f2e225ee4b05a84d8ab8834,Свято-Троїцький Іонінський монастир,"['вул. Тімірязєвська, 1', 'Київ, 01014', 'Україна']",50.41587999313066,30.562581088162293,1304,6,2195,3596,76,8.9,"['52e81612bcbc57f1066b7a40', '4bf58dd8d48988d13a941735', '4deefb944765f83613cdba6e']","['Monastery', 'Temple', 'Historic Site']",86
55447873498e409bffd844d5,Сад бузків,['Україна'],50.41737641667073,30.563981396894192,50,0,59,63,4,0,['52e81612bcbc57f1066b7a22'],['Botanical Garden'],0
4bb743e02f70c9b6316d8630,Національний ботанічний сад ім. М. М. Гришка / Gryshko National Botanic Garden (Національний ботанічний сад ім. М. М. Гришка),"['вул. Тимірязівська, 1', 'Київ, 01014', 'Україна']",50.41517938017206,30.557663141359214,34609,276,31670,61549,2674,9.2,"['52e81612bcbc57f1066b7a22', '4bf58dd8d48988d163941735']","['Botanical Garden', 'Park']",3080
