id,name,formattedAddress,lat,lng,checkinsCount,tipCount,usersCount,visitsCount,likesCount,rating,categories_ids,categories_names,ratingSignals
57361933cd109a450245f346,Салон колористики Goldwell,"['ул. Машиностроителей, 1г', 'Вишнёвое', 'Україна']",50.394195,30.401477,2,0,2,2,0,0,['4bf58dd8d48988d110951735'],['Salon / Barbershop'],0
52615af411d2bc746b722c11,потяг Київ - Чернівці,['Україна'],50.39195496034659,30.399008601946825,14,0,14,14,0,0,['4bf58dd8d48988d12a951735'],['Train'],0
51136fd8f2e78e3903e7c621,отель тиса,"['Большая Окружная, 4Б', 'Київ', 'Україна']",50.398232681664645,30.407109260559086,13,1,10,13,1,0,['4bf58dd8d48988d1fa931735'],['Hotel'],0
4faea8cfe4b09cca61a5200b,Лесопосадка,['Україна'],50.39139683856441,30.401838227713373,122,0,34,124,1,0,['52e81612bcbc57f1066b7a23'],['Forest'],0
542a4f46498e550c05d85254,"ЖК ""Акварели2""",['Україна'],50.39648464805258,30.40751568190339,7,0,6,7,0,0,['4f2a210c4b9023bd5841ed28'],['Housing Development'],0
51c191b2498e2268450eaa23,Эллада Киев РЦ Новус (новый склад),"['Київ', 'Україна']",50.400871113173,30.404843306491728,50,0,24,63,0,0,['4f04b1572fb6e1c99f3db0bf'],['Storage Facility'],0
54475b2d498e182adf3bf77b,Господар ТМ,['Україна'],50.400548925716826,30.40761652974584,30,0,9,42,0,0,['4bf58dd8d48988d124941735'],['Office'],0
51790543e4b038ca2750ac3c,Агриматко,"['Чорновола 45', 'Україна']",50.39261222278073,30.40530295937059,54,0,110,194,1,0,['4bf58dd8d48988d124941735'],['Office'],0
4eda01372c5b50ab9e10d032,Дельта Медикал,"[""вул. В'ячеслава Чорновола, 43"", 'Вишневе, 08132', 'Україна']",50.39201021302138,30.402354792048925,424,0,286,800,3,0,"['4bf58dd8d48988d124941735', '52e81612bcbc57f1066b7a36']","['Office', 'Warehouse']",0
