id,name,formattedAddress,lat,lng,checkinsCount,tipCount,usersCount,visitsCount,likesCount,rating,categories_ids,categories_names,ratingSignals
518544d6498e0b8abbc6fe9f,Гараж у Мучи,['Україна'],50.52194595336914,30.469432830810547,7,0,7,12,0,0,['4eb1c1623b7b52c0e1adc2ec'],['Auto Dealership'],0
551540f5498e6475175d5333,Линде газ,['Україна'],50.523388,30.476461,5,0,7,9,0,0,['4bf58dd8d48988d113951735'],['Gas Station'],0
512f2019e4b02b40581bb54a,Склад Хранения № 8 (мультибренд),"['Кемеровская 1', 'Україна']",50.523618094063664,30.474891874162726,73,0,22,90,0,0,['4f04b1572fb6e1c99f3db0bf'],['Storage Facility'],0
54099d1d498e5f8249cc496a,сто тисяч,['Україна'],50.52214431762695,30.468908309936523,2,0,2,2,0,0,['52e928d0bcbc57f1066b7e96'],['Ukrainian Restaurant'],0
58a88279fb9d897f0fbbf6b2,Банька,['Україна'],50.523354,30.469172,1,0,1,1,0,0,['4bf58dd8d48988d1f1931735'],['General Entertainment'],0
5419effc498e29da7b437b02,полярная,['Україна'],50.52207946777344,30.469465255737305,4,0,4,4,0,0,['4c38df4de52ce0d596b336e1'],['Parking'],0
52985c2b498eee0bc4096b9c,Gusto/Густо,"['Полярная 20 В (Лебединская)', 'Київ', 'Україна']",50.52176663723141,30.47801779477123,6,1,6,6,2,0,['4bf58dd8d48988d147941735'],['Diner'],0
5282638e498ea7e355dfd0c9,ДК 911,"['Київ', 'Україна']",50.523657400973825,30.468519323714123,14,4,7,14,2,0,[],[],0
539a7a5d498e2eba5805e1e5,озеро Мінське (Опечень-6),"['Київ', 'Україна']",50.523274409369975,30.47303184493288,16,0,12,16,1,0,['4bf58dd8d48988d161941735'],['Lake'],0
