id,name,formattedAddress,lat,lng,checkinsCount,tipCount,usersCount,visitsCount,likesCount,rating,categories_ids,categories_names,ratingSignals
52861cd8498e8f00d4ff8d52,Деканат НМУ,['Україна'],50.39602482193565,30.441206905562524,5,0,4,7,0,0,['4bf58dd8d48988d130941735'],['Building'],0
55bcf445498ed18b27fab76c,Детская площадка Жуляны,['Україна'],50.393311,30.443174,38,0,46,102,1,0,['4bf58dd8d48988d1e7941735'],['Playground'],0
534ec1e4498e7e2d7d2f019b,Лондон,['Україна'],50.40049234066064,30.443936416531425,13,1,13,13,2,0,['4bf58dd8d48988d16d941735'],['Café'],0
53406f99498ee61b83e04bfd,Сэндвич,['Україна'],50.39314285804804,30.447194833645753,5,0,5,5,0,0,['4bf58dd8d48988d1cb941735'],['Food Truck'],0
518388d0498eb65be2244b4e,Жулянське кладовище,"['вул. Повітрофлотська, 24', 'Київ', 'Україна']",50.3982048738202,30.44072550787284,9,0,19,20,0,0,['4bf58dd8d48988d15c941735'],['Cemetery'],0
574952ed498e423edeb66de3,Дім Культури Жуляни,"['вул. Героїв Війни, 14', 'Київ', 'Україна']",50.392944,30.44295,20,0,23,51,2,0,['52e81612bcbc57f1066b7a32'],['Cultural Center'],0
590d75a5e65d0c3c651c149b,Детский Сад-Клуб Виктории Мироновой,"['Стадіонна вулиця', 'Київ', 'Україна']",50.394781,30.44646,2,0,2,2,0,0,['50328a8e91d4c4b30a586d6c'],['Non-Profit'],0
4ff89b83e4b04f76787968ee,Пам'ятний знак на честь дружби міст Києва і Москви,"['вул. Маршала Якубовського', 'Київ', 'Україна']",50.393455326457804,30.445592931641578,148,1,60,192,0,0,['4bf58dd8d48988d12d941735'],['Monument / Landmark'],0
50de1931e4b0f6dd0331f41c,Жуляни,"['Київ', 'Україна']",50.392979983003976,30.44483184814453,3308,2,1699,4961,10,0,['4f2a25ac4b909258e854f55f'],['Neighborhood'],0
