id,name,formattedAddress,lat,lng,checkinsCount,tipCount,usersCount,visitsCount,likesCount,rating,categories_ids,categories_names,ratingSignals
5392bc9e498e10da32c99307,річка Десьонка,['Україна'],50.50304992171581,30.57058673099238,24,0,21,28,0,0,['4bf58dd8d48988d1e2941735'],['Beach'],0
5170f5a0e4b0e5cea7989ffe,Киевский виндсерфинг клуб FunSurf,"['Залив Десенка', 'Київ', 'Україна']",50.50334930419922,30.568157196044922,220,3,118,281,8,7.1,['4bf58dd8d48988d1e3941735'],['Surf Spot'],12
53216a41498e957b252ce81f,Кладбище домашних животных,['Україна'],50.502841,30.576644,3,0,3,3,0,0,['4bf58dd8d48988d15c941735'],['Cemetery'],0
505e012ee4b038a3e4d992bd,Банька,"['Маяковского 14', 'Київ', 'Україна']",50.509761285587366,30.577455130211852,211,3,182,451,9,7.8,['52e81612bcbc57f1066b7a27'],['Bath House'],11
4e1842e9aeb7eb0120c8f12a,Клуб Виндсерферов (аренда и обучение),"['Київ', 'Україна']",50.50332001672326,30.568252622541795,65,0,32,68,1,0,['4bf58dd8d48988d1e3941735'],['Surf Spot'],0
58d68de4e6160c04e8b5185d,Купальня На Троещине,"['Unnamed Road', 'Київ, 02000', 'Україна']",50.501938,30.568764,1,0,1,1,0,0,['4bf58dd8d48988d162941735'],['Other Great Outdoors'],0
4f642cc1e4b014afeae1a2f6,Гнилуша,"['Київ', 'Україна']",50.509674035889276,30.57559490203857,110,0,56,114,2,0,['4bf58dd8d48988d161941735'],['Lake'],0
51c833ba498e0ac96920d1bc,"1ая лодочная станция, Десна",['Україна'],50.50296899462227,30.56832361086569,34,1,21,34,1,0,['4bf58dd8d48988d1e2941735'],['Beach'],0
4f9fe771e4b0a37923ed9ea8,"Пляж ""Десенка""","['р. Десенка', 'Київ', 'Україна']",50.505105991732925,30.568344255020854,1901,11,1253,2304,41,7.0,"['4bf58dd8d48988d1e2941735', '4eb1d4dd4b900d56c88a45fd', '4d954b16a243a5684b65b473']","['Beach', 'River', 'Rest Area']",60
