id,name,formattedAddress,lat,lng,checkinsCount,tipCount,usersCount,visitsCount,likesCount,rating,categories_ids,categories_names,ratingSignals
50eee236e4b03c500ae0307d,–ò—Ç–∞–ª—Å–µ—Ä–≤–∏—Å,"['—É–ª–∏—Ü–∞ –†–µ–∑–µ—Ä–≤–Ω–∞—è, 8 –í', '–ö–∏—ó–≤', '–£–∫—Ä–∞—ó–Ω–∞']",50.50233743976286,30.48238379435109,37,1,22,44,3,0,['4eb1c1623b7b52c0e1adc2ec'],['Auto Dealership'],0
4f8fe985e4b05b1cb702808c,–ú–∞—Ä—à—Ä—É—Ç–Ω–µ —Ç–∞–∫—Å—ñ ‚Ññ464,"['—Å—Ç.–º. ""–õ—É–∫\'—è–Ω—ñ–≤—Å—å–∫–∞"" (—Å—Ç.–º. ""–ì–µ—Ä–æ—ó–≤ –î–Ω—ñ–ø—Ä–∞"")', '–ö–∏—ó–≤', '–£–∫—Ä–∞—ó–Ω–∞']",50.503699457118046,30.481530188178223,98,0,40,100,0,0,"['4bf58dd8d48988d12b951735', '4f2a23984b9023bd5841ed2c']","['Bus Line', 'Moving Target']",0
5197b32c498ec577cec59135,–ì–∞—Ä–∞–∂–∏,['–£–∫—Ä–∞—ó–Ω–∞'],50.504705645876925,30.48116226206127,67,0,52,93,1,0,['4c38df4de52ce0d596b336e1'],['Parking'],0
52b2ad03498e5b5da0f31894,ALF CLUB –ö–ª—É–± —Ü–µ–Ω–∏—Ç–µ–ª–µ–π –∏—Ç–∞–ª—å—è–Ω—Å–∫–∏—Ö –∞–≤—Ç–æ–º–æ–±–∏–ª–µ–π,['–£–∫—Ä–∞—ó–Ω–∞'],50.50227336557643,30.48255579697705,20,0,13,24,0,0,['4eb1c1623b7b52c0e1adc2ec'],['Auto Dealership'],0
5916d58ce2ead11735e20a48,Lancer –°–µ—Ä–≤–∏—Å,"['–ö–∏—ó–≤', '–£–∫—Ä–∞—ó–Ω–∞']",50.502875,30.482248,1,0,1,1,0,0,['4bf58dd8d48988d124951735'],['Automotive Shop'],0
55d2d8b9498effc44b136127,SOCAR,"['–≤—É–ª. –ë–æ–≥–∞—Ç–∏—Ä—Å—å–∫–∞, 1–µ', '–ö–∏—ó–≤', '–£–∫—Ä–∞—ó–Ω–∞']",50.50573944468081,30.482902639318677,1048,2,1690,3344,20,8.3,['4bf58dd8d48988d113951735'],['Gas Station'],23
536dde2b498ef999e98ed28b,–ú–∞—Ä—à–∞–ª–∞ –¢–∏–º–æ—à–µ–Ω–∫–æ 2/4,"['–ú. –¢–∏–º–æ—à–µ–Ω–∫–æ 2/4', '–ö–∏—ó–≤', '–£–∫—Ä–∞—ó–Ω–∞']",50.50566382158406,30.48776810335343,163,0,46,302,0,0,['4d954b06a243a5684965b473'],['Residential Building (Apartment / Condo)'],0
539dd242498e2eba581e3854,–±–∞–∑–∞ –æ—Ç–¥—ã—Ö–∞ –ø–æ–ª–∏—Ç–µ—Ö,['–£–∫—Ä–∞—ó–Ω–∞'],50.50793464208255,30.483802873736966,4,0,4,4,0,0,['52e81612bcbc57f1066b7a10'],['Summer Camp'],0
5704ec70498e5ea44d722e1e,–î–∏—Ç—è—á–∏–π –º–∞–π–¥–∞–Ω—á–∏–∫ –Ω–∞ –¢–∏–º–æ—à–µ–Ω–∫–∞ 3–∞,['–£–∫—Ä–∞—ó–Ω–∞'],50.50871849593984,30.486370011612774,7,0,3,7,0,0,['4bf58dd8d48988d1e7941735'],['Playground'],0
54365d20498eaa2525403efd,–õ–µ–Ω–æ—á–∫–∞‚ô°,"['–¢–∏–º–æ—à–µ–Ω–∫–æ 3', '–ö–∏—ó–≤', '–£–∫—Ä–∞—ó–Ω–∞']",50.50725555419922,30.486072540283203,30,0,3,32,0,0,['4d954b06a243a5684965b473'],['Residential Building (Apartment / Condo)'],0
52284cde11d2170be92602ac,–î–µ—Ç—Å–∫–∏–π –°–∞–¥ #589,"['–¢–∏–º–æ—à–µ–Ω–∫–æ, 3 –±', '–ö–∏—ó–≤', '–£–∫—Ä–∞—ó–Ω–∞']",50.50878899941323,30.48756523098963,64,0,10,68,1,0,['4f4533814b9074f6e4fb0107'],['Nursery School'],0
558c4927498e1838446d8118,–ó–Ω–∞–π—à–æ–≤ –¢—É—Ä–Ωi—á–∫–∏,['–£–∫—Ä–∞—ó–Ω–∞'],50.50903319403023,30.486955245100624,114,0,8,122,0,0,['4f4528bc4b90abdf24c9de85'],['Athletics & Sports'],0
570921ce498e19b1dcbc863f,—Ç—Ä–æ–π–∫–∞,"['–¢–∏–º–æ—à–µ–Ω–∫–æ 3', '–£–∫—Ä–∞—ó–Ω–∞']",50.50805526970914,30.487856025460044,9,0,23,36,0,0,['4bf58dd8d48988d164941735'],['Plaza'],0
4f85a628e4b048403ce9eb2a,–î–µ—Ç—Å–∫–∞—è –ø–ª–æ—â–∞–¥–∫–∞ –≤–æ–∑–ª–µ –±—é–≤–µ—Ç–∞,['–£–∫—Ä–∞—ó–Ω–∞'],50.51039498709611,30.48695634255575,91,0,40,101,0,0,['4bf58dd8d48988d1e7941735'],['Playground'],0
52ea9250498e8a10c6db39bc,Galina's apt.,"['–ú–∞—Ä—à–∞–ª–∞ –¢–∏–º–æ—à–µ–Ω–∫–∞, 3–∞', '–ö–∏—ó–≤', '–£–∫—Ä–∞—ó–Ω–∞']",50.50873498999893,30.486139495241694,38,0,2,42,0,0,"['4d954b06a243a5684965b473', '4bf58dd8d48988d103941735']","['Residential Building (Apartment / Condo)', 'Home (private)']",0
514412a0e4b0ff6e22d174bc,"–¢–∏–º–æ—à–µ–Ω–∫–æ, 3","['—Ç–∏–º–æ—à–µ–Ω–∫–æ, 3', '–ö–∏—ó–≤, 04212', '–£–∫—Ä–∞—ó–Ω–∞']",50.50730477730959,30.48720932491843,247,1,127,447,4,0,['4d954b06a243a5684965b473'],['Residential Building (Apartment / Condo)'],0
5326d6c9498eaf9f36d00abb,–î–ù–ó #589,"['–£–ª. –ú–∞—Ä—à–∞–ª–∞ –¢–∏–º–æ—à–µ–Ω–∫–∞ 3–±', '–ö–∏—ó–≤', '–£–∫—Ä–∞—ó–Ω–∞']",50.509332773889305,30.488676114591314,215,0,35,246,1,0,['4f4533814b9074f6e4fb0107'],['Nursery School'],0
52dbad5a11d23f58c935ddb6,Time for beauty,"['–ö–∏—ó–≤', '–£–∫—Ä–∞—ó–Ω–∞']",50.507286186758726,30.48656205744144,30,0,19,44,1,0,['4f04aa0c2fb6e1c99f3db0b8'],['Nail Salon'],0
5638f1b7cd10dca40360f8bf,–ö–∏—ó–≤—Ö–ª—ñ–± –ö—ñ–æ—Å–∫,"['–ú–∞—Ä—à—à–∞–ª–∞ –¢–∏–º–æ—à–µ–Ω–∫–∞ 1 (–ë–æ–≥–∞—Ç–∏—Ä—Å—å–∫–∞)', '–ö–∏—ó–≤, 04212', '–£–∫—Ä–∞—ó–Ω–∞']",50.50740197939086,30.48619914898593,25,0,18,32,2,0,['4bf58dd8d48988d16a941735'],['Bakery'],0
513264e3e4b0e80cdbbd6b8a,–æ—Å—Ç–∞–Ω–æ–≤–∫–∞ –±–æ–≥–∞—Ç—ã—Ä—Å–∫–∞—è,['–£–∫—Ä–∞—ó–Ω–∞'],50.50683991477338,30.487668825064773,7,0,6,7,0,0,['52f2ab2ebcbc57f1066b8b4f'],['Bus Stop'],0
4eccaafd0e61150350b4fdec,–í—ñ–¥–¥—ñ–ª –î–µ—Ä–∂–∞–≤–Ω–∏—Ö –†–µ—î—Å—Ç—Ä–∞—Ç–æ—Ä—ñ–≤,"['–ö–∏—ó–≤', '–£–∫—Ä–∞—ó–Ω–∞']",50.50624697728876,30.4859290356493,8,1,5,8,0,0,['4bf58dd8d48988d130941735'],['Building'],0
580fbbe038fa104178f41a87,–¢—ñ–ø-–¢–æ–ø –°–µ—Ä–≤—ñ—Å,"['–≤—É–ª. –ë–æ–≥–∞—Ç–∏—Ä—Å—å–∫–∞, 2—î', '–ö–∏—ó–≤', '–£–∫—Ä–∞—ó–Ω–∞']",50.507606,30.484184,3,0,3,3,0,0,['52f2ab2ebcbc57f1066b8b44'],['Auto Garage'],0
581368a938fa1c0b192d8391,—É –ñ–µ–∫–∏ –≤ —Ç–∞—á—Ü—ñ))),['–£–∫—Ä–∞—ó–Ω–∞'],50.506129,30.483151,6,0,2,6,0,0,['54541b70498ea6ccd0204bff'],['Transportation Service'],0
55a6c01f498ea4974f5c5077,House üè†üè©,"['–¢–∏–º–æ—à–µ–Ω–∫–∞ 1', '–ö–∏—ó–≤, 04212', '–£–∫—Ä–∞—ó–Ω–∞']",50.50895407286213,30.48607497744413,6,0,4,6,0,0,['4d954b06a243a5684965b473'],['Residential Building (Apartment / Condo)'],0
570f9e12498e516d28b11757,–¢–∏—Ö–∞—è –∑–æ–Ω–∞ –¥–ª—è –æ—Ç–¥—ã—Ö–∞,['–£–∫—Ä–∞—ó–Ω–∞'],50.5076184971671,30.484054777105282,11,0,8,11,0,0,['4bf58dd8d48988d159941735'],['Trail'],0
51da4e06498e43b779cbc9ea,–ë–æ–≥–∞—Ç—ã—Ä—Å–∫–∞—è 32,"['–ë–æ–≥–∞—Ç—ã—Ä—Å–∫–∞—è, 32', '–£–∫—Ä–∞—ó–Ω–∞']",50.50817489255398,30.486343680588423,6,0,6,6,0,0,['4bf58dd8d48988d196941735'],['Hospital'],0
5314a7de498e89ba178568f0,–ú–∞—Ä—à–∞–ª–∞ –¢–∏–º–æ—à–µ–Ω–∫–æ 1–±,['–£–∫—Ä–∞—ó–Ω–∞'],50.510314205668415,30.486493510261997,97,0,59,151,0,0,['4d954b06a243a5684965b473'],['Residential Building (Apartment / Condo)'],0
4f903bdae4b0675701a57569,–®–∏–Ω–æ–º–æ–Ω—Ç–∞–∂,"['—É–ª. –ú–∞—Ä—à–∞–ª–∞ –¢–∏–º–æ—à–µ–Ω–∫–æ, 2–ñ', '–ö–∏—ó–≤', '–£–∫—Ä–∞—ó–Ω–∞']",50.50687,30.485162,13,1,11,14,0,0,['4bf58dd8d48988d124951735'],['Automotive Shop'],0
51ea20a9498e10cf36049ad1,–ù–æ—Ç–∞—Ä–∏–∞–ª—å–Ω–∞—è –∫–æ–Ω—Ç–æ—Ä–∞,"['—É–ª. –¢–∏–º–æ—à–µ–Ω–∫–∞, 2–î', '–ö–∏—ó–≤', '–£–∫—Ä–∞—ó–Ω–∞']",50.50612867315516,30.48615565413292,81,0,45,83,0,0,['52f2ab2ebcbc57f1066b8b3f'],['Lawyer'],0
53f6247a498ee389ab5aef18,–ü–æ–ª–∏—Ü–∏—è –û–±–æ–ª–æ–Ω—Å–∫–æ–≥–æ –†–£ –ì–£–ú–í–î,['–£–∫—Ä–∞—ó–Ω–∞'],50.507112663302074,30.487206617477703,37,0,35,44,0,0,['4bf58dd8d48988d12e941735'],['Police Station'],0
5130ca30e4b0dc2000c9fffc,–ë—é–≤–µ—Ç,"['–£–ª. –ú. –¢–∏–º–æ—à–µ–Ω–∫–æ, 11', '–ö–∏—ó–≤', '–£–∫—Ä–∞—ó–Ω–∞']",50.51010356953639,30.487129671064935,197,2,119,273,1,0,['4fbc1be21983fc883593e321'],['Well'],0
52cd210f11d2c9fdb549e947,Evim,"['–¢–∏–º–æ—à–µ–Ω–∫–æ 2/4', '–ö–∏—ó–≤', '–£–∫—Ä–∞—ó–Ω–∞']",50.50600697944186,30.48768043544846,142,0,1,148,1,0,"['4d954b06a243a5684965b473', '4bf58dd8d48988d103941735']","['Residential Building (Apartment / Condo)', 'Home (private)']",0
517266e0498e1d914a99407b,–û–±–æ–ª–æ–Ω—Å—å–∫i –ì–∞—Ä–∞–∂i,"['–í—É–ª. –ë–æ–≥–∞—Ç–∏—Ä—Å—å–∫–∞, 2', '–ö–∏i–≤', '–£–∫—Ä–∞—ó–Ω–∞']",50.509790931806826,30.48469281902731,39,0,19,42,0,0,['4eb1c1623b7b52c0e1adc2ec'],['Auto Dealership'],0
4f3a9554e4b0732428749c84,–ì—É—Ä—Ç–æ–∂–∏—Ç–æ–∫ –ù–ú–ê–£ —ñ–º. –ü. –Ü. –ß–∞–π–∫–æ–≤—Å—å–∫–æ–≥–æ,"['—É–ª. –¢–∏–º–æ—à–µ–Ω–∫–∞ 2–ö', '–ö–∏—ó–≤', '–£–∫—Ä–∞—ó–Ω–∞']",50.506023363804864,30.486855158447646,594,4,159,780,2,0,['4bf58dd8d48988d1a3941735'],['College Residence Hall'],0
50f1ff29e4b027793c5f1f01,–ü—Ä–∏–≤–∞—Ç–±–∞–Ω–∫,"['–ú–∞—Ä—à–∞–ª–∞ –¢–∏–º–æ—à–µ–Ω–∫–æ 13–∞', '–ö–∏—ó–≤', '–£–∫—Ä–∞—ó–Ω–∞']",50.51180533380266,30.49183836636433,385,4,217,497,0,4.8,['4bf58dd8d48988d10a951735'],['Bank'],11
514dd31be4b04b410d3a4330,"–¢–∏–º–æ—à–µ–Ω–∫–æ, 1","['—É–ª. –ú–∞—Ä—à–∞–ª–∞ –¢–∏–º–æ—à–µ–Ω–∫–æ, 1', '–ö–∏–µ–≤, 04212', '–£–∫—Ä–∞—ó–Ω–∞']",50.50843223700763,30.485837459564205,1031,3,238,1399,7,0,['4d954b06a243a5684965b473'],['Residential Building (Apartment / Condo)'],0
4fc30a49e4b0524b5cee8575,–¢–∏–º–æ—à–µ–Ω–∫–∞ 3–∞,"['–ú–∞—Ä—à–∞–ª–∞ –¢–∏–º–æ—à–µ–Ω–∫–∞ 3–∞', '–ö–∏—ó–≤', '–£–∫—Ä–∞—ó–Ω–∞']",50.50863167344602,30.486374390192992,2792,1,321,3379,3,0,['4d954b06a243a5684965b473'],['Residential Building (Apartment / Condo)'],0
581b738c45a1700b0e47016c,Coffee Delight,['–£–∫—Ä–∞—ó–Ω–∞'],50.507159,30.48647,9,0,9,9,1,0,['4bf58dd8d48988d1e0931735'],['Coffee Shop'],0
5082f45ee4b0f51bc6811179,–¢—Ä–æ–ª–µ–π–±—É—Å ‚Ññ24,"['–≤—É–ª. –ü—ñ–≤–Ω—ñ—á–Ω–∞ (–ø—Ä–æ—Å–ø. –°–≤–æ–±–æ–¥–∏)', '–ö–∏—ó–≤', '–£–∫—Ä–∞—ó–Ω–∞']",50.50581626170483,30.475447707436032,429,2,177,471,2,0,"['4bf58dd8d48988d12b951735', '4f2a23984b9023bd5841ed2c']","['Bus Line', 'Moving Target']",0
5905bda8bfc6d00e184f9c0b,–ö–æ—Ñ–µ–π–Ω—è –¢–∞—Ä—Ç–∏–ª–ª–∞,"['–¢–∏–º–æ—à–µ–Ω–∫–æ 7–±', '–ö–∏—ó–≤', '–£–∫—Ä–∞—ó–Ω–∞']",50.509735,30.487446,3,0,3,3,0,0,['4bf58dd8d48988d1e0931735'],['Coffee Shop'],0
4da569da5da3d30fafb7bc5b,–û–±–æ–ª–æ–Ω—Å—å–∫–∏–π —Ä–∞–π–æ–Ω–Ω–∏–π —Å—É–¥,"['–≤—É–ª. –ú–∞—Ä—à–∞–ª–∞ –¢–∏–º–æ—à–µ–Ω–∫–æ, 2-–Ñ (–≤—É–ª. –ë–æ–≥–∞—Ç–∏—Ä—Å—å–∫–∞)', '–ö–∏—ó–≤, 04212', '–£–∫—Ä–∞—ó–Ω–∞']",50.50653800490031,30.48677624994927,2408,8,2087,5225,10,0,['4bf58dd8d48988d12b941735'],['Courthouse'],0
4e0f0198d4c0f6d6b3ff6688,OKKO,"['–≤—É–ª. –ë–æ–≥–∞—Ç–∏—Ä—Å—å–∫–∞, 2-–Ñ', '–ö–∏—ó–≤, 07000', '–£–∫—Ä–∞—ó–Ω–∞']",50.507876798282034,30.48392221770942,2283,23,3710,7132,54,7.1,['4bf58dd8d48988d113951735'],['Gas Station'],86
51b1eb80498e38fa1e6423e5,–°–¢–û –ü—É–ª—å—Å–∞—Ä,"['–£–ª. –õ—É–≥–æ–≤–∞—è 15', '–ö–∏—ó–≤', '–£–∫—Ä–∞—ó–Ω–∞']",50.50675964355469,30.482160568237305,4,0,3,4,0,0,['4bf58dd8d48988d124951735'],['Automotive Shop'],0
533c3c87498ea0a2787b9c72,–º–æ—è –º–∞—à–∏–Ω–∞üòà,['–£–∫—Ä–∞—ó–Ω–∞'],50.50623946057513,30.48219324544651,1,0,1,1,0,0,['4bf58dd8d48988d1f9931735'],['Road'],0
5082a16ee4b00b2c401a8b99,Aral,"['–õ—É–≥–æ–≤–∞—è, 15', '–£–∫—Ä–∞—ó–Ω–∞']",50.50717727105786,30.479910498330554,11,0,20,35,1,0,['4bf58dd8d48988d113951735'],['Gas Station'],0
54f466c0498edbb8440529ef,–°—Ç–æ–º–∞—Ç–æ–ª–æ–≥–∏—è –ò–∑—É–º—Ä—É–¥‚Äì–î–µ–Ω—Ç,"['–ë–æ–≥–∞—Ç—ã—Ä—Å–∫–∞—è 6/1', '–ö–∏—ó–≤', '–£–∫—Ä–∞—ó–Ω–∞']",50.507913499737114,30.48164050712504,3,0,3,3,1,0,['4bf58dd8d48988d178941735'],"[""Dentist's Office""]",0
525bbc1a498e203302c8ee6e,"–°–¢–û ""–ê–Ω–°–µ—Ä"" / STO AnSer","['–£–ª. –õ—É–≥–æ–≤–∞—è 16–±', '–ö–∏—ó–≤', '–£–∫—Ä–∞—ó–Ω–∞']",50.50593707940374,30.47994528514561,22,2,48,59,0,0,['4bf58dd8d48988d124951735'],['Automotive Shop'],0
56f66f0f498ec6c7e1eb515e,–º—É–∑—ã–∫–∞–Ω—Ç/ –º–∞–≥–∞–∑–∏–Ω –º—É–∑—ã–∫–∞–ª—å–Ω—ã—Ö –∏–Ω—Å—Ç—Ä—É–º–µ–Ω—Ç–æ–≤,"['–õ—É–≥–æ–≤–∞—è (12)', '–ö–∏—ó–≤', '–£–∫—Ä–∞—ó–Ω–∞']",50.507164,30.479499,1,0,1,1,0,0,['4bf58dd8d48988d1fe941735'],['Music Store'],0
5593c3ea498e9f8993dbd237,–∞–≤—Ç–æ–±—É—Å #180üò™,['–£–∫—Ä–∞—ó–Ω–∞'],50.507281131089776,30.48207570205282,1,0,1,1,0,0,['5310b8e5bcbc57f1066bcbf1'],['Prison'],0
50f4008be4b0749cde952651,–†–∏–∫–æ–Ω,['–£–∫—Ä–∞—ó–Ω–∞'],50.509017,30.481384,1,0,1,1,0,0,['4bf58dd8d48988d124941735'],['Office'],0
5434eb44498e90be745d1633,–ö–æ–Ω—Ñ–µ—Ä–µ–Ω—Ü –∑–∞–ª,['–£–∫—Ä–∞—ó–Ω–∞'],50.510248,30.48174,6,0,3,6,0,0,['4eb1bea83b7b6f98df247e06'],['Factory'],0
58e4c0073cccc6683b87c94a,ExMoto,"['–ö–∏—ó–≤', '–£–∫—Ä–∞—ó–Ω–∞']",50.50953,30.480137,6,0,1,6,0,0,['4bf58dd8d48988d124941735'],['Office'],0
4f9be7c2e4b05e5ed76a81e2,"–§—ñ—Ä–º–æ–≤–∏–π –º–∞–≥–∞–∑–∏–Ω –∑–∞–≤–æ–¥—É ""–û–±–æ–ª–æ–Ω—å""","['–≤—É–ª. –ë–æ–≥–∞—Ç–∏—Ä—Å—å–∫–∞, 1', '–ö–∏—ó–≤', '–£–∫—Ä–∞—ó–Ω–∞']",50.51000742582629,30.482830232449757,753,8,488,879,29,6.9,['5370f356bcbc57f1066c94c2'],['Beer Store'],44
4bf7f43e5317a59318d5fe7e,Globalfish,"['–≤—É–ª. –ë–æ–≥–∞—Ç–∏—Ä—Å—å–∫–∞, 1–î', '–ö–∏—ó–≤, 04655', '–£–∫—Ä–∞—ó–Ω–∞']",50.50914512034932,30.480704400919773,2963,56,3146,5568,190,7.3,"['4bf58dd8d48988d10e951735', '4bf58dd8d48988d1f9941735']","['Fish Market', 'Food & Drink Shop']",287
57a8b1f6498e31a664d2abf8,–•–∞—Ç–∞ –õ–∞—Ç—ã—à–∞(–¥–∏–º–æ—á–∫–∏),['–£–∫—Ä–∞—ó–Ω–∞'],50.505562,30.48449,4,0,1,4,0,0,['4bf58dd8d48988d116941735'],['Bar'],0
50f69e93e4b0130578b8d049,–ì—É—Ä—Ç–æ–∂–∏—Ç–æ–∫ #3 –ù–ü–£ —ñ–º.–î—Ä–∞–≥–æ–º–∞–Ω–æ–≤–∞,"['–¢–∏–º–æ—à–µ–Ω–∫–æ 2-–∂', '–ö–∏—ó–≤', '–£–∫—Ä–∞—ó–Ω–∞']",50.50567800231429,30.48616489394894,475,1,103,552,4,0,['4bf58dd8d48988d1a3941735'],['College Residence Hall'],0
509d587ce4b076197b66a646,—Ç–∏–º–æ—à–µ–Ω–∫–æ 2–º,['–£–∫—Ä–∞—ó–Ω–∞'],50.505006219968436,30.485441675232344,147,1,62,213,1,0,['4d954b06a243a5684965b473'],['Residential Building (Apartment / Condo)'],0
50a73666e4b0bfc915ad00c8,Vianor,"['–ë–æ–≥–∞—Ç—ã—Ä—Å–∫–∞—è 1–≥', '–ö–∏—ó–≤', '–£–∫—Ä–∞—ó–Ω–∞']",50.50257766426238,30.48339698004254,23,4,17,23,2,0,['4bf58dd8d48988d124951735'],['Automotive Shop'],0
53c39a2a498ed31859b5bba9,–®–∏–Ω–Ω—ã–π —Ü–µ–Ω—Ç—Ä - –ø—Ä–æ–¥–∞–∂–∞ —à–∏–Ω+—à–∏–Ω–æ–º–æ–Ω—Ç–∞–∂ –∏ –≤–æ—Å—Å—Ç–∞–Ω–æ–≤–ª–µ–Ω–∏–µ –¥–∏—Å–∫–æ–≤,"['—É–ª.–ë–æ–≥–∞—Ç—ã—Ä—Å–∫–∞—è 1–≥ (–õ—É–≥–æ–≤–∞—è/–ë–æ–≥–∞—Ç—ã—Ä—Å–∫–∞—è)', '–ö–∏—ó–≤', '–£–∫—Ä–∞—ó–Ω–∞']",50.50313716758233,30.483434200286865,1,0,1,1,0,0,['4bf58dd8d48988d124951735'],['Automotive Shop'],0
57c5958f498e436b980563a5,–∫–æ–º–Ω–∞—Ç–∞ 201,['–£–∫—Ä–∞—ó–Ω–∞'],50.505007,30.486995,31,0,2,32,0,0,['4bf58dd8d48988d1a3941735'],['College Residence Hall'],0
518df900498e281120a77769,–ì—É—Ä—Ç–æ–∂–∏—Ç–æ–∫ ‚Ññ2 –ù–ü–£ —ñ–º. –î—Ä–∞–≥–æ–º–∞–Ω–æ–≤–∞,"['–¢–∏–º–æ—à–µ–Ω–∫–∞ 2/–∑', '–ö–∏—ó–≤', '–£–∫—Ä–∞—ó–Ω–∞']",50.50529775328327,30.485910800766067,722,2,327,1154,8,0,['4bf58dd8d48988d1a3941735'],['College Residence Hall'],0
5632a101498ec1606132c9e9,–ø–æ–ª–∏—Ç.—É–±–µ–∂–∏—â–µ,"['—É–ª. –ú–∞—Ä—à–∞–ª–∞ –¢–∏–º–æ—à–µ–Ω–∫–æ 2–ñ', '–ö–∏—ó–≤', '–£–∫—Ä–∞—ó–Ω–∞']",50.50543002971224,30.48591982815874,10,0,2,11,0,0,['4d954b06a243a5684965b473'],['Residential Building (Apartment / Condo)'],0
58482a31e309e1059b51936b,–£–∂–µ –Ω–µ BRIKS&BLUE,['–£–∫—Ä–∞—ó–Ω–∞'],50.503297,30.485883,5,0,6,9,0,0,['4bf58dd8d48988d1e8931735'],['Piano Bar'],0
57d6dfb4498eccf6884b952c,–î–æ–º –±–∞–±—É–ª–∏,['–£–∫—Ä–∞—ó–Ω–∞'],50.505488,30.485829,8,0,1,8,0,0,['4d954b06a243a5684965b473'],['Residential Building (Apartment / Condo)'],0
4db2da41a86e8d27076233ff,"–û–∑–µ—Ä–æ –ë–æ–≥–∞—Ç–∏—Ä—Å—å–∫–µ (–ü–æ–∂–µ–∂–Ω–µ, –û–ø–µ—á–µ–Ω—å-3)","['–ö–∏—ó–≤', '–£–∫—Ä–∞—ó–Ω–∞']",50.5022364008064,30.486845970153812,220,1,140,259,3,0,['4bf58dd8d48988d161941735'],['Lake'],0
54cdef4e498e5239f98a24b1,"–¶–µ—Ä–∫–æ–≤—å ""–ï–≤–∞–Ω–≥–µ–ª—å—Å–∫–∏–π –ø—É—Ç—å""","['–ö–∏–µ–≤, –¢–∏–º–æ—à–µ–Ω–∫–æ', '–£–∫—Ä–∞—ó–Ω–∞']",50.505773100836194,30.486104994022256,90,0,16,119,1,0,['4bf58dd8d48988d132941735'],['Church'],0
4ed376e96da162f1c20a7cc2,–û–±–æ–ª–æ–Ω—Å—å–∫–µ –†–£ –ì–£ –ú–í–°,"['–≤—É–ª. –ú–∞—Ä—à–∞–ª–∞ –ú–∞–ª–∏–Ω–æ–≤—Å—å–∫–æ–≥–æ, 2–∞', '–ö–∏—ó–≤', '–£–∫—Ä–∞—ó–Ω–∞']",50.50532695609435,30.487879042162675,1350,5,1450,2754,7,0,['4bf58dd8d48988d12e941735'],['Police Station'],0
5419d462498e4c0443e6e447,–ï–ø–∏—Ü–µ–Ω—Ç—Ä,"['–í–∏—Å–∫–æ–∑–Ω–∞—è, 4', '–ö–∏—ó–≤', '–£–∫—Ä–∞—ó–Ω–∞']",50.49372231379608,30.4865610534536,167,0,159,174,2,0,['4bf58dd8d48988d112951735'],['Hardware Store'],0
4c235b147e85c9282f62bd21,–ö–õ–û,"['–≤—É–ª. –ë–æ–≥–∞—Ç–∏—Ä—Å—å–∫–∞, 1–≥', '–ö–∏—ó–≤, 04655', '–£–∫—Ä–∞—ó–Ω–∞']",50.50285866933792,30.48388484725426,1158,11,2009,3787,21,6.3,['4bf58dd8d48988d113951735'],['Gas Station'],42
4cbaaeafa33bb1f7330d90fd,Diner Pizza,"['–≤—É–ª. –¢–∏–º–æ—à–µ–Ω–∫–∞, 2/4', '–ö–∏—ó–≤', '–£–∫—Ä–∞—ó–Ω–∞']",50.50564830545539,30.488369464874268,1892,49,1297,3273,98,7.7,"['4bf58dd8d48988d1ca941735', '4bf58dd8d48988d147941735']","['Pizza Place', 'Diner']",160
