id,name,formattedAddress,lat,lng,checkinsCount,tipCount,usersCount,visitsCount,likesCount,rating,categories_ids,categories_names,ratingSignals
5606bb98498e9d3679b2b5b7,елки на рассадку,['Україна'],50.465779,30.564736,5,0,1,5,0,0,['4bf58dd8d48988d162941735'],['Other Great Outdoors'],0
53aea7ad498e7b9f40cdbe8f,Наше место,['Україна'],50.469943,30.566217,4,0,5,6,1,0,['50aaa4314b90af0d42d5de10'],['Island'],0
5388acbf498e5e2ed87a4749,стоянка-бревно,['Україна'],50.46891444490494,30.565437677800226,25,0,2,25,1,0,['4bf58dd8d48988d1f4931735'],['Racetrack'],0
5021406de4b0363fac39a39f,tryWake Wakeboard Club,"['ул. Трухановская', 'Київ', 'Україна']",50.465826680024904,30.558136540523815,330,5,196,368,11,7.5,"['4bf58dd8d48988d1e3941735', '4bf58dd8d48988d1e0941735']","['Surf Spot', 'Harbor / Marina']",16
541571dd498e7466df825457,Вейк  у дяди Саши,['Україна'],50.467229803995984,30.56129896480088,11,0,9,11,0,0,['4f4528bc4b90abdf24c9de85'],['Athletics & Sports'],0
545f36b4498e4d476e76e42f,озеро на садах,['Україна'],50.469907222127745,30.56013042294878,7,0,6,7,0,0,['4bf58dd8d48988d161941735'],['Lake'],0
4fcf5f0ee4b0296cfc6f118e,Пляж в Соснах,['Україна'],50.468756483643425,30.563727505932626,37,0,38,58,0,0,"['4bf58dd8d48988d1e2941735', '4bf58dd8d48988d1e3941735']","['Beach', 'Surf Spot']",0
539d922e498ec2230a5d13ac,Wakeboard club Kyiv,['Україна'],50.46589325622544,30.558020189140155,138,0,162,253,9,7.7,['4f4528bc4b90abdf24c9de85'],['Athletics & Sports'],9
55978265498ef5a26c0a702d,Козацький Табір,['Україна'],50.46457290649414,30.559680938720703,3,0,4,6,0,0,['52f2ab2ebcbc57f1066b8b53'],['RV Park'],0
518f952c498e9061ee233ec6,"База отдыха ""Русановка""",['Україна'],50.46953249532459,30.56799378164124,58,2,64,73,2,0,['4eb1d4dd4b900d56c88a45fd'],['River'],0
50269285e4b069e8b5109556,пляж на Садах,['Україна'],50.46977678078251,30.563459937258635,38,0,38,48,0,0,['4bf58dd8d48988d1e2941735'],['Beach'],0
50112ae7e4b06a7cd96bb079,Долобецький острiв,"['Київ', 'Україна']",50.467019035020876,30.561812851516564,97,0,43,102,3,0,['50aaa4314b90af0d42d5de10'],['Island'],0
