id,name,formattedAddress,lat,lng,checkinsCount,tipCount,usersCount,visitsCount,likesCount,rating,categories_ids,categories_names,ratingSignals
5278cdbc498e53f551fe3b9a,"–ì–∞—Å—Ç—Ä–æ–Ω–æ–º ""–∫–∞–≤–∞, —á–∞–π, —Ç—ñ—Å—Ç–µ—á–∫–∞""",['–£–∫—Ä–∞—ó–Ω–∞'],50.433657332065465,30.400128094022293,18,0,7,18,0,0,['4d954b0ea243a5684a65b473'],['Convenience Store'],0
4ec4e00d82313b673013f076,–ò–∑–¥–∞—Ç–µ–ª—å—Å–∫–∞—è –≥—Ä—É–ø–ø–∞ –ê–°–¢,"['—É–ª. –°–µ–º—å–∏ –°–æ—Å–Ω–∏–Ω—ã—Ö,3', '–£–∫—Ä–∞—ó–Ω–∞']",50.43338314267754,30.398699784100078,42,0,6,42,0,0,[],[],0
56efd87d498e57695ab9f1cd,Leather Workshop,"['–≤—É–ª. –ê–∫–∞–¥–µ–º—ñ–∫–∞ –ö–∞–±–ª—É–∫–æ–≤–∞, 24', '–ö–∏—ó–≤', '–£–∫—Ä–∞—ó–Ω–∞']",50.43248138801097,30.39899416701167,37,1,51,98,1,0,['52f2ab2ebcbc57f1066b8b26'],['Fabric Shop'],0
58256e84453a547f72a56ae0,–ü—Ä–µ—Å–∞ –£–∫—Ä–∞—ó–Ω–∏,['–£–∫—Ä–∞—ó–Ω–∞'],50.432913,30.398048,1,0,3,3,0,0,['52f2ab2ebcbc57f1066b8b28'],['Print Shop'],0
5250018e11d2e7bb9237126d,"–°–∞–ª–æ–Ω –∫—Ä–∞—Å–æ—Ç—ã ""–ù–µ—Ñ–µ—Ä—Ç–∞—Ä–∏""","['–õ–µ—Å—è –ö—É—Ä–±–∞—Å–∞ 3 –í', '–ö–∏—ó–≤', '–£–∫—Ä–∞—ó–Ω–∞']",50.43300247192383,30.399799346923828,7,0,3,7,1,0,['4bf58dd8d48988d110951735'],['Salon / Barbershop'],0
4e231588aeb7026395401254,–†—É—Å—Ç–∞–≤–µ–ª–∏,"['–ü—à–µ–Ω–∏—á–Ω–∞—è 2', '–ö–∏—ó–≤', '–£–∫—Ä–∞—ó–Ω–∞']",50.43115051455048,30.39946369603481,328,18,389,1014,21,6.4,['4bf58dd8d48988d109941735'],['Eastern European Restaurant'],42
50596c7be4b0fd1a492db902,–í–°–ü –ù–ü–£ —ñ–º.–ú.–î—Ä–∞–≥–æ–º–∞–Ω–æ–≤–∞,['–£–∫—Ä–∞—ó–Ω–∞'],50.433872358197405,30.402108157121653,19,1,10,19,1,0,['4bf58dd8d48988d1ad941735'],['Trade School'],0
5106892fe4b0059cedf7fb91,—Å–∞–ª–æ–Ω –∫—Ä–∞—Å–æ—Ç—ã –ì–µ–ª–∏–æ—Å,"['–ì–Ω–∞—Ç–∞ –Æ—Ä—ã 20', '–ö–∏—ó–≤', '–£–∫—Ä–∞—ó–Ω–∞']",50.43314734788536,30.400058449407243,15,0,12,18,3,0,['4bf58dd8d48988d110951735'],['Salon / Barbershop'],0
500d4a14e4b03215e730fd8d,–°—Ç—Ä–µ–ª–∞ —Ç—Ä–∞–Ω—Å –≥—Ä—É–ø–ø,"['–¢–∏–º–æ—Ñ–µ—è –°—Ç—Ä–æ–∫–∞—á–∞ 3', '–ö–∏—ó–≤', '–£–∫—Ä–∞—ó–Ω–∞']",50.435633571728786,30.39981323231558,17,0,9,17,1,0,['4f04b1572fb6e1c99f3db0bf'],['Storage Facility'],0
536b7777498e2c057a2dd88f,"–ñ–ö ""–ü—ñ–≤–¥–µ–Ω–Ω–∏–π –∫–≤–∞—Ä—Ç–∞–ª""","['–¢–∏–º–æ—Ñ–µ—è –°—Ç—Ä–æ–∫–∞—á–∞ 9', '–ö–∏—ó–≤', '–£–∫—Ä–∞—ó–Ω–∞']",50.43367189803379,30.398488389953584,64,3,41,95,1,0,['4bf58dd8d48988d124941735'],['Office'],0
5087dc66e4b0ede6cc9d84a8,–°—Ç–æ Suzuki,['–£–∫—Ä–∞—ó–Ω–∞'],50.43128603904862,30.39888019057646,9,0,10,15,0,0,['4eb1c1623b7b52c0e1adc2ec'],['Auto Dealership'],0
54d1d952498e2fc69da1479e,–ö–∞—Ñ–µ–¥—Ä–∞ —Ç–µ–æ—Ä—ñ—ó —Ç–∞ –º–µ—Ç–æ–¥–∏–∫–∏ –ø—Ä–æ—Ñ–µ—Å—ñ–π–Ω–æ—ó –ø—ñ–¥–≥–æ—Ç–æ–≤–∫–∏,"['–õ–µ—Å—è –ö—É—Ä–±–∞—Å–∞, 2–∞', '–ö–∏—ó–≤', '–£–∫—Ä–∞—ó–Ω–∞']",50.43353926346493,30.399640060001897,33,1,7,38,0,0,['4bf58dd8d48988d197941735'],['College Administrative Building'],0
4e9727b2b8f7d8c6911ad2de,–ê–≤—Ç–æ—Å—Ç–æ—è–Ω–∫–∞,['–£–∫—Ä–∞—ó–Ω–∞'],50.4319573364558,30.398453071240457,177,1,46,188,0,0,['4c38df4de52ce0d596b336e1'],['Parking'],0
54ff02e6498e0af8ef834d30,–∫–ª—ñ–Ω—ñ–∫–∞ —ñ–Ω—Ç–µ–≥—Ä–∞–ª—å–Ω–æ–≥–æ –≤—ñ–¥–Ω–æ–≤–ª–µ–Ω–Ω—è –∑–¥–æ—Ä–æ–≤—è,['–£–∫—Ä–∞—ó–Ω–∞'],50.434955,30.40237,2,0,2,2,0,0,['4bf58dd8d48988d196941735'],['Hospital'],0
563b4655cd109f4faa9d0731,–ë–†–°–ú-–ù–ê–§–¢–ê - –Ø–ö–Ü–°–ù–ï –ü–ê–õ–¨–ù–ï –ó–ê –ù–ê–ô–ö–†–ê–©–û–Æ –¶–Ü–ù–û–Æ!,"['–ø—Ä. –õ–µ—Å—è –ö—É—Ä–±–∞—Å–∞, 2–í', '–ö–∏—ó–≤', '–£–∫—Ä–∞—ó–Ω–∞']",50.433469,30.39896,8,1,7,9,1,0,['4bf58dd8d48988d113951735'],['Gas Station'],0
56cdf498cd1009daa5d73489,Dixit-hall,"['–°—Ç—Ä–æ–∫–∞—á–∞ 5', '–ö–∏—ó–≤', '–£–∫—Ä–∞—ó–Ω–∞']",50.43457172857408,30.398297189445103,6,0,5,11,1,0,['4bf58dd8d48988d1e1931735'],['Arcade'],0
5598483b498e83c3bc3b52fe,–ü—Ä–æ—Å–ø–µ–∫—Ç –û—Ç—Ä–∞–¥–Ω—ã–π,['–£–∫—Ä–∞—ó–Ω–∞'],50.43327566811005,30.398590564148936,20,0,19,20,0,0,['4d954b06a243a5684965b473'],['Residential Building (Apartment / Condo)'],0
56b627bc498eeb26bcf6ce45,–ü–∞–ø–∞–≥—Ä–∏–ª—å,['–£–∫—Ä–∞—ó–Ω–∞'],50.435725433265176,30.39818447168697,17,0,30,38,1,0,['4bf58dd8d48988d1df931735'],['BBQ Joint'],0
508d645be4b0953c41b94946,Essse S Kaffe,['–£–∫—Ä–∞—ó–Ω–∞'],50.43298070143238,30.398784939425628,9,1,9,10,0,0,['4bf58dd8d48988d1e0931735'],['Coffee Shop'],0
516966cf498e3e6670442711,"–≤—É–ª. –°—ñ–º'—ó –°—Ç–µ—à–µ–Ω–∫—ñ–≤, 7","[""–≤—É–ª. –°—ñ–º'—ó –°—Ç–µ—à–µ–Ω–∫—ñ–≤, 7"", '–ö–∏—ó–≤, 03148', '–£–∫—Ä–∞—ó–Ω–∞']",50.43439756985517,30.39884805679321,421,0,366,1124,1,0,['4d954b06a243a5684965b473'],['Residential Building (Apartment / Condo)'],0
559c1a36498eb1de59a8c8d7,"–ó—É–ø–∏–Ω–∫–∞ ""–°—Ç–∞–Ω—Ü—ñ—è ""–ë–æ—Ä—â–∞–≥—ñ–≤–∫–∞""",['–£–∫—Ä–∞—ó–Ω–∞'],50.43305480700509,30.402713648620555,8,0,6,8,0,0,['52f2ab2ebcbc57f1066b8b4f'],['Bus Stop'],0
4fd8f6e4e4b0d5879df4ba87,–ê–≤—Ç–æ–ë–ê–ù–Ø,['–£–∫—Ä–∞—ó–Ω–∞'],50.43241699658509,30.398658234179976,316,4,359,686,16,6.2,['4f04ae1f2fb6e1c99f3db0ba'],['Car Wash'],28
4ff0bde4e4b018b067ccce99,–ë–†–°–ú-–ù–∞—Ñ—Ç–∞,"['–ø—Ä. –õ–µ—Å—è –ö—É—Ä–±–∞—Å–∞, 2–ë', '–ö–∏—ó–≤', '–£–∫—Ä–∞—ó–Ω–∞']",50.433248736677044,30.398602678878955,1132,10,1888,3753,25,6.6,['4bf58dd8d48988d113951735'],['Gas Station'],42
4cc5842310e5bfb7ae55fe7e,–°—Ç–∞–Ω—Ü—ñ—è —à–≤–∏–¥–∫—ñ—Å–Ω–æ–≥–æ —Ç—Ä–∞–º–≤–∞—é ¬´–°—ñ–º'—ó –°–æ—Å–Ω—ñ–Ω–∏—Ö¬ª,"[""–≤—É–ª. –°—ñ–º'—ó –°–æ—Å–Ω—ñ–Ω–∏—Ö (–ø—Ä–æ—Å–ø. –õ–µ—Å—è –ö—É—Ä–±–∞—Å–∞)"", '–ö–∏—ó–≤', '–£–∫—Ä–∞—ó–Ω–∞']",50.43311278799632,30.400114059448242,4089,8,3280,9607,41,5.2,['52f2ab2ebcbc57f1066b8b51'],['Tram Station'],100
4dd014a8fa7664b7c6d07f83,–ó–∞–ª—ñ–∑–Ω–∏—á–Ω–∞ —Å—Ç–∞–Ω—Ü—ñ—è ¬´–ë–æ—Ä—â–∞–≥—ñ–≤–∫–∞¬ª,"['–ø—Ä–æ—Å–ø. –ö–æ–º–∞—Ä–æ–≤–∞ (–≤—É–ª. –°–æ—Å–Ω—ñ–Ω–∏—Ö)', '–ö–∏—ó–≤', '–£–∫—Ä–∞—ó–Ω–∞']",50.4340027332226,30.40185224208358,2105,19,880,2796,8,5.3,['4bf58dd8d48988d129951735'],['Train Station'],25
50f92e38e4b05eaa32090645,OKKO,"['–ø—Ä–æ—Å–ø. –õ–µ—Å—è –ö—É—Ä–±–∞—Å–∞, 1–ê', '–ö–∏—ó–≤', '–£–∫—Ä–∞—ó–Ω–∞']",50.43275446470607,30.399621590655208,1323,9,2060,3713,28,6.1,['4bf58dd8d48988d113951735'],['Gas Station'],53
50ed5936e4b03235966b7f1e,–µ-–ø–æ—Å—É–¥.–ò–Ω—Ç–µ—Ä–Ω–µ—Ç –ú–∞–≥–∞–∑–∏–Ω –ü–æ—Å—É–¥—ã,"['–ò–≤–∞–Ω–∞ –õ–µ–ø—Å–µ 16–ê', '–ö–∏—ó–≤', '–£–∫—Ä–∞—ó–Ω–∞']",50.43968393808994,30.40792745953747,57,1,15,57,3,0,['4bf58dd8d48988d1f8941735'],['Furniture / Home Store'],0
51b84169498e2875023ffd2b,Pushkinskaya 20,['–£–∫—Ä–∞—ó–Ω–∞'],50.44080731990088,30.40548853881324,9,0,6,11,0,0,['4d954b06a243a5684965b473'],['Residential Building (Apartment / Condo)'],0
50894e61e4b08c11809f63d3,–°–¢–ë –ü–∞–≤–∏–ª—å–æ–Ω ¬´–•-–§–∞–∫—Ç–æ—Ä¬ª,"['–±—É–ª—å–≤. –Ü–≤–∞–Ω–∞ –õ–µ–ø—Å–µ', '–ö–∏—ó–≤', '–£–∫—Ä–∞—ó–Ω–∞']",50.43823128458918,30.40526185937324,271,3,143,279,10,6.0,['4bf58dd8d48988d1e5931735'],['Music Venue'],16
51449e1fe4b0c10759caad66,–¢–∏—Ä –ö–∞–∂–∞–Ω,['–£–∫—Ä–∞—ó–Ω–∞'],50.43684489335385,30.4037828821579,30,1,34,42,1,0,['4bf58dd8d48988d1fb941735'],['Hobby Shop'],0
5013ccade4b0dd18ec77a585,Roco,['–£–∫—Ä–∞—ó–Ω–∞'],50.43958708318472,30.40278126402959,46,1,34,60,1,0,['4bf58dd8d48988d1f8941735'],['Furniture / Home Store'],0
56471c3e498e7e8906011fd1,–ë–∞–∑–∞ –º–µ—Ç–∞–ª–∞ –∏ –∫–∞—á–∞,['–£–∫—Ä–∞—ó–Ω–∞'],50.440028,30.40614,5,0,1,5,0,0,['5032792091d4c4b30a586d5c'],['Concert Hall'],0
580b737238fa626ebb615874,–°–∫–ª–∞–¥ —Ä–µ–∑–∏–Ω—ã,['–£–∫—Ä–∞—ó–Ω–∞'],50.440735,30.40678,3,0,3,3,0,0,['56aa371be4b08b9a8d5734d3'],['Auto Workshop'],0
562a374f498eddb596bc5a86,GM Karpaty,"['–£–ª. –ö–∞–±–ª—É–∫–æ–≤–∞-26', '–ö–∏—ó–≤', '–£–∫—Ä–∞—ó–Ω–∞']",50.43647713863664,30.40384548645091,43,0,40,154,0,0,['4bf58dd8d48988d1ff941735'],['Miscellaneous Shop'],0
4f5cbbefe4b0cfc5e1f8bcc8,–ó–∞–≤–æ–¥ —ñ–º–µ–Ω—ñ –õ–µ–ø—Å–µ,"['–±—É–ª. –í–∞—Ü–ª–∞–≤–∞ –ì–∞–≤–µ–ª–∞, 16', '–ö–∏—ó–≤', '–£–∫—Ä–∞—ó–Ω–∞']",50.44007117300423,30.40589377419574,467,3,470,901,0,0,['4eb1bea83b7b6f98df247e06'],['Factory'],0
564491b5498e3173968661b0,–ü–æ–ª–∏—Ñ–∞—Å–∞–¥,"['–±—É–ª. –ò. –õ–µ–ø—Å–µ, 16', '–ö–∏—ó–≤', '–£–∫—Ä–∞—ó–Ω–∞']",50.440202715827006,30.40842933115571,72,1,104,206,1,0,['4bf58dd8d48988d1f8941735'],['Furniture / Home Store'],0
5693bdcc498eaf25cf264a51,2D New Factory,['–£–∫—Ä–∞—ó–Ω–∞'],50.43840698993741,30.406938590675423,101,0,41,164,0,0,['4eb1bea83b7b6f98df247e06'],['Factory'],0
5094ee91e4b0836530d175e8,"–†–µ–ø–µ—Ç–∏—Ü–∏–æ–Ω–Ω–∞—è –±–∞–∑–∞ ""–ú–µ—Ç–∞–ª–ª–æ–±–∞–∑–∞""","['–ë—É–ª—å–≤–∞—Ä –ò–≤–∞–Ω–∞ –õ–µ–ø—Å–µ 16–ê', '–ö–∏—ó–≤', '–£–∫—Ä–∞—ó–Ω–∞']",50.44022600378993,30.4072812360638,296,3,209,483,5,5.8,['5032792091d4c4b30a586d5c'],['Concert Hall'],13
517631c9498e6dbb3535c4d2,–ö–∏–Ω–æ—à–Ω—ã–π –ü–∞–≤–∏–ª—å–æ–Ω,['–£–∫—Ä–∞—ó–Ω–∞'],50.43809940932398,30.402911512346986,7,0,7,7,0,0,['4bf58dd8d48988d171941735'],['Event Space'],0
54042b8a498e173768d37ad4,–ê–Ω–ª–∏,"['–õ–µ–ø—Å–µ 16', '–ö–∏—ó–≤', '–£–∫—Ä–∞—ó–Ω–∞']",50.436863,30.402039,11,0,9,18,0,0,['4bf58dd8d48988d1f8941735'],['Furniture / Home Store'],0
56152af8498e778027195bbd,–°–∏–º–µ–π–∫–∞,['–£–∫—Ä–∞—ó–Ω–∞'],50.43719509300069,30.398910369666872,2,0,2,2,0,0,['52f2ab2ebcbc57f1066b8b51'],['Tram Station'],0
55f911b9498e820976c76823,–£–∫—Ä–∞–∏–Ω—Å–∫–∏–πüìöüìù‚úíÔ∏èüò¥,"['–í–∞—Å–∏–ª—è –í–µ—Ä—Ö–æ–≤–∏–Ω—Ü—è', '–£–∫—Ä–∞—ó–Ω–∞']",50.438447970376245,30.40295758892893,9,0,10,14,0,0,['4bf58dd8d48988d1af941735'],['College Auditorium'],0
4db53d506e8179a9138b32bd,–ì–∞—Ä–∞–∂–∏,"['–ê–∫–∞–¥–µ–º–∏–∫–∞ –ö–∞–±–ª—É–∫–æ–≤–∞ —É–ª., 26', '–ö–∏—ó–≤', '–£–∫—Ä–∞—ó–Ω–∞']",50.43877742070493,30.399819329824055,19,0,11,22,0,0,['4c38df4de52ce0d596b336e1'],['Parking'],0
58b723b8e6160c18feb8d5d0,Stars & Mellow Lair,['–£–∫—Ä–∞—ó–Ω–∞'],50.438431,30.402517,14,0,3,14,0,0,['4bf58dd8d48988d1e5931735'],['Music Venue'],0
5784d255cd10c92ec21353f2,VIYAR /–í–ò–Ø–†,"['–õ–µ–ø—Å–µ, 16', '–ö–∏—ë–≤', '–£–∫—Ä–∞—ó–Ω–∞']",50.439666,30.404906,98,0,30,106,1,0,['4bf58dd8d48988d124941735'],['Office'],0
5013b45ae4b06fc7ced4bd6d,–í—ñ–Ø—Ä,"['–±—É–ª. –í–∞—Ü–ª–∞–≤–∞ –ì–∞–≤–µ–ª–∞, 16', '–ö–∏—ó–≤, 03065', '–£–∫—Ä–∞—ó–Ω–∞']",50.439414191367945,30.402956966544348,1552,8,1978,4885,68,7.9,['4bf58dd8d48988d1f8941735'],['Furniture / Home Store'],91
52e3c78a498ea4d13501f522,–ö–æ—Å–º–æ–Ω–∞–≤—Ç–∞ –ö–æ–º–∞—Ä–æ–≤–∞ 19,"['–ö–æ—Å–º–æ–Ω–∞–≤—Ç–∞ –ö–æ–º–∞—Ä–æ–≤–∞ 19', '–£–∫—Ä–∞—ó–Ω–∞']",50.433563,30.405139,12,0,18,24,0,0,['4d954b06a243a5684965b473'],['Residential Building (Apartment / Condo)'],0
52a5a157498eff61799b2a75,–ê–ì–ö –ë—Ä–∏–≥–∞–Ω—Ç–∏–Ω–∞,"['–≤—É–ª. –ö–∞—á–∞–ª–æ–≤–∞, 5', '–ö–∏—ó–≤', '–£–∫—Ä–∞—ó–Ω–∞']",50.4317741394043,30.40308952331543,6,0,16,31,0,0,['4c38df4de52ce0d596b336e1'],['Parking'],0
55f3ad12498e3c0a3fda17a1,–∫–≤–∞—Ä—Ç–∏—Ä–∞ –ê–ª–µ–Ω—ã –∏ –î–∏–º—ãüíï,['–£–∫—Ä–∞—ó–Ω–∞'],50.435153,30.405081,3,0,1,4,0,0,['4d954b06a243a5684965b473'],['Residential Building (Apartment / Condo)'],0
5757cfa1498e6b3d90160bb6,3 FLAT',"['Kosmonavta Komarova prospekt', '–ö–∏—ó–≤', '–£–∫—Ä–∞—ó–Ω–∞']",50.434881,30.404984,8,0,1,9,0,0,['4f2a210c4b9023bd5841ed28'],['Housing Development'],0
52b977ae498efea0fc064cc5,–ø—Ä–æ—Å–ø. –ö–æ—Å–º–æ–Ω–∞–≤—Ç–∞ –ö–æ–º–∞—Ä–æ–≤–∞ 17,"['–ö–∏—ó–≤', '–£–∫—Ä–∞—ó–Ω–∞']",50.43354792646512,30.405705489081985,83,0,52,158,0,0,"['4d954b06a243a5684965b473', '4f2a210c4b9023bd5841ed28']","['Residential Building (Apartment / Condo)', 'Housing Development']",0
54ba80a2498e9a61477fca99,–ê–ó–°,"['–≤—É–ª. –ö–∞–±–ª—É–∫–æ–≤–∞, 26', '–ö–∏—ó–≤', '–£–∫—Ä–∞—ó–Ω–∞']",50.43447679192238,30.4054963287274,17,1,12,26,1,0,['4bf58dd8d48988d113951735'],['Gas Station'],0
4f980ecee4b052fe399eb182,–£–ø—Ä–∞–≤–ª–µ–Ω–∏–µ –¢—Ä—É–¥–∞ –ò –°–æ—Ü–∏–∞–ª—å–Ω–æ–π –ó–∞—â–∏—Ç—ã,"['–ü—Ä–æ—Å–ø–µ–∫—Ç –ö–æ–º–∞—Ä–æ–≤–∞, 7', '–ö–∏—ó–≤', '–£–∫—Ä–∞—ó–Ω–∞']",50.434981104829184,30.40789648249331,102,1,83,124,2,0,['4bf58dd8d48988d126941735'],['Government Building'],0
56793692498ec9dbd4c0cbaf,–µ–ª–æ—á–Ω—ã–π –±–∞–∑–∞—Ä –Ω–∞ –º–æ—Å—Ç—É,['–£–∫—Ä–∞—ó–Ω–∞'],50.43396185084859,30.404162331572813,6,0,6,6,0,0,['50be8ee891d4fa8dcc7199a7'],['Market'],0
5087d12ae4b08887697962a3,–ì–æ–ª–¥–µ–Ω –ê—Ä—Ç,"['–°–µ–º—å–∏ –°–æ—Å–Ω–∏–Ω—ã—Ö', '–ö–∏—ó–≤', '–£–∫—Ä–∞—ó–Ω–∞']",50.43424313738701,30.403597448464538,13,0,4,13,0,0,['4bf58dd8d48988d1f4941735'],['Design Studio'],0
57ffbea038fa9d2af433828e,MFK Home's,['–£–∫—Ä–∞—ó–Ω–∞'],50.4349,30.402882,31,0,6,42,0,0,['4d954b06a243a5684965b473'],['Residential Building (Apartment / Condo)'],0
538069c1498e54d58e7e19da,–°–∞–ª–æ–Ω –∫—Ä–∞—Å–æ—Ç—ã –¥–ª—è –∂–∏–≤–æ—Ç–Ω—ã—Ö,['–£–∫—Ä–∞—ó–Ω–∞'],50.43406800683441,30.40361447381419,9,0,9,12,0,0,['4e52d2d203646f7c19daa8ae'],['Animal Shelter'],0
527788c011d20d4bb7ca67d9,–î–µ–ø–∞—Ä—Ç–∞–º–µ–Ω—Ç —Å–æ—Ü—ñ–∞–ª—å–Ω–æ—ó –ø–æ–ª—ñ—Ç–∏–∫–∏ –ö–ú–î–ê,"['–ö–æ–º–∞—Ä–æ–≤–∞ –ø—Ä., 7', '–ö–∏—ó–≤', '–£–∫—Ä–∞—ó–Ω–∞']",50.434791809056435,30.408064443512067,60,1,43,68,0,0,['4bf58dd8d48988d129941735'],['City Hall'],0
50066e12e4b0e4c2aa41ada4,–ö–∏–µ–≤—Ç—Ä–∞–Ω—Å–≥–∞–∑,"['–ö–æ–º–∞—Ä–æ–≤–∞, 44', '–£–∫—Ä–∞—ó–Ω–∞']",50.43564666700219,30.406782610022546,907,0,226,1260,5,0,['4bf58dd8d48988d124941735'],['Office'],0
53e99de8498e80934a09c2ed,"–û–±–ª–∞—Å–Ω–∞—è –±–æ–ª—å–Ω–∏—Ü–∞, –æ–Ω–∫–æ–ª–æ–≥–∏—á–µ—Å–∫–∏–π –∫–æ—Ä–ø—É—Å",['–£–∫—Ä–∞—ó–Ω–∞'],50.43368911743164,30.40790367126465,6,0,8,8,0,0,['4bf58dd8d48988d196941735'],['Hospital'],0
55817aac498ee39493421c07,"–ñ–ö ""–ö–æ–º–∞—Ä–æ–≤–æ""","['–ö–æ—Å–º–æ–Ω–∞–≤—Ç–∞ –∫–æ–º–∞—Ä–æ–≤–∞ 46', '–ö–∏—ó–≤', '–£–∫—Ä–∞—ó–Ω–∞']",50.435288474509214,30.40573183736965,214,0,128,419,0,0,['4f2a210c4b9023bd5841ed28'],['Housing Development'],0
58149ed438fa893779d77051,Golden Age Luxury,"['–ü—Ä-—Ç –ö–æ–º–∞—Ä–æ–≤–∞, 46-–±', '–ö–∏—ó–≤', '–£–∫—Ä–∞—ó–Ω–∞']",50.435239,30.405205,87,0,23,110,0,0,['4d954b06a243a5684965b473'],['Residential Building (Apartment / Condo)'],0
