id,name,formattedAddress,lat,lng,checkinsCount,tipCount,usersCount,visitsCount,likesCount,rating,categories_ids,categories_names,ratingSignals
5209108d11d2b4766355307e,Радіовимірювачь,['Україна'],50.39679057943562,30.67468035193108,5,0,5,6,0,0,['4eb1bea83b7b6f98df247e06'],['Factory'],0
4e798f211495dbb16c03b4ec,Porsche Ukraine,"['вул. Колекторна, 1', 'Київ, 02660', 'Україна']",50.39128263214332,30.668200769676098,342,0,127,434,4,0,['4bf58dd8d48988d124941735'],['Office'],0
58ca76f99398ab7a1e77d967,GlassGo,"['glassgo.kiev.ua', 'Київ', 'Україна']",50.398148,30.677687,1,0,1,1,0,0,['52e816a6bcbc57f1066b7a54'],['Warehouse Store'],0
550484db498e3f7368466d09,Канализация,['Україна'],50.397947926343136,30.677908511095378,45,0,13,56,0,0,['52e81612bcbc57f1066b7a28'],['Bathing Area'],0
5748726f38fa5e7668720b64,Hydra Films,"['Kolektorna vulytsya', 'Київ', 'Україна']",50.392402,30.669307,56,6,79,170,4,0,['4bf58dd8d48988d171941735'],['Event Space'],0
5729bfc2498e42076886f3c0,Der Kristall,"['ул.Коллекторная 3а', 'Київ, 02121', 'Україна']",50.397400040589645,30.67747796551423,62,0,58,142,2,0,['4f04ae1f2fb6e1c99f3db0ba'],['Car Wash'],0
