id,name,formattedAddress,lat,lng,checkinsCount,tipCount,usersCount,visitsCount,likesCount,rating,categories_ids,categories_names,ratingSignals
4f54f21fe4b0a06c23a82dd9,–¢—É—Ä–Ω—ñ—á–∫–∏ —ñ –±—Ä—É—Å—å—è,['–£–∫—Ä–∞—ó–Ω–∞'],50.46169413138662,30.383716308111136,55,1,20,55,1,0,['4bf58dd8d48988d176941735'],['Gym'],0
53568369498e69f35e30cc2e,china –¥–æ–∫—Ç–æ—Ä,"['–ö–∏–µ–≤ —É–ª.–•–º–µ–ª—å–Ω–∏—Ü–∫–∞—è 10, –æ—Ñ 208', '–ö–∏—ó–≤', '–£–∫—Ä–∞—ó–Ω–∞']",50.463232640211736,30.383798582798732,43,1,49,139,1,0,['4bf58dd8d48988d177941735'],"[""Doctor's Office""]",0
537faafa498e22b2a67a6368,–õ–∞–≤–æ—á–∫–∞ —É –ø–∞–¥–∏–∫–∞,"['–£–ª. –•–º–µ–ª—å–Ω–∏—Ü–∫–∞—è 10', '–£–∫—Ä–∞—ó–Ω–∞']",50.4625586509745,30.38396904918486,31,0,8,32,1,0,['4d954b06a243a5684965b473'],['Residential Building (Apartment / Condo)'],0
5222317f11d2a648a8877905,–ì–µ–Ω–µ—Ä–∞–ª–∞ –í–∏—Ç—Ä—É–∫–∞ 21,"['–ì–µ–Ω–µ—Ä–∞–ª–∞ –í–∏—Ç—Ä—É–∫–∞ 21', '–ö–∏—ó–≤', '–£–∫—Ä–∞—ó–Ω–∞']",50.46237767733116,30.38234566854728,9,0,7,9,0,0,['4d954b06a243a5684965b473'],['Residential Building (Apartment / Condo)'],0
582c565eabffa14ae783f934,Honda Art,"['10 Pryladnyi Ln', '–ö–∏—ó–≤', '–£–∫—Ä–∞—ó–Ω–∞']",50.4699,30.3866,1,0,1,1,1,0,['52f2ab2ebcbc57f1066b8b44'],['Auto Garage'],0
5313a70d498eb11abfe82035,"–í–µ—Ä–Ω–∞–¥—Å—å–∫–æ–≥–æ, 16–ë","['–ø—Ä. –í–µ—Ä–Ω–∞–¥—Å—å–∫–æ–≥–æ, 16–ë', '–£–∫—Ä–∞—ó–Ω–∞']",50.46144033147144,30.378559030849498,204,0,20,227,2,0,['4d954b06a243a5684965b473'],['Residential Building (Apartment / Condo)'],0
5235df8511d2a7e9865e849c,—É–ª–∏—Ç–∏–Ω–∞ 41 —É –ü–µ—Ç—å–∫–∏,['–£–∫—Ä–∞—ó–Ω–∞'],50.46494863094444,30.38031200926398,22,0,15,82,1,0,['5032891291d4c4b30a586d68'],['Assisted Living'],0
54ccef7d498ed407cd2fc8a6,–†–µ—Å—Ç–æ—Ä–∞–Ω –í–∞–ª–µ–Ω—Ç–∏–Ω–æ,"['–ü—Ä-—Ç –ü–µ—Ä–µ–º–æ–≥–∏ 114/2', '–ö–∏—ó–≤', '–£–∫—Ä–∞—ó–Ω–∞']",50.462517542733735,30.38057498012739,27,0,19,30,0,0,['52e81612bcbc57f1066b7a00'],['Comfort Food Restaurant'],0
543e8847498e5113f90ad595,–ú–∞—Ä—É—Å–∏–Ω–∞ –±–µ—Ä–ª–æ–≥–∞ üç©üçå,"['–ì–µ–Ω–µ—Ä–∞–ª–∞ –í–∏—Ç—Ä—É–∫–∞ 21', '–ö–∏—ó–≤', '–£–∫—Ä–∞—ó–Ω–∞']",50.46258977891415,30.381879180836492,373,0,9,387,0,0,['4d954b06a243a5684965b473'],['Residential Building (Apartment / Condo)'],0
531d792c498ef80da506cf45,"–ó–∞–ª—ñ–∑–Ω–∏—á–Ω–∞ —Å—Ç–∞–Ω—Ü—ñ—è ""–ê–∫–∞–¥–µ–º–º—ñ—Å—Ç–µ—á–∫–æ""","['–ú–∏–∫–æ–ª–∏ –ö—Ä–∞—Å–Ω–æ–≤–∞ –≤—É–ª–∏—Ü—è', '–ö–∏—ó–≤', '–£–∫—Ä–∞—ó–Ω–∞']",50.4660145540498,30.38099773898233,42,1,31,58,0,0,['4f4531504b9074f6e4fb0102'],['Platform'],0
506933a6e4b0fb70057bd285,–°–ê–í –°–ï–†–í–ò–°,['–£–∫—Ä–∞—ó–Ω–∞'],50.4655187801402,30.37896800463502,270,1,28,313,3,0,['4bf58dd8d48988d124941735'],['Office'],0
4e78ba3a1495f00a42633178,–î–∏—Ç—è—á–∏–π –º–∞–π–¥–∞–Ω—á–∏–∫,['–£–∫—Ä–∞—ó–Ω–∞'],50.46260216106161,30.38340072396626,42,1,16,44,1,0,['4bf58dd8d48988d1e7941735'],['Playground'],0
55605055498e6f5b4159cfd2,–ö–æ–Ω—Ü–µ—Ä—Ç–Ω—ã–π –ó–∞–ª –ï–≤—Ä–æ–ø–µ–π—Å–∫–æ–≥–æ –£–Ω–∏–≤–µ—Ä—Å–∏—Ç–µ—Ç–∞,"['–ë—É–ª—å–≤–∞—Ä –ê–∫–∞–¥–µ–º–∏–∫–∞ –í–µ—Ä–Ω–∞–¥—Å–∫–æ–≥–æ 16-–≤', '–ö–∏—ó–≤', '–£–∫—Ä–∞—ó–Ω–∞']",50.46132278442383,30.379222869873047,3,0,3,3,0,0,['4bf58dd8d48988d1ac941735'],['College Theater'],0
560d5844498edb357c271530,–ö–æ—Ä–µ–π—Å–∫–∏–π –∫—É–ª—å—Ç—É—Ä–Ω—ã–π —Ü–µ–Ω—Ç—Ä,['–£–∫—Ä–∞—ó–Ω–∞'],50.462829,30.384404,23,0,19,40,0,0,['4bf58dd8d48988d19a941735'],['College Communications Building'],0
561cdd84498e86b313a428d1,MYBMW.com.ua,['–£–∫—Ä–∞—ó–Ω–∞'],50.46634711774632,30.38047195488795,34,0,57,133,1,0,['52f2ab2ebcbc57f1066b8b44'],['Auto Garage'],0
57d9bbe1498edd3224be06f1,–¶–∞—Ä—Å–∫–∏–µ —Ö–æ—Ä–æ–º—ã,['–£–∫—Ä–∞—ó–Ω–∞'],50.462798,30.384409,5,0,5,8,0,0,['4f2a210c4b9023bd5841ed28'],['Housing Development'],0
4fd569eee4b070e01ef3d579,–ú–∞–≥–∞–∑–∏–Ω—á–∏–∫ –∫–æ–ª–æ –ø—ñ–¥'—ó–∑–¥—É,"['–≤—É–ª. –•–º–µ–ª—å–Ω–∏—Ü—å–∫–∞, 10', '–ö–∏—ó–≤', '–£–∫—Ä–∞—ó–Ω–∞']",50.46270130400771,30.383582652873386,74,2,26,82,1,0,['4bf58dd8d48988d1f9941735'],['Food & Drink Shop'],0
562d0232498e6190527e3117,"–ì–∞—Ä–∞–∂–Ω—ã–π –∫–æ–æ–ø–µ—Ä–∞—Ç–∏–≤ ""–ö—Ä–æ–Ω—à—Ç–∞–¥""",['–£–∫—Ä–∞—ó–Ω–∞'],50.466724,30.378839,12,0,13,26,0,0,['4c38df4de52ce0d596b336e1'],['Parking'],0
52a65dcd11d28346989f3bcb,–û–±–µ—Äi–≥,"['—É–ª. –ó–æ–æ–ª–æ–≥–∏—á–µ—Å–∫–∞—è, 3', '–ö–∏—ó–≤', '–£–∫—Ä–∞—ó–Ω–∞']",50.46380711725075,30.382478779512205,10,0,13,14,1,0,['4bf58dd8d48988d196941735'],['Hospital'],0
51e52832498e1772fc4c6296,AVIATOR UTC,"['—É–ª. –°–µ–º—å–∏ –•–æ—Ö–ª–æ–≤—ã—Ö, 8–∞', '–ö–∏—ó–≤', '–£–∫—Ä–∞—ó–Ω–∞']",50.46518068367471,30.384471640999042,12,0,8,14,0,0,['4bf58dd8d48988d198941735'],['College Academic Building'],0
576e5a41498e8fac2f989f83,–ü–∞–Ω—Ç–µ–ª—å–∫–∏–Ω–∞ 2,['–£–∫—Ä–∞—ó–Ω–∞'],50.462965,30.385391,33,0,20,66,0,0,['4f2a210c4b9023bd5841ed28'],['Housing Development'],0
58122d7c38fa9bcafa5cd7f4,–ë–æ–π—Ü–æ–≤—Å–∫–∏–π –ö–ª—É–±,['–£–∫—Ä–∞—ó–Ω–∞'],50.461229,30.384173,10,0,1,13,0,0,['4f4534884b9074f6e4fb0174'],['Funeral Home'],0
518a5218498e98bcaa95f5fa,EKOL Ukraine HQ,"['27, Krasnova St', '–ö–∏—ó–≤', '–£–∫—Ä–∞—ó–Ω–∞']",50.465317486784144,30.379085540771484,280,0,52,311,0,0,['4bf58dd8d48988d124941735'],['Office'],0
55a4ecbf498eafb5fc017471,–º–∏—Ç–Ω–∏–π –ø–æ—Å—Ç –ó–∞—Ö—ñ–¥–Ω–∏–π,['–£–∫—Ä–∞—ó–Ω–∞'],50.46519837761866,30.378842440502,61,0,24,81,1,0,['4bf58dd8d48988d1de941735'],['Vineyard'],0
5594f6e5498ed02c1ed72b77,–á–¥–∞–ª—å–Ω—è —Å–µ—Ä—ñ–π–Ω–æ–≥–æ –∑–∞–≤–æ–¥—É –ê–Ω—Ç–æ–Ω–æ–≤,"['–¢—É–ø–æ–ª–µ–≤–∞ 1', '–ö–∏—ó–≤', '–£–∫—Ä–∞—ó–Ω–∞']",50.46443887791842,30.387342159110727,17,0,9,26,0,0,['52e928d0bcbc57f1066b7e96'],['Ukrainian Restaurant'],0
4e98075ecc217f441ec3f778,Bel Gusto,"['–≤—É–ª. –ö—Ä–∞—Å–Ω–æ–≤–∞, 27', '–ö–∏—ó–≤, 03115', '–£–∫—Ä–∞—ó–Ω–∞']",50.465203023053775,30.379197857365934,1278,18,564,2824,40,7.6,['4bf58dd8d48988d1c4941735'],['Restaurant'],60
51b0972d498ef4ef26f14e36,–ì–∞—Ä–∞–∂–∏,"['–£–ª. –ù. –ö—Ä–∞—Å–Ω–æ–≤–∞', '–ö–∏—ó–≤', '–£–∫—Ä–∞—ó–Ω–∞']",50.46572951156855,30.38335207648783,35,0,18,36,0,0,['4c38df4de52ce0d596b336e1'],['Parking'],0
5222ea2411d2bc86a772e1db,–®–∫–æ–ª–∞ ‚Ññ96,"['–≤—É–ª. –û–≥–∞—Ä—å–æ–≤–∞, 2', '–ö–∏—ó–≤', '–£–∫—Ä–∞—ó–Ω–∞']",50.46201606513866,30.380019937668994,84,0,72,122,0,0,['4bf58dd8d48988d13b941735'],['School'],0
59131d719be5225783d5d67c,Muscle Autoservice,"['–ö–∏—ó–≤', '–£–∫—Ä–∞—ó–Ω–∞']",50.46726,30.380667,1,0,1,1,0,0,['56aa371be4b08b9a8d5734d3'],['Auto Workshop'],0
537130a7498e15d6a866c46f,–î–æ–∂–¥—å –Ω–∞ –°–≤—è—Ç–æ—à–∏–Ω–æ,['–£–∫—Ä–∞—ó–Ω–∞'],50.463784321780125,30.382422764311816,31,0,14,35,0,0,['4bf58dd8d48988d15e941735'],['Pool'],0
5554a82d498edd2766fdaf35,Promo Servis,"['–ö—Ä–∞—Å–Ω–æ–≤–∞ 29', '–ö–∏—ó–≤', '–£–∫—Ä–∞—ó–Ω–∞']",50.46495053570018,30.3788536093519,14,0,6,14,0,0,['4bf58dd8d48988d124941735'],['Office'],0
51c165a2498e372d8c79dba4,—Ü–µ—Ö 4 –∫–æ—Ä–ø—É—Å 73,['–£–∫—Ä–∞—ó–Ω–∞'],50.470668865091355,30.37812700681051,30,0,7,32,0,0,['4bf58dd8d48988d130941735'],['Building'],0
4cb9a2adadcd5481bcaa1da2,–Ñ–≤—Ä–æ–ø–µ–π—Å—å–∫–∏–π —É–Ω—ñ–≤–µ—Ä—Å–∏—Ç–µ—Ç / European University,"['–±—É–ª. –í–µ—Ä–Ω–∞–¥—Å—å–∫–æ–≥–æ, 16', '–ö–∏—ó–≤, 03115', '–£–∫—Ä–∞—ó–Ω–∞']",50.461278360248016,30.379231347971384,2277,5,873,3562,19,0,['4bf58dd8d48988d1ae941735'],['University'],0
4e994aa49a52ceeb88201206,–ì–∞—Ä–∞–∂–Ω–∏–π –ö–æ–ø–µ—Ä–∞—Ç–∏–≤,"['–í–∞—Å–∏–ª—è –°—Ç–µ–ø–∞–Ω—á–µ–Ω–∫–∞', '–ö–∏—ó–≤', '–£–∫—Ä–∞—ó–Ω–∞']",50.46737151342172,30.380042329251996,140,0,34,153,1,0,['4bf58dd8d48988d124951735'],['Automotive Shop'],0
588dbf8988cfcc07bdc5b39e,THE VERGE TATTOO STUDIO,"['–•–º–µ–ª—å–Ω–∏—Ü–∫–∞—è 10', '–ö–∏—ó–≤', '–£–∫—Ä–∞—ó–Ω–∞']",50.463042,30.383183,10,0,7,10,1,0,['4bf58dd8d48988d1de931735'],['Tattoo Parlor'],0
4e0c5e4d1f6e9300e4e57fc2,–°–≤—è—Ç–æ—à–∏–Ω—Å–∫–∏–π –≤–æ–µ–Ω–∫–æ–º–∞—Ç,"['–≤—É–ª. –û–Ω–∏—Å–∫–µ–≤–∏—á–∞ –ì—Ä–∏–≥–æ—Ä—ñ—è, 1', '–ö–∏—ó–≤', '–£–∫—Ä–∞—ó–Ω–∞']",50.46229880052477,30.383248329162598,693,14,671,1238,6,0,['4e52adeebd41615f56317744'],['Military Base'],0
4e2c536b7d8b7deda6d9c35a,–ê–Ω—Ç–µ–π,"['—É–ª. –í–∏—Ç—Ä—É–∫–∞, 8–ë', '–ö–∏—ó–≤', '–£–∫—Ä–∞—ó–Ω–∞']",50.461602153254944,30.3841495513916,907,9,411,1574,21,6.7,['4e39a956bd410d7aed40cbc3'],['Tennis Court'],33
4fccb0e1a17cc67488516d88,"–≤—É–ª. –•–º–µ–ª—å–Ω–∏—Ü—å–∫–∞, 10","['–≤—É–ª. –•–º–µ–ª—å–Ω–∏—Ü—å–∫–∞, 10', '–ö–∏—ó–≤', '–£–∫—Ä–∞—ó–Ω–∞']",50.46293227658983,30.383124200214432,773,1,535,1765,8,0,['4d954b06a243a5684965b473'],['Residential Building (Apartment / Condo)'],0
4e944eef46900e559d37f89e,ASNOVA HOLDING PrJSC,"['—É–ª. –ö—Ä–∞—Å–Ω–æ–≤–∞, 27', '–ö–∏—ó–≤, 03115', '–£–∫—Ä–∞—ó–Ω–∞']",50.46539515196648,30.378831591027904,1354,0,516,2337,5,0,['4bf58dd8d48988d124941735'],['Office'],0
58a07609dfa6ff7ee6606647,Garage39,"['–ö–∏—ó–≤', '–£–∫—Ä–∞—ó–Ω–∞']",50.466455,30.38071,18,0,5,24,0,0,['52f2ab2ebcbc57f1066b8b44'],['Auto Garage'],0
57b20b44498eee8525ae36c0,–£ –°–∞–≤—á–∏–∫–∞,"['—Å–≤—è—Ç–æ—à–∏–Ω', '–ö–∏—ó–≤', '–£–∫—Ä–∞—ó–Ω–∞']",50.461327,30.387268,147,0,23,177,0,0,['4bf58dd8d48988d121941735'],['Lounge'],0
