id,name,formattedAddress,lat,lng,checkinsCount,tipCount,usersCount,visitsCount,likesCount,rating,categories_ids,categories_names,ratingSignals
50d9dd07e4b0252177c694ec,–ú–æ–π –°–∞–¥,['–£–∫—Ä–∞—ó–Ω–∞'],50.47226006463017,30.664728484490414,9,0,3,9,0,0,"['4bf58dd8d48988d15b941735', '4bf58dd8d48988d103941735']","['Farm', 'Home (private)']",0
4feeeb84e4b038983ca5494a,–ì–∞—Å—Ç—Ä–æ–Ω–æ–º –ê–ª–∫–æ–≥–æ–ª–∏—á–µ—Å–∫–∏–π,"['–ø—Ä–æ—Å–ø. –ë—Ä–æ–≤–∞—Ä—Å–∫–æ–π, 51', '–ö–∏—ó–≤, 02089', '–£–∫—Ä–∞—ó–Ω–∞']",50.473063344865906,30.666084990337904,69,1,42,82,2,0,['4d954b0ea243a5684a65b473'],['Convenience Store'],0
54145bdd498e90969f024bdd,–£–î—Ä—É–∑–µ–π,['–£–∫—Ä–∞—ó–Ω–∞'],50.47728729248047,30.666658401489258,2,0,2,2,0,0,['4bf58dd8d48988d109941735'],['Eastern European Restaurant'],0
53243240498ef5ce493bb35c,–ó–∞–±—Ä–æ—à–µ–Ω–Ω–∞—è –≤–æ–µ–Ω–Ω–∞—è —á–∞—Å—Ç—å,['–£–∫—Ä–∞—ó–Ω–∞'],50.476805,30.664892,19,0,12,19,0,0,['4e52adeebd41615f56317744'],['Military Base'],0
553a360e498e111b32ad405f,üî∞,['–£–∫—Ä–∞—ó–Ω–∞'],50.472473,30.664704,5,0,7,24,0,0,['52e81612bcbc57f1066b7a26'],['Recreation Center'],0
52933ed8498e2f2a705e5b07,—É–∫—Ä–ø–æ—á—Ç–∞,['–£–∫—Ä–∞—ó–Ω–∞'],50.48047851430985,30.65979209700204,4,0,4,4,0,0,['4bf58dd8d48988d172941735'],['Post Office'],0
54baab59498e6f934a0edcc4,–ê–Ω–¥—ç –≥–∞—Ä–∞–∂,['–£–∫—Ä–∞—ó–Ω–∞'],50.475095,30.667844,1,0,2,2,0,0,['52e81612bcbc57f1066b7a26'],['Recreation Center'],0
5361e3f3498e46ec4d5a4269,"–õ–µ—Å, –ü–æ–ª—è–Ω–∞ 2 –ü–µ–Ω—å–∫–∞",['–£–∫—Ä–∞—ó–Ω–∞'],50.47315122469055,30.658278169984115,32,0,14,32,1,0,['4bf58dd8d48988d159941735'],['Trail'],0
5782694d498e81c425c24bf7,–ë—Ä–æ–≤–∞—Ä—Å–∫–∏–π —Ä–∞–π–æ–Ω,"[""Brovars'kyi prospekt"", '–ö–∏—ó–≤', '–£–∫—Ä–∞—ó–Ω–∞']",50.471277,30.667893,6,0,6,6,0,0,['4bf58dd8d48988d1c4941735'],['Restaurant'],0
50016fd4e4b05ceffc1ebaba,–õ–µ—Å–Ω–∏—á–µ—Å—Ç–≤–æ,"['–ë—Ä–æ–≤–∞—Ä—Å–∫–æ–π –ø—Ä–æ—Å–ø.', '–ö–∏—ó–≤, 02089', '–£–∫—Ä–∞—ó–Ω–∞']",50.47133122885916,30.66587366559654,190,0,76,192,1,0,['4bf58dd8d48988d12b951735'],['Bus Line'],0
4daacd1f5da3ba8a4792b40e,Eva,"['–ë—Ä–æ–≤–∞—Ä—Å—å–∫–∏–π –ø—Ä–æ—Å–ø., 17', '–ö–∏—ó–≤', '–£–∫—Ä–∞—ó–Ω–∞']",50.47097871132288,30.664933919906616,13,1,9,18,0,0,['4bf58dd8d48988d10c951735'],['Cosmetics Shop'],0
4f775bc87b0c234116206462,–ë–∏–∫—ñ–≤–Ω—è–Ω—Å—å–∫–µ –∫–ª–∞–¥–æ–≤–∏—â–µ,"['–±—ñ–ª—è —Å. –ë–∏–∫—ñ–≤–Ω—è', '–ö–∏—ó–≤, 02089', '–£–∫—Ä–∞—ó–Ω–∞']",50.47345058952756,30.661725997924805,41,0,27,50,0,0,['4bf58dd8d48988d15c941735'],['Cemetery'],0
53243aed498e21bb24738dff,–ö–æ–Ω—é—à–Ω—è,['–£–∫—Ä–∞—ó–Ω–∞'],50.477994,30.666765,11,2,14,16,1,0,['4eb1baf03b7b2c5b1d4306ca'],['Stables'],0
