id,name,formattedAddress,lat,lng,checkinsCount,tipCount,usersCount,visitsCount,likesCount,rating,categories_ids,categories_names,ratingSignals
571471c0498e20f5efe9a442,ШЭУ Днепровского района,"['пр-т Броварской 2', 'Київ', 'Україна']",50.469578,30.660082,2,0,3,3,0,0,['50328a8e91d4c4b30a586d6c'],['Non-Profit'],0
562f2ee0498e91a9d4e25a74,Корпус Д,['Україна'],50.469606,30.660905,3,0,3,3,0,0,['4bf58dd8d48988d1af941735'],['College Auditorium'],0
52cb228411d2e393fd21bd19,база Дена),['Україна'],50.470429,30.664719,11,1,8,15,0,0,['4bf58dd8d48988d122941735'],['Whisky Bar'],0
52ed06b3498e86d685fdd234,Jesus's House,['Україна'],50.470516,30.663997,52,0,2,63,1,0,"['4d954b06a243a5684965b473', '4bf58dd8d48988d103941735']","['Residential Building (Apartment / Condo)', 'Home (private)']",0
52c686bb498ed1cd45571582,шиномонтаж,"['П-т Броварський,95', 'Україна']",50.469024658203125,30.65958023071289,8,0,9,13,0,0,['4bf58dd8d48988d113951735'],['Gas Station'],0
503f0892e4b09de605ce2f60,"Зона отдыха ""Веселка""",['Україна'],50.47045000276347,30.667709872003396,86,0,84,91,1,0,['4d954b16a243a5684b65b473'],['Rest Area'],0
