id,name,formattedAddress,lat,lng,checkinsCount,tipCount,usersCount,visitsCount,likesCount,rating,categories_ids,categories_names,ratingSignals
53dbaaf5498e6037bf8c04ed,Загранпаспорт,"['Ул. Вербицкого, 30 А', 'Київ', 'Україна']",50.40654808933677,30.5801067938627,5,0,5,5,0,0,['4f4530164b9074f6e4fb00ff'],['Tourist Information Center'],0
5320b361498ef1d048dca9f2,Смотровая Площадка,"['Kiev', 'Україна']",50.406923359965376,30.580633874786574,13,0,14,15,1,0,['4bf58dd8d48988d1df941735'],['Bridge'],0
532ac617498e82333fb75c17,"ООО ""Ростава""","['Деревообрабатывающая 5', 'Київ', 'Україна']",50.407554,30.579576,1,0,1,1,0,0,['4bf58dd8d48988d124941735'],['Office'],0
57be8ea4498eb5b9604debe7,"цех ТОВ""Енергодизайн""","['Будіндустрії 7а', 'Київ', 'Україна']",50.402122,30.578348,5,0,1,5,0,0,['4eb1bea83b7b6f98df247e06'],['Factory'],0
55813c20498ea5d28703a66d,Дніпровська затока,['Україна'],50.402985121173444,30.578532170608984,6,0,7,10,0,0,['52e81612bcbc57f1066b7a29'],['Rafting'],0
51ed2ce0498e21f5b5318543,КомТел,['Україна'],50.405223,30.578581,2,0,2,10,0,0,['4bf58dd8d48988d125941735'],['Tech Startup'],0
56962663498ec0def3fae09f,Геопроф,"['Марии Расковой,21', 'Київ', 'Україна']",50.410397,30.578022,3,0,2,3,0,0,['4bf58dd8d48988d124941735'],['Office'],0
54f0ba48498e53d73de5ac84,тренировочка ⚽️⚽️⚽️,['Україна'],50.404387,30.578449,9,0,19,33,0,0,['4bf58dd8d48988d1f1931735'],['General Entertainment'],0
581c96bbded8f84666da02fd,Центр психосоціальної реабілітації НаУКМА,"['Hlazunova vulytsya, 2/4', 'Київ', 'Україна']",50.401057,30.585533,4,0,2,4,0,0,['4bf58dd8d48988d1ae941735'],['University'],0
5271100e11d2dcd4b59c8387,Challenge Aeroport,"['Гоголевская 1-3', 'Україна']",50.40692326057466,30.57900960513727,38,1,103,174,6,0,['4f04b08c2fb6e1c99f3db0bd'],['Travel Agency'],0
503b6ff4e4b0266f6a569a74,"ЧАО ""Укрлеспромоптторг""","['Деревообрабатывающая, 5', 'Україна']",50.40540045554365,30.579189526432938,80,1,53,125,1,0,['4bf58dd8d48988d124941735'],['Office'],0
57b8075d498e3a31cb7e0d16,Heliclub,"['Київ', 'Україна']",50.404938,30.57878,3,0,2,3,0,0,['56aa371ce4b08b9a8d57356e'],['Heliport'],0
53c392b3498ec7ea1679958c,Киевский ДОК,"['Деревообрабатывающая Ул. (Выдубичи)', 'Україна']",50.407204186396285,30.578597368924815,13,0,16,21,0,0,['52e81612bcbc57f1066b7a36'],['Warehouse'],0
50c5bb40e4b0e2b40d88a12a,Медкомплекс Мрия,"['Будиндустрии', 'Україна']",50.40099457437964,30.57818577655685,3,1,3,3,0,0,['4bf58dd8d48988d104941735'],['Medical Center'],0
4eaff3aa722e4efd61b1a8a8,"СТО ""АвтоДок""","['Деревообрабатывающая 5', 'Київ', 'Україна']",50.40625064892031,30.576321528951077,323,5,301,805,12,8.5,"['56aa371be4b08b9a8d5734d3', '52f2ab2ebcbc57f1066b8b44']","['Auto Workshop', 'Auto Garage']",15
