id,name,formattedAddress,lat,lng,checkinsCount,tipCount,usersCount,visitsCount,likesCount,rating,categories_ids,categories_names,ratingSignals
5557a87a498e46458ea639a2,"–†–µ—Å—Ç–æ—Ä–∞–Ω ""–ü–µ—Ä—Å–∏—è""","['–£—à–∏–Ω—Å–∫–æ–≥–æ, 25', '–ö–∏—ó–≤, 03151', '–£–∫—Ä–∞—ó–Ω–∞']",50.42669022384553,30.44409827014576,6,0,4,16,0,0,['4bf58dd8d48988d109941735'],['Eastern European Restaurant'],0
527e848511d2a63968d10cdf,Anya homeüéÄ,['–£–∫—Ä–∞—ó–Ω–∞'],50.426092538424165,30.445398751776366,2,0,1,2,0,0,"['4d954b06a243a5684965b473', '4bf58dd8d48988d103941735']","['Residential Building (Apartment / Condo)', 'Home (private)']",0
52348aa911d2d42276123a66,–û–±—â–∞–≥–∞,"['–£—à–∏–Ω—Å–∫–æ–≥–æ, 36', '–£–∫—Ä–∞—ó–Ω–∞']",50.4244433455822,30.44219942161012,18,0,10,18,0,0,[],[],0
528f2b22498e55fd269769e8,KeepFive HQ,"['Ushinskogo Street', '–ö–∏—ó–≤', '–£–∫—Ä–∞—ó–Ω–∞']",50.42643708808777,30.444766813625847,39,1,7,40,2,0,['4bf58dd8d48988d131941735'],['Spiritual Center'],0
4fbfb856e4b01d437d6584bd,Persia,"['–≤—É–ª. –£—à–∏–Ω—Å—å–∫–æ–≥–æ, 25 (–≤—É–ª. –í–∞—Å–∏–ª—å—á–µ–Ω–∫–∞)', '–ö–∏—ó–≤', '–£–∫—Ä–∞—ó–Ω–∞']",50.426372312100426,30.444054827158435,43,0,30,54,2,0,['52e81612bcbc57f1066b79f7'],['Persian Restaurant'],0
50fabaf0e4b0096f866af799,–£—à–∏–Ω—Å–∫–æ–≥–æ 21,['–£–∫—Ä–∞—ó–Ω–∞'],50.425595611791934,30.443140904875975,24,0,16,30,0,0,['4d954b06a243a5684965b473'],['Residential Building (Apartment / Condo)'],0
5280af86498e2cd73bd699ae,Sarstedt,"['–£—à–∏–Ω—Å–∫–æ–≥–æ, 27', '–ö–∏—ó–≤, 03151', '–£–∫—Ä–∞—ó–Ω–∞']",50.42477,30.443155,11,0,5,11,0,0,['4f4531b14b9074f6e4fb0103'],['Medical Lab'],0
5130f82fe4b0303ccc48c644,"–°–º–µ–ª—è–Ω—Å–∫–∞—è, 19","['–°–º–µ–ª—è–Ω—Å–∫–∞—è, 19', '–ö–∏—ó–≤', '–£–∫—Ä–∞—ó–Ω–∞']",50.42493751206493,30.443266800742123,51,0,43,83,0,0,['4d954b06a243a5684965b473'],['Residential Building (Apartment / Condo)'],0
4ff230c7e4b03bb7fe11f579,–†—è–¥–æ–º —Å –ñ–µ–Ω–∏–Ω—ã–º –¥–æ–º–æ–º,['–£–∫—Ä–∞—ó–Ω–∞'],50.42512934866151,30.44283639505741,19,0,8,23,1,0,['4d954b16a243a5684b65b473'],['Rest Area'],0
548625d0498e2f6041f11583,–≤—É–ª.–£—à–∏–Ω—Å—å–∫–æ–≥–æ 27/44,['–£–∫—Ä–∞—ó–Ω–∞'],50.42443137056672,30.442892219760946,6,0,8,19,0,0,['4d954b06a243a5684965b473'],['Residential Building (Apartment / Condo)'],0
50daf385e4b0ce6f80f822b7,–ü–æ–ª–∏–∫–ª–∏–Ω–∏–∫–∞ –≤–æ–¥–Ω–∏–∫–æ–≤,"['—É–ª. –ö–æ–Ω—Å—Ç–∞–Ω—Ç–∏–Ω–æ–≤—Å–∫–∞—è, 36', '–ö–∏—ó–≤', '–£–∫—Ä–∞—ó–Ω–∞']",50.42601534477147,30.44418324993007,5,0,3,5,0,0,['4bf58dd8d48988d104941735'],['Medical Center'],0
5458088a498e35b5c46da469,Apartament liderem,"['—É–ª. –£—à–∏–Ω—Å–∫–æ–≥–æ 23', '–ö–∏—ó–≤', '–£–∫—Ä–∞—ó–Ω–∞']",50.426356259045214,30.44482155757595,91,0,13,111,0,0,['4d954b06a243a5684965b473'],['Residential Building (Apartment / Condo)'],0
51280395e4b0fb382cc5cc6c,–ì—Ä–∏—à–∞,"['–í–∞—Å–∏–ª—å—á–µ–Ω–∫–æ 12', '–ö–∏—ó–≤', '–£–∫—Ä–∞—ó–Ω–∞']",50.42601,30.445073,3,0,2,3,0,0,['4d954b06a243a5684965b473'],['Residential Building (Apartment / Condo)'],0
4fa10623e4b0badc80f5db57,"–¢—É—Ä–Ω–∏–∫–∏, –±—Ä—É—Å—å—è",['–£–∫—Ä–∞—ó–Ω–∞'],50.425354022603926,30.44363488681667,94,0,29,95,1,0,['4bf58dd8d48988d176941735'],['Gym'],0
52fe824b498e01f87c39feb1,–°–∏–≤–∞–ª–∫–∞ –∏–Ω –¥–∞ –•–∞—É—Å,['–£–∫—Ä–∞—ó–Ω–∞'],50.426342,30.445535,2,0,2,2,0,0,['4d954b06a243a5684965b473'],['Residential Building (Apartment / Condo)'],0
544b5728498e215b704821df,SmartMe,['–£–∫—Ä–∞—ó–Ω–∞'],50.42546109222007,30.44490248680167,6,0,3,6,0,0,['4bf58dd8d48988d171941735'],['Event Space'],0
50accf69e4b02f61d4c52e1e,Home :),"['–í–∞—Å–∏–ª—å—á–µ–Ω–∫–æ 1', '–ö–∏—ó–≤', '–£–∫—Ä–∞—ó–Ω–∞']",50.425534883286076,30.444846476913124,84,0,2,84,0,0,"['4d954b06a243a5684965b473', '4bf58dd8d48988d103941735']","['Residential Building (Apartment / Condo)', 'Home (private)']",0
51d449b4498ee12c3ed3ff69,Vetfactor,"['Ushinskogo str. 25A', '–ö–∏—ó–≤', '–£–∫—Ä–∞—ó–Ω–∞']",50.42563114901942,30.44370975606068,129,0,68,293,1,0,['4bf58dd8d48988d124941735'],['Office'],0
5283eb9e11d25c1f6ef7b58d,Extreme fire,"['Nahirna 22, room 213', '–ö–∏—ó–≤', '–£–∫—Ä–∞—ó–Ω–∞']",50.42528824117128,30.443351412937044,5,0,2,5,0,0,['4bf58dd8d48988d176941735'],['Gym'],0
52911a9c11d2c28e3e43b2af,–ë–µ—Ä–ª–æ–≥–∞ –£ –°—É—Ö–æ–≤–∞,"['–£—à–∏–Ω—Å–∫–æ–≥–æ 23', '–ö–∏—ó–≤', '–£–∫—Ä–∞—ó–Ω–∞']",50.42626970807014,30.44490046013272,46,0,11,67,1,0,['5032891291d4c4b30a586d68'],['Assisted Living'],0
560402c8498e528ac3b294b1,BoBiju,"['–£—à–∏–Ω—Å–∫–æ–≥–æ, 23', '–£–∫—Ä–∞—ó–Ω–∞']",50.42697946635429,30.444502055626213,1,0,1,1,0,0,['4bf58dd8d48988d124941735'],['Office'],0
556405d8498ead56889455e3,–ì—É—Ä—Ç–æ–∂–∏—Ç–æ–∫,['–£–∫—Ä–∞—ó–Ω–∞'],50.42497935469001,30.444383151508195,4,0,9,15,0,0,['52f2ab2ebcbc57f1066b8b4f'],['Bus Stop'],0
561e6ce1498e594adcaa1511,–î–µ—Ç—Å–∫–∞—è –ü–ª–æ—â–∞–¥–∫–∞,['–£–∫—Ä–∞—ó–Ω–∞'],50.425228118896484,30.445362091064453,6,0,5,9,0,0,['4bf58dd8d48988d1e7941735'],['Playground'],0
56f3c490498e5b7c445d08fd,–¥–æ–ø –º–∞—Ç–µ–º,['–£–∫—Ä–∞—ó–Ω–∞'],50.426249,30.445354,4,0,1,4,0,0,['4bf58dd8d48988d1a0941735'],['College Classroom'],0
56102509498eafa18d073e49,"–í–∞—Å–∏–ª—å—á–µ–Ω–∫–æ, 12-–ê","['–í–∞—Å–∏–ª—å—á–µ–Ω–∫–æ 12-–ê', '–ö–∏—ó–≤', '–£–∫—Ä–∞—ó–Ω–∞']",50.426257534609995,30.445218487730628,33,0,12,62,0,0,['4d954b06a243a5684965b473'],['Residential Building (Apartment / Condo)'],0
4c76225044d39521d66e00bf,–ï–∫—Å–ø—Ä–µ—Å - –ù–∞—à –ö—Ä–∞–π,"['–ê–Ω—Ç–æ–Ω–æ–≤–∞ –≤—É–ª., (–ü–æ–≤—ñ—Ç—Ä–æ—Ñ–ª–æ—Ç—Å—å–∫–∏–π –ø—Ä–æ—Å–ø.)', '–ö–∏—ó–≤', '–£–∫—Ä–∞—ó–Ω–∞']",50.42645872437744,30.44137942870359,2,0,2,2,0,0,['4bf58dd8d48988d16a941735'],['Bakery'],0
5072d8c7e4b0ccacdcbc03cf,–Ø–≤—ñ—Ä,"['–ú–æ–ª–æ–¥–æ–≥–≤–∞—Ä–¥–µ–π—Å–∫–∞—è,20', '–ö–∏—ó–≤', '–£–∫—Ä–∞—ó–Ω–∞']",50.425783,30.445987,3,0,3,3,0,0,['4bf58dd8d48988d112951735'],['Hardware Store'],0
5254110611d2c303633d823b,"–û—Ñ–∏—Å Event Agency ""Dream Hunters""","['–í–∞—Å–∏–ª—å—á–µ–Ω–∫–æ 12 (–£—à–∏–Ω—Å–∫–æ–≥–æ)', '–ö–∏—ó–≤', '–£–∫—Ä–∞—ó–Ω–∞']",50.42689116765197,30.445173925102107,3,1,1,3,0,0,['4bf58dd8d48988d171941735'],['Event Space'],0
535ead9711d223058ef95c55,Sweet home,"['–£—à–∏–Ω—Å–∫–æ–≥–æ, 23', '–ö–∏—ó–≤', '–£–∫—Ä–∞—ó–Ω–∞']",50.426346002278855,30.444585970613193,13,0,2,13,0,0,"['4d954b06a243a5684965b473', '4bf58dd8d48988d103941735']","['Residential Building (Apartment / Condo)', 'Home (private)']",0
50accc9fe4b0c29852dbbd25,–í–∞—Å–∏–ª—å—á–µ–Ω–∫–æ 1,"['–í–∞—Å–∏–ª—å—á–µ–Ω–∫–æ, 1', '–ö–∏—ó–≤, 03151', '–£–∫—Ä–∞—ó–Ω–∞']",50.42570213152982,30.444928421384677,54,0,30,83,0,0,['4d954b06a243a5684965b473'],['Residential Building (Apartment / Condo)'],0
5521a9d5498e957d83b23f78,–í–∞–ª,['–£–∫—Ä–∞—ó–Ω–∞'],50.42643363753609,30.445583119504892,51,0,30,106,2,0,['4bf58dd8d48988d1e5941735'],['Dog Run'],0
52ffadaa498e521d49f710ee,–ù–æ–≤–≥–æ—Ä–æ–¥—Å–∫–∞—è 11,['–£–∫—Ä–∞—ó–Ω–∞'],50.425855139737486,30.445502961632744,11,0,6,11,0,0,['5032891291d4c4b30a586d68'],['Assisted Living'],0
51614f94e4b027d8482f580c,Happy Kids,['–£–∫—Ä–∞—ó–Ω–∞'],50.426594961523605,30.444050305541072,15,2,14,42,3,0,['4bf58dd8d48988d171941735'],['Event Space'],0
4ff082fee4b0b2ab0d67771e,–ó—É–ø–∏–Ω–∫–∞ '–≥—É—Ä—Ç–æ–∂–∏—Ç–æ–∫',['–£–∫—Ä–∞—ó–Ω–∞'],50.42498897444629,30.44400594555318,18,0,5,19,0,0,['52f2ab2ebcbc57f1066b8b4f'],['Bus Stop'],0
53b7b516498e55a100b35769,—É –°–∏–∫–æ—Ä—Å–∫–æ–π üëØ,"['–£–ª.–°–º–µ–ª—è–Ω—Å–∫–∞—è,17', '–ö–∏—ó–≤', '–£–∫—Ä–∞—ó–Ω–∞']",50.424582,30.444104,10,0,2,18,1,0,['4d954b06a243a5684965b473'],['Residential Building (Apartment / Condo)'],0
5280c6f211d29ae9fbf94d57,BlankNote,"['–ö–µ—Ä—á–µ–Ω—Å–∫–∞—è, 3', '–ö–∏—ó–≤', '–£–∫—Ä–∞—ó–Ω–∞']",50.426921678164405,30.44510714682448,67,1,18,68,2,0,['4bf58dd8d48988d128951735'],['Gift Shop'],0
53711cad498e0755aa1ce713,Los Solomka,['–£–∫—Ä–∞—ó–Ω–∞'],50.426352153739685,30.444730359615157,168,0,64,264,0,0,['4f2a210c4b9023bd5841ed28'],['Housing Development'],0
584d48eefebfbd728e5ab9e7,Crema Caffe,"['–í–æ–ª—ã–Ω—Å–∫–∞—è 37', '–ö–∏—ó–≤', '–£–∫—Ä–∞—ó–Ω–∞']",50.424633,30.443398,2,0,1,2,0,0,['4bf58dd8d48988d1e0931735'],['Coffee Shop'],0
5297324a11d280102e4ce816,–î–µ—Ç—Å–∫–∏–π –ö–ª—É–± ¬´–¢–∞—Ä–∞—Ä–∞–º¬ª,"['–≤—É–ª. –ö–∞–¥–µ—Ç—Å—å–∫–∏–π –≥–∞–π, 3', '–ö–∏—ó–≤', '–£–∫—Ä–∞—ó–Ω–∞']",50.42492892856353,30.443094157901115,30,1,33,64,4,0,['4bf58dd8d48988d1e1931735'],['Arcade'],0
4fe4275ae4b037f4b61101b1,–û—Å—Ç–∞–Ω–æ–≤–∫–∞ –£—à–∏–Ω—Å–∫–æ–≥–æ,['–£–∫—Ä–∞—ó–Ω–∞'],50.426275229490116,30.44422464670815,263,0,72,263,0,0,['4bf58dd8d48988d1fe931735'],['Bus Station'],0
552229ed498e9390e1e8bb0f,–ö—É—Ä–∏–ª–∫–∞ 64,"['–£—à–∏–Ω—Å–∫–æ–≥–æ 32', '–ö–∏—ó–≤', '–£–∫—Ä–∞—ó–Ω–∞']",50.4267669512551,30.444482978996245,29,0,7,32,0,0,['52e81612bcbc57f1066b7a24'],['Tree'],0
570a1379498ebe45cd874c2b,"–¢–æ—á–∫–∞, –ø–µ—Ä–≤–∞—è –≤–¥–æ–ª—å —Ç–µ—á–µ–Ω–∏—è —Ä.–õ—ã–±–∏–¥—å, –≤ –∫–æ—Ç–æ—Ä–æ–π, –ø—Ä–µ–¥–ø–æ–ª–æ–∂–∏—Ç–µ–ª—å–Ω–æ, –º–æ–∂–Ω–æ —É–≤–∏–¥–µ—Ç—å –µ—ë —Ä—É—Å–ª–æ",['–£–∫—Ä–∞—ó–Ω–∞'],50.425723,30.441713,9,0,10,13,0,0,['56aa371be4b08b9a8d57353e'],['Port'],0
4f227b18e4b0b2f98d5de49d,Monster Energy Office,"['Ushinskogo 40', '–£–∫—Ä–∞—ó–Ω–∞']",50.42502570094969,30.4427588400659,5,0,4,5,0,0,['4bf58dd8d48988d124941735'],['Office'],0
557ec432498e95a6fe8da9e7,–≤–∞—Å–∏–ª—å—á–µ–Ω–∫–æ 12,['–£–∫—Ä–∞—ó–Ω–∞'],50.42617736639439,30.444786799526224,13,0,12,17,0,0,['4d954b06a243a5684965b473'],['Residential Building (Apartment / Condo)'],0
59142bc0d69ed00d25de3b1b,"–ú–∞–≥–∞–∑–∏–Ω "" –ë–ª–∏–∑–Ω—é–∫–∏""","['–≤—É–ª. –ì–ª—ñ–Ω–∫–∏, 6', '–ö–∏—ó–≤, 03151', '–£–∫—Ä–∞—ó–Ω–∞']",50.425312,30.445372,1,0,1,1,0,0,['4d954b0ea243a5684a65b473'],['Convenience Store'],0
514b32b8e4b0db84383ceb3f,"–≤—É–ª. –£—à–∏–Ω—Å—å–∫–æ–≥–æ, 25–∞","['–≤—É–ª. –£—à–∏–Ω—Å—å–∫–æ–≥–æ, 25–∞', '–ö–∏—ó–≤', '–£–∫—Ä–∞—ó–Ω–∞']",50.42627315714874,30.443847074104944,378,1,70,432,0,0,['4d954b06a243a5684965b473'],['Residential Building (Apartment / Condo)'],0
504198ffe4b037986756ba2e,–®–∫–æ–ª–∞ ‚Ññ64,"['–≤—É–ª. –£—à–∏–Ω—Å—å–∫–æ–≥–æ, 32', '–ö–∏—ó–≤', '–£–∫—Ä–∞—ó–Ω–∞']",50.42694533976453,30.44345176356275,844,2,425,1533,8,0,['4bf58dd8d48988d13b941735'],['School'],0
529a242111d22599dfbad64f,–ü—Ä–æ–¥—É–∫—Ç—ã,['–£–∫—Ä–∞—ó–Ω–∞'],50.42622352667664,30.443770077674277,49,0,36,102,0,0,['4d954b0ea243a5684a65b473'],['Convenience Store'],0
562e3d8b498eec342b525359,–ê–¢–ë,"['—É–ª. –£—à–∏–Ω—Å–∫–æ–≥–æ 27', '–ö–∏—ó–≤', '–£–∫—Ä–∞—ó–Ω–∞']",50.42505688167824,30.443074517729222,417,1,523,1725,8,5.7,['52f2ab2ebcbc57f1066b8b46'],['Supermarket'],16
