id,name,formattedAddress,lat,lng,checkinsCount,tipCount,usersCount,visitsCount,likesCount,rating,categories_ids,categories_names,ratingSignals
4fcb6861e4b0e6dca7d20ad6,Вход В Астрал,['Україна'],50.5099439234539,30.39693596837582,21,0,27,37,1,0,['4bf58dd8d48988d162941735'],['Other Great Outdoors'],0
5196b898498e19a0b8f23f89,Сауна Орхидея,"['Газопроводная 167', 'Київ', 'Україна']",50.50227959806417,30.389967436661273,25,1,43,54,2,0,['52e81612bcbc57f1066b7a27'],['Bath House'],0
536cc088498eb57ef12e54db,"Садовое Товарищество ""Строитель""",['Україна'],50.50133859144716,30.380992162646763,64,0,50,133,3,0,['4bf58dd8d48988d15b941735'],['Farm'],0
517298fae4b0b5ce0b97bc7a,киевспецтранс,['Україна'],50.5071322355399,30.39492683655024,86,2,85,199,1,0,['4bf58dd8d48988d130941735'],['Building'],0
52a72da011d260822c0536f3,Intelciti,['Україна'],50.50275802612305,30.390483856201172,66,0,127,247,3,0,['4bf58dd8d48988d125941735'],['Tech Startup'],0
5395807e498e085ff3bdc420,Дачный кооператив,"['Київ', 'Україна']",50.50369971592445,30.388539145510407,43,1,46,145,0,0,[],[],0
