id,name,formattedAddress,lat,lng,checkinsCount,tipCount,usersCount,visitsCount,likesCount,rating,categories_ids,categories_names,ratingSignals
53987893498e0f88a0eef842,Белорусская косметика,['Україна'],50.5234013800302,30.447854277642985,11,1,7,13,1,0,['4bf58dd8d48988d10c951735'],['Cosmetics Shop'],0
517980f8e4b03aae5c55f830,Artur,"['Пущеводитская 19', 'Київ', 'Україна']",50.523355,30.447768,46,0,9,58,0,0,"['4d954b06a243a5684965b473', '4bf58dd8d48988d103941735']","['Residential Building (Apartment / Condo)', 'Home (private)']",0
532ee932498ed2d1da39ce86,"""IRRA"" Nails studio","['Київ', 'Україна']",50.5236,30.446244,9,0,7,24,0,0,['4f04aa0c2fb6e1c99f3db0b8'],['Nail Salon'],0
572f64e2498ef7b6f7afc103,Сад Моне,"['вул. Сошенка, 1', 'Київ', 'Україна']",50.521675,30.445623,20,0,34,42,0,0,['52e928d0bcbc57f1066b7e96'],['Ukrainian Restaurant'],0
4f68c760e4b04ab624fd14ce,Кинь-Грусть,"['вул. Сошенка, 1а', 'Київ', 'Україна']",50.521593507483495,30.446306144549457,202,2,258,395,12,6.0,['4bf58dd8d48988d109941735'],['Eastern European Restaurant'],22
56d87d06498e2d3d1cea6ca8,маршрутка Київ - Страхолісся,['Україна'],50.521955433897226,30.447773001847775,25,0,4,25,0,0,['4bf58dd8d48988d1f9931735'],['Road'],0
5878f51ada54ae4bc9d38ea6,PARCORNER,"['Київ', 'Україна']",50.52155701134952,30.441088438868046,66,5,35,99,14,8.8,['4bf58dd8d48988d1c4941735'],['Restaurant'],17
