id,name,formattedAddress,lat,lng,checkinsCount,tipCount,usersCount,visitsCount,likesCount,rating,categories_ids,categories_names,ratingSignals
56a565d7498eb28bdf83a576,"Штаб-квартира ОПГ ""Стальные""",['Україна'],50.480613357371,30.544192399861988,3,0,3,3,0,0,['52e81612bcbc57f1066b7a14'],['Palace'],0
57a0d706cd1045687c92888a,озеро Прибабине,"['Київ', 'Україна']",50.473557,30.546146,1,0,1,1,0,0,['4bf58dd8d48988d161941735'],['Lake'],0
553c86ce498eda40132be881,Локация 1,['Україна'],50.47512005845105,30.54141283035278,4,0,6,7,1,0,['52e81612bcbc57f1066b7a0f'],['Fishing Spot'],0
51b222e8e4b0065e4041ca72,Лес,['Україна'],50.47865739308333,30.54789549175732,58,1,58,62,6,0,['52e81612bcbc57f1066b7a23'],['Forest'],0
4f12e174e4b0f2c212d4ebc6,Озеро Глибоке,"['Київ', 'Україна']",50.476390560296934,30.546087290747074,161,1,150,180,2,0,['4bf58dd8d48988d161941735'],['Lake'],0
59046919eacf4521f0831d3c,Vip Besedka 7,"['Київ', 'Україна']",50.476357,30.545895,6,0,6,6,0,0,['52e81612bcbc57f1066b7a14'],['Palace'],0
522a036d11d2f44109596f70,Frame Rental,"['ул. Константиновская д.21', 'Київ', 'Україна']",50.46709461196816,30.51123869880453,118,3,61,126,7,7.7,['4eb1bdf03b7b55596b4a7491'],['Camera Store'],10
5172bd03e4b0bbda219953f5,Подільсько-Воскресенський мостовий перехід,"['Труханів острів', 'Київ', 'Україна']",50.470889939812125,30.54645538330078,1648,12,1326,1961,40,0,['4bf58dd8d48988d1df941735'],['Bridge'],0
