id,name,formattedAddress,lat,lng,checkinsCount,tipCount,usersCount,visitsCount,likesCount,rating,categories_ids,categories_names,ratingSignals
556b19a6498e742236eb21d4,Берег Днепра возле ТРЦ SkyMal,['Україна'],50.49738222366559,30.55555950939489,12,0,12,12,0,0,['4bf58dd8d48988d1e2941735'],['Beach'],0
590721e135811b1afae6a838,Грузинский Ресторан Хiнкальня,"['Київ', 'Україна']",50.497204,30.555809,2,0,2,2,0,0,['4bf58dd8d48988d1c4941735'],['Restaurant'],0
569a77c0498ed45803bda819,Ангар 24,"['просп. Генерала Ватутина, 2т', 'Київ', 'Україна']",50.493065,30.55763,5,1,5,5,1,0,['4bf58dd8d48988d1fb941735'],['Hobby Shop'],0
523c049c11d2f94eeff68cae,brax,"['Sky Mall', 'Україна']",50.49349359319902,30.557126189150804,16,0,10,16,0,0,['4bf58dd8d48988d103951735'],['Clothing Store'],0
58cd86cd951e7d532b7ce484,Боулинг Skymall,['Україна'],50.4934,30.557796,5,0,5,5,0,0,['4bf58dd8d48988d1e4931735'],['Bowling Alley'],0
53d38c34498e6d8d4955b979,пляж X-Park,['Україна'],50.49737414202954,30.54921224078854,111,1,101,124,5,0,['4bf58dd8d48988d1e2941735'],['Beach'],0
4ec81d787ee537da7f53ed36,City Entertainment,"['просп. Генерала Ватутіна, 2т', 'Київ', 'Україна']",50.49352810286371,30.55784940719604,7365,90,5260,10218,341,6.9,"['4bf58dd8d48988d1e4931735', '4bf58dd8d48988d11f941735', '4bf58dd8d48988d120941735']","['Bowling Alley', 'Nightclub', 'Karaoke Bar']",548
4fb3dbd1121d76014efa4ad6,Adrenalin Wake Club,"['под Московским мостом (на территории ""THE MOST"")', 'Київ', 'Україна']",50.49370214805072,30.54809153079987,1530,10,948,2191,52,7.4,['4bf58dd8d48988d1e3941735'],['Surf Spot'],77
