id,name,formattedAddress,lat,lng,checkinsCount,tipCount,usersCount,visitsCount,likesCount,rating,categories_ids,categories_names,ratingSignals
5130d505e4b0a00268eb679c,Detonate Ventures,['–£–∫—Ä–∞—ó–Ω–∞'],50.43450548218801,30.50165143652706,145,0,30,168,1,0,['4bf58dd8d48988d125941735'],['Tech Startup'],0
52d4cfbb498e90eb37447e00,–ö–æ–º–º—É–Ω–∏–∫–∞—Ü–∏–æ–Ω–Ω—ã–π –ê–ª—å—è–Ω—Å,['–£–∫—Ä–∞—ó–Ω–∞'],50.43454673580461,30.501584795027167,97,0,3,131,0,0,['4bf58dd8d48988d125941735'],['Tech Startup'],0
553e1e68498e2e14d73cc4bf,Adtena office - online platform for Wi-Fi advertising,"['–ì–∞–π–¥–∞—Ä–∞ 58/10', '–ö–∏—ó–≤', '–£–∫—Ä–∞—ó–Ω–∞']",50.43442916870117,30.501646041870117,76,0,6,92,0,0,['52e81612bcbc57f1066b7a3d'],['Advertising Agency'],0
56348bfa498eaa6c5acb98be,–ì–ª–∞–≤–Ω—ã–π –û—Ñ–∏—Å BeeLUREüíé,"['–£–ª. –ì–∞–π–¥–∞—Ä–∞ 54–∞', '–ö–∏—ó–≤', '–£–∫—Ä–∞—ó–Ω–∞']",50.43432586680029,30.501514514302777,1,0,1,1,0,0,['4bf58dd8d48988d124941735'],['Office'],0
4fc87da8e4b09a4f3140a081,Navigator,"['–≤—É–ª. –ì–∞–π–¥–∞—Ä–∞, 58/10', '–ö–∏—ó–≤', '–£–∫—Ä–∞—ó–Ω–∞']",50.434616252656596,30.50156593322754,86,0,14,89,0,0,['4bf58dd8d48988d124941735'],['Office'],0
4e8aab9f49018e0360d2c576,Newsfront PR Agency,"['–≤—É–ª. –ì–∞–π–¥–∞—Ä–∞ 58/10 (–≤—É–ª. –Ü–ª–ª—ñ –ï—Ä–µ–Ω–±—É—Ä–≥–∞)', '–ö–∏—ó–≤', '–£–∫—Ä–∞—ó–Ω–∞']",50.43434031519639,30.501483790997458,1149,1,223,1402,11,0,['4bf58dd8d48988d124941735'],['Office'],0
5357598211d2e8d0791f53a2,–ú–∞–≥–Ω–æ–ª–∏—è–¢–í,"['–ì–∞–π–¥–∞—Ä–∞ 58/10', '–ö–∏—ó–≤', '–£–∫—Ä–∞—ó–Ω–∞']",50.4345178567485,30.50188524181159,283,0,31,294,0,0,['52e81612bcbc57f1066b7a31'],['TV Station'],0
52a826a011d2bfa5b570786b,UMH Digital,['–£–∫—Ä–∞—ó–Ω–∞'],50.43468300980238,30.502125595335567,16,0,9,16,0,0,['5032764e91d4c4b30a586d5a'],['Campaign Office'],0
528b23e1498e1f5e05cc8bed,CallWay & ODS Office,"['–ñ–∏–ª—è–Ω—Å—å–∫–∞ 47–¥', '–ö–∏—ó–≤', '–£–∫—Ä–∞—ó–Ω–∞']",50.43579775764386,30.502816698073595,1447,4,531,2165,6,0,['4bf58dd8d48988d125941735'],['Tech Startup'],0
51837204498e578a4639327f,–†–µ–∑–µ–¥–µ–Ω—Ü–∏—è –ø–æ—Å–ª–∞ –°–∏—Ä–∏–π—Å–∫–æ –ê—Ä–∞–±—Å–∫–æ–π —Ä–µ—Å–ø—É–±–ª–∏–∫–∏,"['–î—Ä—É–∂–Ω—è 5', '–ö–∏—ó–≤', '–£–∫—Ä–∞—ó–Ω–∞']",50.434740404490014,30.501923315570508,28,0,7,28,0,0,['4d954b06a243a5684965b473'],['Residential Building (Apartment / Condo)'],0
57582a62498e46de2bb6c84e,GolfPoint,"['–ì–∞–π–¥–∞—Ä–∞ 58/10 (–≠—Ä–µ–Ω–±—É—Ä–≥–∞)', '–ö–∏—ó–≤', '–£–∫—Ä–∞—ó–Ω–∞']",50.434658,30.501865,5,0,4,5,1,0,['52e81612bcbc57f1066b79eb'],['Mini Golf'],0
4e524e3d483bf6d4ed356126,UMG (Universal Media Group),"['–≤—É–ª. –ì–∞–π–¥–∞—Ä–∞, 58/10', '–ö–∏—ó–≤, 01032', '–£–∫—Ä–∞—ó–Ω–∞']",50.434513745219206,30.50201654434204,337,0,30,344,3,0,['4bf58dd8d48988d124941735'],['Office'],0
55c9cbc4498e447a60307576,The Sovok,"['–ì–∞–π–¥–∞—Ä–∞ 54', '–ö–∏—ó–≤', '–£–∫—Ä–∞—ó–Ω–∞']",50.434803,30.501491,171,3,17,180,3,5.5,"['4bf58dd8d48988d128941735', '52e81612bcbc57f1066b79f1']","['Cafeteria', 'Bistro']",8
4e2848db18a83a1362304d29,–ö–∏–µ–≤—Å–∫–∏–π –ì–æ—Ä–æ–¥—Å–∫–æ–π –¶–µ–Ω—Ç—Ä –ó–∞–Ω—è—Ç–æ—Å—Ç–∏,"['–ñ–∏–ª—è–Ω—Å–∫–∞—è 47-–±', '–£–∫—Ä–∞—ó–Ω–∞']",50.435258925141646,30.50191729229123,536,3,225,709,7,0,['4d4b7105d754a06375d81259'],['Professional & Other Places'],0
509bc231e4b0e8d7a6c6257c,"–¢–≤–æ—Ä—á–µ—Å–∫–∏–π —Ü–µ–Ω—Ç—Ä ""–ë–∞–±—É—à–∫–∏–Ω —Å—É–Ω–¥—É—á–æ–∫""",['–£–∫—Ä–∞—ó–Ω–∞'],50.43568626252447,30.50184877573084,20,1,3,20,2,0,['4bf58dd8d48988d127951735'],['Arts & Crafts Store'],0
56388584cd10dd089b5f70d6,Masterdata,"['—É–ª. –ì–∞–π–¥–∞—Ä–∞ 58/10', '–ö–∏—ó–≤', '–£–∫—Ä–∞—ó–Ω–∞']",50.434874963535215,30.501558125850543,140,1,24,166,1,0,['52f2ab2ebcbc57f1066b8b36'],['IT Services'],0
57135f73498e9f6673f948f7,"–ê–≤—Ç–æ–º–∏–π–∫–∞ ""–ü–µ–Ω–∞""",['–£–∫—Ä–∞—ó–Ω–∞'],50.434944,30.502213,71,1,26,93,2,0,['4f04ae1f2fb6e1c99f3db0ba'],['Car Wash'],0
52c11e42498e53fee098e694,Customertimes Corp.,"['—É–ª. –ì–∞–π–¥–∞—Ä–∞ 58/10, 5 —ç—Ç–∞–∂', '–ö–∏—ó–≤', '–£–∫—Ä–∞—ó–Ω–∞']",50.43453642911106,30.501651195113602,1756,1,398,2725,13,0,['4bf58dd8d48988d125941735'],['Tech Startup'],0
551e32c0498ee22d17927d3d,E-Souvenir,"['Gaydara str, 52', '–ö–∏—ó–≤', '–£–∫—Ä–∞—ó–Ω–∞']",50.435108216659,30.501251130527333,65,0,14,79,0,0,['52e81612bcbc57f1066b7a3d'],['Advertising Agency'],0
556b676b498e7fd152988098,"–ë–∞–∑–∞ –æ—Ç–¥—ã—Ö–∞ ""–í–∏—à–µ–Ω–∫–∏""",['–£–∫—Ä–∞—ó–Ω–∞'],50.43510198656776,30.500600213333062,5,0,5,5,0,0,['4bf58dd8d48988d1e0941735'],['Harbor / Marina'],0
53bd9ecc498e506ba7214b3a,Kadam Group kadam.ru,"['–ì–∞–π–¥–∞—Ä–∞ 54–∞', '–ö–∏—ó–≤', '–£–∫—Ä–∞—ó–Ω–∞']",50.434831604781685,30.50121032739934,195,0,69,299,1,0,['4bf58dd8d48988d124941735'],['Office'],0
516546efe4b0e78537134450,–°–æ–ª–æ–º–µ–Ω—Å–∫–∏–π –¶–µ–Ω—Ç—Ä –ó–∞–Ω—è—Ç–æ—Å—Ç–∏,"['–ì–∞–π–¥–∞—Ä–∞ 50', '–£–∫—Ä–∞—ó–Ω–∞']",50.43546119975415,30.50110803777568,15,0,13,16,0,0,['4bf58dd8d48988d12a941735'],['Capitol Building'],0
4ce24a717e2e236a6adf941b,tochka.net,"['–≤—É–ª. –ì–∞–π–¥–∞—Ä–∞, 50', '–ö–∏—ó–≤', '–£–∫—Ä–∞—ó–Ω–∞']",50.43572540909328,30.500519319949852,2863,6,233,2926,8,0,['4bf58dd8d48988d124941735'],['Office'],0
515857e1e4b0ac34474b687a,–ü–µ—Ä–µ—É–ª–æ–∫ –ì–æ—Å–ø–∏—Ç–∞–ª—å–Ω—ã–π,"['–ø–µ—Ä. –ì–æ—Å–ø–∏—Ç–∞–ª—å–Ω—ã–π', '–ö–∏—ó–≤', '–£–∫—Ä–∞—ó–Ω–∞']",50.43525860111913,30.50166905132067,8,0,7,8,0,0,['4bf58dd8d48988d1f9931735'],['Road'],0
5538c891498e35c717341d99,COFFEBUS,"['–ì–∞–π–¥–∞—Ä–∞ 52', '–ö–∏—ó–≤', '–£–∫—Ä–∞—ó–Ω–∞']",50.43529813009632,30.50130648110877,5,0,5,5,0,0,['4bf58dd8d48988d1e0931735'],['Coffee Shop'],0
4fa7a593e4b00f7196ae0bcb,Office Solutions UA,['–£–∫—Ä–∞—ó–Ω–∞'],50.43475110388324,30.50083977475024,17,0,6,17,0,0,['4bf58dd8d48988d124941735'],['Office'],0
50f54ae6e4b075cdef97dd76,Mirohost.net,"['–ì–∞–π–¥–∞—Ä–∞, 50', '–ö–∏—ó–≤, 01033', '–£–∫—Ä–∞—ó–Ω–∞']",50.43559742117203,30.500601342200824,371,0,22,400,2,0,['4bf58dd8d48988d124941735'],['Office'],0
51499de9e4b02071f40f8c77,Directory films,"['Nizhneyurkovska 45a', '–ö–∏—ó–≤, 01033', '–£–∫—Ä–∞—ó–Ω–∞']",50.43475317554993,30.500982309443966,12,0,7,12,0,0,['4bf58dd8d48988d124941735'],['Office'],0
503f4209e4b0cb197cd6ae05,–°–º–∞—á–Ω–µ –úi—Å—Ç–µ—á–∫–æ,"['–ì–∞–π–¥–∞—Ä–∞', '–ö–∏—ó–≤', '–£–∫—Ä–∞—ó–Ω–∞']",50.43486462023617,30.501527402115443,730,10,215,955,1,4.7,"['4bf58dd8d48988d147941735', '4bf58dd8d48988d1a1941735']","['Diner', 'College Cafeteria']",13
4e6a36cdb0fb8b8a8417f88b,Seta Decor,['–£–∫—Ä–∞—ó–Ω–∞'],50.435459103389974,30.500884554138523,40,0,25,40,0,0,['4bf58dd8d48988d128951735'],['Gift Shop'],0
51b738ff498e2b16119aad0f,–î–∏—Ä–µ–∫—Ç–æ—Ä–∏—è –∫–∏–Ω–æ,"['–£–ª. –ì–∞–π–¥–∞—Ä–∞, 54-–ê', '–ö–∏—ó–≤', '–£–∫—Ä–∞—ó–Ω–∞']",50.434627532958984,30.50112533569336,2,0,2,2,0,0,['4bf58dd8d48988d124941735'],['Office'],0
552cbb1e498ea240c947e69f,Oll.tv,"['–ì–∞–π–¥–∞—Ä–∞, 50', '–ö–∏—ó–≤', '–£–∫—Ä–∞—ó–Ω–∞']",50.435768759770326,30.50061821249976,222,0,21,235,3,0,['4bf58dd8d48988d124941735'],['Office'],0
5050739ae4b052774b8afe23,Renault Ukraine,"['–ì–∞–π–¥–∞—Ä–∞,50', '–ö–∏—ó–≤', '–£–∫—Ä–∞—ó–Ω–∞']",50.434959563138534,30.501368829950632,119,0,51,136,1,0,['5032764e91d4c4b30a586d5a'],['Campaign Office'],0
54e5cd7c498e750b0dc7eba3,–ö–æ—Ñ–µ–π–±—É—Å The Beatles,"['–ö–∏—ó–≤', '–£–∫—Ä–∞—ó–Ω–∞']",50.43545088923303,30.501250159020863,505,2,269,874,14,6.2,['4bf58dd8d48988d1e0931735'],['Coffee Shop'],22
4e00442f6365ba98ee3312e2,Imena.UA,"['–≤—É–ª. –ì–∞–π–¥–∞—Ä–∞, 50', '–ö–∏—ó–≤', '–£–∫—Ä–∞—ó–Ω–∞']",50.435861677614284,30.500750111305628,1396,3,180,1440,8,0,['4bf58dd8d48988d124941735'],['Office'],0
54579880498e92cebaf8ca56,MONSTRA,"['–£–ª. –ì–∞–π–¥–∞—Ä–∞ 54–∞', '–ö–∏—ó–≤', '–£–∫—Ä–∞—ó–Ω–∞']",50.434918,30.501504,24,0,9,26,0,0,['4bf58dd8d48988d1f4941735'],['Design Studio'],0
4df876ce88778675b5489377,TNS Ukraine,"['–≤—É–ª. –ì–∞–π–¥–∞—Ä–∞, 54–∞', '–ö–∏—ó–≤', '–£–∫—Ä–∞—ó–Ω–∞']",50.434751108205674,30.501521376031423,297,0,113,365,1,0,['4bf58dd8d48988d124941735'],['Office'],0
500e4bbfe4b031973e80b32a,–†–µ–∫–ª–∞–º–Ω–æ–µ –∏–Ω—Ç–µ—Ä–Ω–µ—Ç-–∞–≥–µ–Ω—Ç—Å—Ç–≤–æ MI-6,"['–≤—É–ª. –ì–∞–π–¥–∞—Ä–∞, 50', '–ö–∏—ó–≤, 01033', '–£–∫—Ä–∞—ó–Ω–∞']",50.435696504835,30.500565909537976,1503,4,45,1597,2,0,['52e81612bcbc57f1066b7a3d'],['Advertising Agency'],0
50bc6718e4b03e84dc2affdd,–ö–æ—Ñ–µ–π–Ω—ã–π –î–æ–º–∏–∫,"['–ì–∞–π–¥–∞—Ä–∞, 50', '–ö–∏—ó–≤', '–£–∫—Ä–∞—ó–Ω–∞']",50.435811,30.500773,158,4,13,158,2,0,['4bf58dd8d48988d1e0931735'],['Coffee Shop'],0
50c5993ae4b0bd0f6551ff6b,–†–µ–Ω–æ –£–∫—Ä–∞–∏–Ω–∞,"['–ì–∞–π–¥–∞—Ä–∞ 51', '–ö–∏—ó–≤', '–£–∫—Ä–∞—ó–Ω–∞']",50.43516602601621,30.501536929656258,86,0,28,101,1,0,['4bf58dd8d48988d124941735'],['Office'],0
563a00b3cd101fc973aec282,–Ñ–≤—Ä–æ–ø–∞—Å–∞–∂,"['–≤—É–ª. –ì–∞–π–¥–∞—Ä–∞, 58/10', '–ö–∏—ó–≤, 01033', '–£–∫—Ä–∞—ó–Ω–∞']",50.43571922543324,30.500763694609105,245,2,109,352,2,0,['56aa371be4b08b9a8d573517'],['Business Center'],0
58eb4d0e109dfe0a747f5455,Aviacontact,"['–ö–∏—ó–≤', '–£–∫—Ä–∞—ó–Ω–∞']",50.435705,30.500878,14,0,1,22,0,0,"['4f04b08c2fb6e1c99f3db0bd', '56aa371be4b08b9a8d573517']","['Travel Agency', 'Business Center']",0
55e4367b498e8cb6d8ba37a9,Coffee Life,"['–≤—É–ª. –ì–∞–π–¥–∞—Ä–∞, 58/10', '–ö–∏—ó–≤', '–£–∫—Ä–∞—ó–Ω–∞']",50.43494309366273,30.5020378316692,313,6,172,421,12,6.2,['4bf58dd8d48988d1e0931735'],['Coffee Shop'],25
50975f8de4b0f94e05c17c6e,"""–ï–≤—Ä–æ—Å—É–≤–µ–Ω–∏—Ä"",  –û–û–û / Eurosouvenir Ltd.","['–ì–∞–π–¥–∞—Ä–∞ 52', '–ö–∏—ó–≤, 01033', '–£–∫—Ä–∞—ó–Ω–∞']",50.43555200039479,30.50070030790855,2241,0,184,2496,7,0,['4bf58dd8d48988d124941735'],['Office'],0
56335cf9498ec143046a708b,–°–º–∞—á–Ω–æ,['–£–∫—Ä–∞—ó–Ω–∞'],50.434744927040555,30.50171905348733,213,1,78,333,0,0,['52e81612bcbc57f1066b79f4'],['Buffet'],0
559e31f9498ee47a263eb727,Dentsu Aegis Network Ukraine,"['–ì–∞–π–¥–∞—Ä–∞ 58/10', '–£–∫—Ä–∞—ó–Ω–∞']",50.43482336689836,30.501794182576344,723,0,144,942,2,0,['4bf58dd8d48988d124941735'],['Office'],0
56498a10498e42030f3387cd,"–Æ—Ä–∏–¥–∏—á–µ—Å–∫–∞—è —Ñ–∏—Ä–º–∞ ""–ü—Ä–∞–≤–æ–≤–µ—Å—Ç""","['–ì–∞–π–¥–∞—Ä–∞ 58/10', '–ö–∏—ó–≤', '–£–∫—Ä–∞—ó–Ω–∞']",50.42358424460409,30.515977104792654,6,4,4,6,4,0,['52f2ab2ebcbc57f1066b8b3f'],['Lawyer'],0
54c2218a498e0337aea780b8,Newprint,"['—É–ª–∏—Ü–∞ –ò–ª—å–∏ –≠—Ä–µ–Ω–±—É—Ä–≥–∞, 3–∞', '–ö–∏—ó–≤, 01033', '–£–∫—Ä–∞—ó–Ω–∞']",50.434028540337174,30.50274610519409,28,0,12,51,1,0,['4bf58dd8d48988d1f4941735'],['Design Studio'],0
51a89e66498e093854f892c4,Melius Studio,['–£–∫—Ä–∞—ó–Ω–∞'],50.43403897014806,30.502515983351646,120,7,73,131,7,7.3,['4eb1bdde3b7b55596b4a7490'],['Photography Lab'],10
51b73577498efeebb56de572,–û–û–û –£–∫—Ä–∞–∏–Ω—Å–∫–∞—è –ë—É–º–∞–∂–Ω–∞—è –ö–æ–º–ø–∞–Ω–∏—è,"['–ò.–≠—Ä–µ–Ω–±—É—Ä–≥–∞, 3–ê', '–ö–∏—ó–≤', '–£–∫—Ä–∞—ó–Ω–∞']",50.434146333762,30.502956599403298,28,0,9,28,1,0,['4bf58dd8d48988d124941735'],['Office'],0
51ac360a498e943d54ff545b,—Ö—É—Ç—Ä–æ—Å–∏—Ä–æ–≤–∏–Ω–Ω–∞ –±–∞–∑–∞,"['–≠—Ä–µ–Ω–±—É—Ä–≥–∞', '–ö–∏—ó–≤', '–£–∫—Ä–∞—ó–Ω–∞']",50.433939870769954,30.501945293809925,6,0,6,6,0,0,['4bf58dd8d48988d124941735'],['Office'],0
4f705088e4b0ad1af70b36e4,QUBE Integrated Communication Agency,"['–ì–∞–π–¥–∞—Ä–∞ 58/10', '–ö–∏—ó–≤', '–£–∫—Ä–∞—ó–Ω–∞']",50.43462522840618,30.501905054787713,473,0,58,506,1,0,['4bf58dd8d48988d174941735'],['Coworking Space'],0
55a36f59498e1d7b3adc68ca,AITI/Carat,"['—É–ª. –ì–∞–π–¥–∞—Ä–∞, 58/10', '–ö–∏—ó–≤, 01033', '–£–∫—Ä–∞—ó–Ω–∞']",50.43456158205093,30.50203800201416,29,0,10,30,0,0,['52e81612bcbc57f1066b7a3d'],['Advertising Agency'],0
58fdf583646e380af66e09c1,Urban Yoga Kyiv,"['58 –ì–∞–π–¥–∞—Ä–∞ –≤—É–ª–∏—Ü—è', '–ö–∏—ó–≤', '–£–∫—Ä–∞—ó–Ω–∞']",50.434609,30.501952,4,0,1,4,2,0,"['4bf58dd8d48988d102941735', '4f4528bc4b90abdf24c9de85', '52e81612bcbc57f1066b7a2e']","['Yoga Studio', 'Athletics & Sports', 'Sports Club']",0
55a60e87498e0d0264e837d6,–°–ø–µ—Ü–°—Ç–∏–ª—å –£–∫—Ä–∞–∏–Ω–∞,['–£–∫—Ä–∞—ó–Ω–∞'],50.43397705416716,30.502789893917985,316,0,112,579,1,0,['4eb1bea83b7b6f98df247e06'],['Factory'],0
5523fec8498e79d40bce67d4,IGTex,"['–£–ª. –ì–∞–π–¥–∞—Ä–∞ 58/10', '–ö–∏—ó–≤', '–£–∫—Ä–∞—ó–Ω–∞']",50.434548816988546,30.50181801178174,770,3,193,1073,11,6.5,['4bf58dd8d48988d175941735'],['Gym / Fitness Center'],17
503e3d5ce4b070dfe7a51cef,Master Ad,"['—É–ª. –ì–∞–π–¥–∞—Ä–∞, 58/10, 2 —ç—Ç–∞–∂', '–ö–∏—ó–≤, 01033', '–£–∫—Ä–∞—ó–Ω–∞']",50.43467681181044,30.501629962858615,238,0,18,244,2,0,['4bf58dd8d48988d124941735'],['Office'],0
58624ba351666a7a0413355f,Integral Coffee,"['–ò–ª—å–∏ –≠—Ä–µ–Ω–±—É—Ä–≥–∞ 5', '–ö–∏—ó–≤', '–£–∫—Ä–∞—ó–Ω–∞']",50.434462,30.502366,48,1,15,49,2,0,['4bf58dd8d48988d1e0931735'],['Coffee Shop'],0
4f155ea5e4b0297e5a1941d7,UMH Digital Kitchen,"['–ì–∞–π–¥–∞—Ä–∞, 50', '–ö–∏—ó–≤, 01033', '–£–∫—Ä–∞—ó–Ω–∞']",50.435686172435574,30.500426386184518,851,2,76,861,3,0,['4bf58dd8d48988d128941735'],['Cafeteria'],0
5028a454e4b098a562531d83,bigmir)net,"['–ì–∞–π–¥–∞—Ä–∞, 50', '–£–∫—Ä–∞—ó–Ω–∞']",50.435757,30.500511,925,1,99,991,7,0,['4bf58dd8d48988d124941735'],['Office'],0
512c64a4e4b0510e3023cfe7,–í—É–ª–∏—Ü—è –ì–∞–π–¥–∞—Ä–∞,"['–í—É–ª. –ì–∞–π–¥–∞—Ä–∞', '–ö–∏—ó–≤', '–£–∫—Ä–∞—ó–Ω–∞']",50.435723344134736,30.500489035660433,364,0,55,377,3,0,['4bf58dd8d48988d1f9931735'],['Road'],0
514af7c1e4b02d81ddf22c0d,Newtelco Datacenter,"['–ì–∞–π–¥–∞—Ä–∞ 50', '–ö–∏—ó–≤', '–£–∫—Ä–∞—ó–Ω–∞']",50.43577798810115,30.500214099884033,32,0,12,38,0,0,['4bf58dd8d48988d125941735'],['Tech Startup'],0
514813bce4b03dfb4837c5bd,"–¢—é–Ω–∏–Ω–≥-–∞—Ç–µ–ª—å–µ ""Garage 13""",['–£–∫—Ä–∞—ó–Ω–∞'],50.43419774595906,30.499521617929613,157,1,46,178,0,0,['52f2ab2ebcbc57f1066b8b44'],['Auto Garage'],0
4fe9a64ee4b0acc4d930722e,–ü–µ—Ä–µ–≥–æ–≤–æ—Ä–∫–∞ London,['–£–∫—Ä–∞—ó–Ω–∞'],50.43568823851528,30.500457699231944,9,0,6,9,0,0,['4bf58dd8d48988d124941735'],['Office'],0
4bf2834155c7c9b6ee266204,UMH Digital,"['–≤—É–ª. –ì–∞–π–¥–∞—Ä–∞, 50 (–≤—É–ª. –Ü–ª–ª—ñ –ï—Ä–µ–Ω–±—É—Ä–≥–∞)', '–ö–∏—ó–≤, 01033', '–£–∫—Ä–∞—ó–Ω–∞']",50.435661453313664,30.50036594249537,4175,3,598,5070,9,0,['4bf58dd8d48988d124941735'],['Office'],0
575fc6a8498ee81f770f2a4c,D2,['–£–∫—Ä–∞—ó–Ω–∞'],50.435593,30.500464,36,0,5,36,0,0,"['52f2ab2ebcbc57f1066b8b36', '4bf58dd8d48988d125941735']","['IT Services', 'Tech Startup']",0
4f54990ee4b0bf6b5f7c0735,Digital Screens,"['–≤—É–ª. –ì–∞–π–¥–∞—Ä–∞, 50', '–ö–∏—ó–≤, 01033', '–£–∫—Ä–∞—ó–Ω–∞']",50.43574811638972,30.500469787980013,2612,0,289,3101,8,0,['4bf58dd8d48988d125941735'],['Tech Startup'],0
5791c3ba498e9b4270885351,AdPro Ukraine,"['–ö–∏—ó–≤', '–£–∫—Ä–∞—ó–Ω–∞']",50.435944,30.500277,179,0,7,181,0,0,['4bf58dd8d48988d124941735'],['Office'],0
4e18777d636529dcc13aba5a,AdPro,"['–≤—É–ª. –ì–∞–π–¥–∞—Ä–∞, 58/10', '–ö–∏—ó–≤, 04655', '–£–∫—Ä–∞—ó–Ω–∞']",50.435599446124364,30.499998328292754,4056,4,1069,6266,19,0,['52e81612bcbc57f1066b7a3d'],['Advertising Agency'],0
570d0f95498ed962caefbf27,–Ω–µ–º–µ–π–∫–∏–π —É –í–∞–ª–µ—Ä–∏–≤–Ω—ã,['–£–∫—Ä–∞—ó–Ω–∞'],50.436062,30.503543,1,0,1,1,0,0,['4bf58dd8d48988d130941735'],['Building'],0
51b04ce0498effcddf9c5c75,–ë—é—Ä–æ –†–µ–∫–ª–∞–º–Ω—ã—Ö –¢–µ—Ö–Ω–æ–ª–æ–≥–∏–π,"['–í–∞—Å–∏–ª–∏—è –Ø–Ω–∞ 3/5', '–ö–∏—ó–≤', '–£–∫—Ä–∞—ó–Ω–∞']",50.436782406401214,30.50412270599687,12,0,7,12,0,0,['52e81612bcbc57f1066b7a3d'],['Advertising Agency'],0
51f1a32c498e23e422263d36,Anka's Home,"['–ñ–∏–ª—è–Ω—Å–∫–∞—è 62/64', '–ö–∏—ó–≤', '–£–∫—Ä–∞—ó–Ω–∞']",50.43588241674762,30.503985807972093,21,0,3,21,0,0,"['4d954b06a243a5684965b473', '4bf58dd8d48988d103941735']","['Residential Building (Apartment / Condo)', 'Home (private)']",0
52b97b52498e4df00c7a41b9,Happy Smile,"['68 (–∂–∏–ª—è–Ω—Å–∫–∞—è)', '–£–∫—Ä–∞—ó–Ω–∞']",50.436476923111954,30.503192518309394,16,4,23,42,1,0,['4bf58dd8d48988d1ff941735'],['Miscellaneous Shop'],0
4e70c66c52b140871b6103c7,Listelli,"['–≤—É–ª. –ñ–∏–ª—è–Ω—Å—å–∫–∞, 68', '–ö–∏—ó–≤', '–£–∫—Ä–∞—ó–Ω–∞']",50.43635925299032,30.50315625052656,58,0,15,59,0,0,['5454144b498ec1f095bff2f2'],['Construction & Landscaping'],0
4d5fbe2cef378cfa70aa73a6,–¶–µ–Ω—Ç—Ä –°–∞–º–æ—Ä–∞–∑–≤–∏—Ç–∏—è –ß–µ–ª–æ–≤–µ–∫–∞,"['—É–ª. –ñ–∏–ª—è–Ω—Å–∫–∞—è, 72–ê', '–ö–∏—ó–≤', '–£–∫—Ä–∞—ó–Ω–∞']",50.43685427637997,30.503253042697906,28,1,14,33,1,0,['4bf58dd8d48988d171941735'],['Event Space'],0
51b97540498e8094100d5247,Legal Eagles,['–£–∫—Ä–∞—ó–Ω–∞'],50.436963,30.503113,27,0,7,39,0,0,['4bf58dd8d48988d124941735'],['Office'],0
532164a9498e16dc99aca68b,EpsySoft,"['–ñ–∏–ª—è–Ω—Å–∫–∞—è 72–∞', '–ö–∏—ó–≤', '–£–∫—Ä–∞—ó–Ω–∞']",50.43706,30.503028,390,0,140,731,2,0,['4bf58dd8d48988d125941735'],['Tech Startup'],0
5209231111d2118d50f8c3a5,GradR Production,['–£–∫—Ä–∞—ó–Ω–∞'],50.436504,30.503766,2,0,1,2,0,0,['4bf58dd8d48988d124941735'],['Office'],0
5136390ae4b05e24f6548b84,–∫—É–ø–∏–¥–æ–Ω,"['–£–ª. –ü—Ä–æ—Ç–∞—Å–æ–≤ –Ø—Ä, 3', '–ö–∏—ó–≤', '–£–∫—Ä–∞—ó–Ω–∞']",50.43641680769546,30.503720581106982,4,1,3,4,0,0,['4bf58dd8d48988d1f8931735'],['Bed & Breakfast'],0
565431a0498e63f6ca090972,–∫–∞—Ñ–µ–¥—Ä–∞ –º–æ–ª–æ–∫–∞,['–£–∫—Ä–∞—ó–Ω–∞'],50.4369950858375,30.503971842847406,2,0,1,2,0,0,['4bf58dd8d48988d1af941735'],['College Auditorium'],0
5052f4dce4b084591458d02b,–°–ø–æ—Ä—Ç–∏–≤–Ω–∞—è —Ä—ã–±–∞–ª–∫–∞,['–£–∫—Ä–∞—ó–Ω–∞'],50.436017,30.503701,2,0,2,2,0,0,['4bf58dd8d48988d1fb941735'],['Hobby Shop'],0
523475e011d27fbab58389ed,"–ê–π–∫–∏–∫–∞–º–∏, –§–æ–Ω–¥ –ê–π–∫–∏–¥–æ","['–ñ–∏–ª—è–Ω—Å–∫–∞—è 68', '–£–∫—Ä–∞—ó–Ω–∞']",50.436495500975056,30.503506603868203,40,1,31,48,3,0,['4bf58dd8d48988d101941735'],['Martial Arts Dojo'],0
50294725e4b0e4d9613991e1,manhattan,"['–∂–∏–ª—è–Ω—Å–∫–∞—è 68', '–£–∫—Ä–∞—ó–Ω–∞']",50.43642944232666,30.503188154268553,60,1,12,70,1,0,['4bf58dd8d48988d1f4941735'],['Design Studio'],0
52bd2259498e4aaf2410d942,–ê–π –ö–∏ –ö–∞–º–∏,"['–ñ–∏–ª—è–Ω—Å–∫–∞—è, 68', '–ö–∏—ó–≤', '–£–∫—Ä–∞—ó–Ω–∞']",50.43636132556497,30.503379517644163,336,0,116,451,14,7.5,['4bf58dd8d48988d101941735'],['Martial Arts Dojo'],16
4c2dd4d3e760c9b65a734549,–®–≤–µ–π–Ω–∞—è –º–∞—Å—Ç–µ—Ä—Å–∫–∞—è,"['–ñ–∏–ª—è–Ω—Å–∫–∞—è 70', '–ö–∏—ó–≤', '–£–∫—Ä–∞—ó–Ω–∞']",50.436406680099765,30.503153800964355,16,0,6,16,0,0,['4bf58dd8d48988d1f4941735'],['Design Studio'],0
4fd20724e4b0d64ed83ecf85,Ango,['–£–∫—Ä–∞—ó–Ω–∞'],50.4365119934082,30.50362205505371,5,0,3,5,0,0,['4bf58dd8d48988d1f4941735'],['Design Studio'],0
564b7b83498e3e535ddc8098,–ê—Å—Å–æ—Ü–∏–∞—Ü–∏—è –∏–Ω—Ç–µ—Ä–Ω–µ—Ç –ü—Ä–µ–¥–ø—Ä–∏–Ω–∏–º–∞—Ç–µ–ª–µ–π,"['–ñ–∏–ª—è–Ω—Å–∫–∞—è 72–∞', '–ö–∏—ó–≤', '–£–∫—Ä–∞—ó–Ω–∞']",50.43705749511719,30.503154754638672,9,0,4,17,0,0,['50328a8e91d4c4b30a586d6c'],['Non-Profit'],0
5377351d498e52706d3cb0a3,–°–∞–º—à–∏—Ç,"['–ñ–∏–ª—è–Ω—Å–∫–∞—è, 68', '–ö–∏—ó–≤', '–£–∫—Ä–∞—ó–Ω–∞']",50.43702393911013,30.503412188102665,18,1,18,18,1,0,['4bf58dd8d48988d1c4941735'],['Restaurant'],0
57220343498e1a1775432e36,–ª–æ–≥–æ–≤–æ –ª–µ–¥–∏ —Ö—É–Ω–¥,['–£–∫—Ä–∞—ó–Ω–∞'],50.436138,30.503214,2,0,1,2,0,0,['4bf58dd8d48988d120941735'],['Karaoke Bar'],0
50be2e70e4b02abe7fb6c1f2,–¢—Ä–∏ –ú–∞—Å—Ç–µ—Ä–∞,['–£–∫—Ä–∞—ó–Ω–∞'],50.436529,30.503426,17,0,5,17,0,0,['5032781d91d4c4b30a586d5b'],['Tailor Shop'],0
5437acd8498ed351142f1370,"–í–æ–ª–æ–Ω—Ç–µ—Ä—ã ""–ù–∞—Ä–æ–¥–Ω–æ–≥–æ —Ç—ã–ª–∞""","['–ñ–∏–ª—è–Ω—Å–∫–∞—è 68', '–ö–∏—ó–≤', '–£–∫—Ä–∞—ó–Ω–∞']",50.43664000392537,30.503543697535946,18,0,8,21,0,0,['52e81612bcbc57f1066b7a36'],['Warehouse'],0
54311b8f498e75861f372686,–ú–∞–≥–∞–∑–∏–Ω –∫–æ–º—Ñ–æ—Ä—Ç–Ω–æ–≥–æ –≤–∑—É—Ç—Ç—è,"['–ñ–∏–ª—è–Ω—Å—å–∫–∞, 68', '–£–∫—Ä–∞—ó–Ω–∞']",50.43624366400111,30.50372886971068,1,0,1,1,0,0,['4bf58dd8d48988d107951735'],['Shoe Store'],0
53afce2f498e241b0abf9189,–ñ–∏–ª—è–Ω—Å–∫–∞—è 62/64,['–£–∫—Ä–∞—ó–Ω–∞'],50.43606407296186,30.50372002257583,89,2,4,91,1,0,"['4f2a210c4b9023bd5841ed28', '4bf58dd8d48988d103941735']","['Housing Development', 'Home (private)']",0
52f1e421498e9f095e300c84,Self-Defence School,"['Zhylianska, 68', '–ö–∏—ó–≤', '–£–∫—Ä–∞—ó–Ω–∞']",50.43639640361944,30.50341501945358,158,0,16,169,6,0,['4bf58dd8d48988d101941735'],['Martial Arts Dojo'],0
4f51232ce4b0d0be901e2522,Zorro,"['–≤—É–ª. –°–∞–∫—Å–∞–≥–∞–Ω—Å—å–∫–æ–≥–æ, 67', '–ö–∏—ó–≤', '–£–∫—Ä–∞—ó–Ω–∞']",50.43646134857461,30.504140853881836,109,12,72,110,2,4.7,['4bf58dd8d48988d155941735'],['Gastropub'],14
57e53090498ea5b15120ab11,–Ü–Ω—Ç–∞–π–º (–≤—ñ–¥–¥—ñ–ª–µ–Ω–Ω—è #32),"['–ñ–∏–ª—è–Ω—Å—å–∫–∞ 62/64', '–ö–∏—ó–≤', '–£–∫—Ä–∞—ó–Ω–∞']",50.4360740818083,30.5031717382371,3,0,3,3,0,0,['52f2ab2ebcbc57f1066b8b1f'],['Shipping Store'],0
5412e1dc498e2efbb5a4032c,–ù–∞—Ä–æ–¥–Ω–∏–π —Ç–∏–ª,"['–ñ–∏–ª—è–Ω—Å–∫–∞—è 67', '–ö–∏—ó–≤', '–£–∫—Ä–∞—ó–Ω–∞']",50.43648931397806,30.503494927382707,90,0,30,117,1,0,['50328a8e91d4c4b30a586d6c'],['Non-Profit'],0
5583ff47498e4d4b732da3ea,Swiss Dent,"['–≤—É–ª. –ñ–∏–ª—è–Ω—Å—å–∫–∞, 74', '–ö–∏—ó–≤', '–£–∫—Ä–∞—ó–Ω–∞']",50.43707552707431,30.501862963259956,57,0,237,401,1,0,['4bf58dd8d48988d178941735'],"[""Dentist's Office""]",0
5208704211d2ad7f489e157e,–®–æ—É—Ä—É–º Chaicoffski,['–£–∫—Ä–∞—ó–Ω–∞'],50.43643357791437,30.503564927504094,62,0,19,62,0,0,['4bf58dd8d48988d1ff931735'],['Convention Center'],0
4d3822c4b274b1f7b1ade5a3,USP EVENTS,"['—É–ª. –°–∞–∫—Å–∞–≥–∞–Ω—Å–∫–æ–≥–æ, 58, –æ—Ñ. 16', '–ö–∏—ó–≤, 01033', '–£–∫—Ä–∞—ó–Ω–∞']",50.437725882720386,30.505049435591328,34,1,9,34,0,0,['4bf58dd8d48988d124941735'],['Office'],0
531ed4bb498eb81d6cc54f1b,Svoboda_work,"['–£–ª. –°–∞–∫—Å–∞–≥–∞–Ω—Å–∫–æ–≥–æ 58', '–ö–∏—ó–≤', '–£–∫—Ä–∞—ó–Ω–∞']",50.437453384582035,30.505245619235588,48,0,8,50,0,0,['4bf58dd8d48988d124941735'],['Office'],0
53344c98498ea6030f1f38fa,"–ì–æ–ª–æ–≤–Ω–∏–π –æ—Ñ—ñ—Å –í–û ""–°–≤–æ–±–æ–¥–∞""",['–£–∫—Ä–∞—ó–Ω–∞'],50.437686659880605,30.504615613036776,158,0,148,337,2,0,['5032764e91d4c4b30a586d5a'],['Campaign Office'],0
52c9a63a498e1a217269f901,Happy Buddha,"['—É–ª. –°–∞–∫—Å–∞–≥–∞–Ω—Å–∫–æ–≥–æ 69', '–£–∫—Ä–∞—ó–Ω–∞']",50.43720359872188,30.50523630169013,33,1,11,36,1,0,['4f2a210c4b9023bd5841ed28'],['Housing Development'],0
508a1be9e4b0d2cf8a02ae44,–ü—Ä–æ—Å–ø–µ–∫—Ç –ø–æ–±–µ–¥—ã 21,"['–ü—Ä–æ—Å–ø–µ–∫—Ç –ø–æ–±–µ–¥—ã 21', '–£–∫—Ä–∞—ó–Ω–∞']",50.437719687125885,30.504721238057332,35,0,8,35,0,0,['4bf58dd8d48988d1f8931735'],['Bed & Breakfast'],0
5267726811d2eabfcf6e0090,"–¢–û–í ""–¢–û –ë–Ü–ó–ù–ï–°""","['Saksaganskogo str., 54/56', '–ö–∏—ó–≤, 01033', '–£–∫—Ä–∞—ó–Ω–∞']",50.43754421782319,30.50507785126792,59,1,8,69,1,0,['4bf58dd8d48988d125941735'],['Tech Startup'],0
555450b4498e8b5b83acd219,AvesTravel,"['–≤—É–ª. –°–∞–∫—Å–∞–≥–∞–Ω—Å—å–∫–æ–≥–æ, 52–∞', '–ö–∏—ó–≤', '–£–∫—Ä–∞—ó–Ω–∞']",50.43763298323973,30.504694107438013,96,0,136,256,0,0,['4bf58dd8d48988d1f6931735'],['General Travel'],0
56fa4ea2498eef3a711bc7d0,JiST Shop,"['—É–ª. –°–∞–∫—Å–∞–≥–∞–Ω—Å–∫–æ–≥–æ 65', '–ö–∏—ó–≤, 01033', '–£–∫—Ä–∞—ó–Ω–∞']",50.437335716524416,30.50497186713322,10,1,66,78,0,0,['4bf58dd8d48988d104951735'],['Boutique'],0
55a6a01b498e3761fdec4167,–•–ª–µ–±–Ω–æ–µ –º–µ—Å—Ç–æ,"['–≤—É–ª. –°–∞–∫—Å–∞–≥–∞–Ω—Å—å–∫–æ–≥–æ, 58', '–ö–∏—ó–≤', '–£–∫—Ä–∞—ó–Ω–∞']",50.43747609159064,30.505058497745406,91,8,203,251,14,5.8,['4bf58dd8d48988d16a941735'],['Bakery'],28
4decfa76d4c00071b8621942,Ti Amo,"['–≤—É–ª. –°–∞–∫—Å–∞–≥–∞–Ω—Å—å–∫–æ–≥–æ, 58', '–ö–∏—ó–≤', '–£–∫—Ä–∞—ó–Ω–∞']",50.43737081051757,30.50504853808658,19,0,13,19,0,0,['4bf58dd8d48988d108951735'],"[""Women's Store""]",0
4fc4b2c3e4b0441dc09bc4ac,olko,['–£–∫—Ä–∞—ó–Ω–∞'],50.4378641959643,30.5048387212843,39,0,12,39,0,0,['4bf58dd8d48988d104951735'],['Boutique'],0
50f2e47ce4b0c18c98b4c836,–¥–≤–æ—Ä–∏–∫ –≤–∞—Å–∏–ª—å–µ–≤–∞,['–£–∫—Ä–∞—ó–Ω–∞'],50.437405906222686,30.505479048248528,11,0,7,11,0,0,['4bf58dd8d48988d130941735'],['Building'],0
4efdcf2a0e01089c53a6c7a6,LaStrada,"['–≤—É–ª. –°–∞–∫—Å–∞–≥–∞–Ω—Å—å–∫–æ–≥–æ, 69', '–ö–∏—ó–≤', '–£–∫—Ä–∞—ó–Ω–∞']",50.43745544980336,30.50510770334355,81,1,38,81,0,0,['4bf58dd8d48988d104951735'],['Boutique'],0
52412e1b11d23dff42843c81,Lavina Music,['–£–∫—Ä–∞—ó–Ω–∞'],50.437143732183294,30.505142176197474,287,0,125,399,2,0,['4bf58dd8d48988d124941735'],['Office'],0
4eb90c7c30f8d0f18dda5494,–°–∞–ª–æ–Ω –ë–∞–≥–µ—Ç,"['–ö–∏—ó–≤', '–£–∫—Ä–∞—ó–Ω–∞']",50.437292,30.504761,10,0,10,12,0,0,['4bf58dd8d48988d127951735'],['Arts & Crafts Store'],0
50196385e4b0fa241017ef3e,–î–µ—Ç—Å–∫–∞—è –ø–ª–æ—â–∞–¥–∫–∞,"['–≤—É–ª. –°–∞–∫—Å–∞–≥–∞–Ω—Å—å–∫–æ–≥–æ', '–ö–∏—ó–≤', '–£–∫—Ä–∞—ó–Ω–∞']",50.437758908461916,30.504515408341238,22,0,16,22,0,0,['4bf58dd8d48988d1e7941735'],['Playground'],0
5713be6b498e9cb0116f5240,"—É–ª. –°–∞–∫—Å–∞–≥–∞–Ω—Å–∫–æ–≥–æ, 54/56","['–°–∞–∫—Å–∞–≥–∞–Ω—Å–∫–æ–≥–æ, 54/56', '–£–∫—Ä–∞—ó–Ω–∞']",50.437259,30.505223,25,0,27,43,0,0,['4d954b06a243a5684965b473'],['Residential Building (Apartment / Condo)'],0
50ae4e6ee4b00a661b91ea7e,–ö–∞–Ω—Ü—Ç–æ–≤–∞—Ä–∏ ¬´–ì—Ä–∞—Ñ—ñ—Ç¬ª,"['–≤—É–ª. –°–∞–∫—Å–∞–≥–∞–Ω—Å—å–∫–æ–≥–æ, 60–∞', '–ö–∏—ó–≤', '–£–∫—Ä–∞—ó–Ω–∞']",50.4379137337432,30.50434917042434,25,0,19,26,0,0,['4bf58dd8d48988d121951735'],['Paper / Office Supplies Store'],0
58ad720ee9efba2b57ad92a1,–ü—Ä–æ–±–∫–∞ –Ω–∞ –°–∞–∫—Å–∞–≥–∞–Ω—Å–∫–æ–≥–æ,['–£–∫—Ä–∞—ó–Ω–∞'],50.43719,30.505226,5,0,3,5,0,0,['4bf58dd8d48988d1f9931735'],['Road'],0
4f7714dde4b08d570cc816bb,"–≤—É–ª. –°–∞–∫—Å–∞–≥–∞–Ω—Å—å–∫–æ–≥–æ, 60","['–≤—É–ª. –°–∞–∫—Å–∞–≥–∞–Ω—Å—å–∫–æ–≥–æ, 60', '–ö–∏—ó–≤', '–£–∫—Ä–∞—ó–Ω–∞']",50.43773619815665,30.504431260734965,133,0,78,138,1,0,['4d954b06a243a5684965b473'],['Residential Building (Apartment / Condo)'],0
4e9eca916c25364827b2e222,–ü—Ä–µ—Å–∞ –°–æ—é–∑–¥—Ä—É–∫,"['–≤—É–ª. –°–∞–∫—Å–∞–≥–∞–Ω—Å—å–∫–æ–≥–æ', '–ö–∏—ó–≤', '–£–∫—Ä–∞—ó–Ω–∞']",50.43771349402102,30.504988395740103,156,2,74,160,1,0,['4f04ad622fb6e1c99f3db0b9'],['Newsstand'],0
5224ce8111d2bc71abe24e2f,–§—Ä–µ—à Point,['–£–∫—Ä–∞—ó–Ω–∞'],50.43768458910018,30.504361905652168,17,0,12,17,0,0,['4bf58dd8d48988d1d0941735'],['Dessert Shop'],0
5828ef152fea3661eaa74021,LILU EXPERT,"[""Saksahans'koho vulytsya, 60A"", '–ö–∏—ó–≤', '–£–∫—Ä–∞—ó–Ω–∞']",50.437692,30.504738,12,0,5,13,0,0,['4bf58dd8d48988d110951735'],['Salon / Barbershop'],0
520120ce498e47577dacd7f5,–ï–∫–æ-–ª–∞–≤–∫–∞,"['–≤—É–ª. –°–∞–∫—Å–∞–≥–∞–Ω—Å—å–∫–æ–≥–æ, 57', '–ö–∏—ó–≤', '–£–∫—Ä–∞—ó–Ω–∞']",50.43687743000757,30.50607536479807,252,6,157,279,17,7.7,['50aa9e744b90af0d42d5de0e'],['Health Food Store'],23
4ed17fd0775bbb5f34411d83,–°–∞–∫—Å–∞–≥–∞–Ω—Å–∫–æ–≥–æ 58,"['–ö–∏—ó–≤', '–£–∫—Ä–∞—ó–Ω–∞']",50.4373150742574,30.505244618302726,412,1,136,548,0,0,['4d954b06a243a5684965b473'],['Residential Building (Apartment / Condo)'],0
58ca5f94af5c145e297ca563,Cvetaeva CAFE,"['–°–∞–∫—Å–∞–≥–∞–Ω—Å–∫–æ–≥–æ, 58', '–ö–∏—ó–≤', '–£–∫—Ä–∞—ó–Ω–∞']",50.437379,30.505164,28,0,22,42,1,0,['4bf58dd8d48988d11b951735'],['Flower Shop'],0
52efb797498e21cb8c63cea5,–õ–∞–±–æ—Ä–∞—Ç–æ—Ä–∏—è –ø–æ –∫–æ–Ω—Ç—Ä–æ–ª—é –∫–∞—á–µ—Å—Ç–≤–∞ –ª–µ–∫–∞—Ä—Å—Ç–≤–µ–Ω–Ω—ã—Ö —Å—Ä–µ–¥—Å—Ç–≤,"['—É–ª.–ü–æ–ø—É–¥—Ä–µ–Ω–∫–æ, 50', '–£–∫—Ä–∞—ó–Ω–∞']",50.437808990478516,30.5030517578125,2,0,2,2,0,0,['4bf58dd8d48988d130941735'],['Building'],0
52a641d611d2ae60eab754c1,ART Commune,['–£–∫—Ä–∞—ó–Ω–∞'],50.43808712647933,30.503393368747002,19,0,8,20,1,0,['4bf58dd8d48988d1e2931735'],['Art Gallery'],0
5524e51c498e7d4cbadc6ff2,AD|LABS-–£–∫—Ä–∞–∏–Ω–∞,['–£–∫—Ä–∞—ó–Ω–∞'],50.437843322753906,30.50352668762207,1,0,1,1,0,0,['4bf58dd8d48988d130941735'],['Building'],0
5652e00d498e842038a4cff1,GL Office,['–£–∫—Ä–∞—ó–Ω–∞'],50.438127,30.503396,112,0,96,217,0,0,['4bf58dd8d48988d124941735'],['Office'],0
53429077498e29d2135bdd3b,studio Yasya Minochkina,"['–¢–∞—Ä–∞—Å–æ–≤—Å–∫–∞—è, 3–∞', '–ö–∏—ó–≤', '–£–∫—Ä–∞—ó–Ω–∞']",50.43811397580072,30.503971299943757,9,0,10,13,2,0,['507c8c4091d498d9fc8c67a9'],['Public Art'],0
50ff9750e4b0ff892bbc519d,–£–∫—Ä–∞–∏–Ω—Å–∫–∞—è –ê–≥—Ä–∞—Ä–Ω–∞—è –ö–æ–Ω—Ñ–µ–¥–µ—Ä–∞—Ü–∏—è,"['–°–∞–∫—Å–∞–≥–∞–Ω—Å–∫–æ–≥–æ 53', '–ö–∏–µ–≤', '–£–∫—Ä–∞—ó–Ω–∞']",50.437994239957426,30.503945195247997,9,0,7,9,0,0,['50328a8e91d4c4b30a586d6c'],['Non-Profit'],0
56816985498e89ea7824d4f1,"""Tae-Tea""","['–≤—É–ª. –°–∞–∫—Å–∞–≥–∞–Ω—Å—å–∫–æ–≥–æ, 77 (–≤—É–ª. –ü–∞–Ω—å–∫—ñ–≤—Å—å–∫–∞)', '–ö–∏—ó–≤', '–£–∫—Ä–∞—ó–Ω–∞']",50.43794,30.503492,1,0,1,1,0,0,['52f2ab2ebcbc57f1066b8b2f'],['Other Repair Shop'],0
53009260498e3e88e025d6bc,Anna Crew,"['–°–∞–∫—Å–∞–≥–∞–Ω—Å–∫–æ–≥–æ 77', '–ö–∏—ó–≤', '–£–∫—Ä–∞—ó–Ω–∞']",50.437957072850395,30.503540864875564,39,1,31,46,3,0,['4bf58dd8d48988d10c941735'],['French Restaurant'],0
523ac04811d2cf108926d71e,Notarius,['–£–∫—Ä–∞—ó–Ω–∞'],50.43796533558965,30.50377593771778,6,0,1,6,1,0,['4bf58dd8d48988d174941735'],['Coworking Space'],0
52a46ef511d26c8efc4f618b,Ebru Studio,['–£–∫—Ä–∞—ó–Ω–∞'],50.438118092070496,30.503382458208346,9,0,8,11,0,0,['507c8c4091d498d9fc8c67a9'],['Public Art'],0
53df2f68498e17cb7fce94b3,"–°—Ç—Ä–∞—Ö–æ–≤–æ–π –î–æ–º ""–ö—Ä–∏—Å—Ç–æ""",['–£–∫—Ä–∞—ó–Ω–∞'],50.437957763671875,30.503501892089844,1,0,1,1,0,0,"['4bf58dd8d48988d124941735', '4bf58dd8d48988d103941735']","['Office', 'Home (private)']",0
534246f4498ea94402de080d,–£–∫—Ä–∞—ó–Ω—Å—å–∫–∞ –§—ñ–Ω–∞–Ω—Å–æ–≤–∞ –ì—Ä—É–ø–∞,"['–≤—É–ª. –°–∞–∫—Å–∞–≥–∞–Ω—Å—å–∫–æ–≥–æ, 77', '–ö–∏—ó–≤, 01032', '–£–∫—Ä–∞—ó–Ω–∞']",50.43800354003906,30.503644943237305,13,0,5,15,0,0,['4bf58dd8d48988d124941735'],['Office'],0
52d67841498e7f4e5b1a2ad0,"–ß–ê–û ,,–ì–∞–Ω–∑–∞,,",['–£–∫—Ä–∞—ó–Ω–∞'],50.43781668641896,30.503155409291846,3,0,2,3,0,0,['4bf58dd8d48988d130941735'],['Building'],0
51f92ede498ea7ece0631e40,"Representative Office Torrent Pharmaceuticals Ltd, India","['–°–∞–∫—Å–∞–≥–∞–Ω—Å–∫–æ–≥–æ, 77', '–ö–∏—ó–≤, 01033', '–£–∫—Ä–∞—ó–Ω–∞']",50.43787035848958,30.503143319599097,29,0,2,29,1,0,['4bf58dd8d48988d124941735'],['Office'],0
5051be93e4b054c0f6fd44b0,–î–∏–∑–∞–π–Ω —Å—Ç—É–¥–∏—è Grafit,"['–≤—É–ª. –°–∞–∫—Å–∞–≥–∞–Ω—Å—å–∫–æ–≥–æ, 77 (–æ—Ñ—ñ—Å 1)', '–ö–∏–µ–≤', '–£–∫—Ä–∞—ó–Ω–∞']",50.43812634897337,30.50362726263233,32,1,12,34,2,0,['4bf58dd8d48988d1f4941735'],['Design Studio'],0
5582b927498e47d9b5b17b99,–ö–û–§–ï –°–ò–ì–ê–†–ï–¢–ö–ê,['–£–∫—Ä–∞—ó–Ω–∞'],50.437633,30.503875,20,0,6,25,0,0,['4bf58dd8d48988d13a941735'],['Temple'],0
51629c3ae4b05148e21827ca,–°–∏–Ω–µ—Ä–≥–∏—è,['–£–∫—Ä–∞—ó–Ω–∞'],50.438018798828125,30.503820419311523,51,0,4,52,0,0,['5032885091d4c4b30a586d66'],['Real Estate Office'],0
569ee236498e0c3b02f75356,–ë–∞–ª–∫–æ–Ωüí®üê∞,['–£–∫—Ä–∞—ó–Ω–∞'],50.438024,30.504198,2,0,1,2,0,0,['4d954b06a243a5684965b473'],['Residential Building (Apartment / Condo)'],0
533bfc5711d2b80c5277db08,–ê–ø–∞—Ä—Ç–∞–º–µ–Ω—Ç—ã Botanic –Ω–∞ –°–∞–∫—Å–∞–≥–∞–Ω—Å–∫–æ–≥–æ,"['—É–ª. –°–∞–∫—Å–∞–≥–∞–Ω—Å–∫–æ–≥–æ', '–ö–∏—ó–≤', '–£–∫—Ä–∞—ó–Ω–∞']",50.43733603558602,30.503218173980713,2,0,2,2,0,0,['4f4530a74b9074f6e4fb0100'],['Boarding House'],0
555deb27498ede0754fe62b3,Webtris Head Office,"['–°–∞–∫—Å–∞–≥–∞–Ω—Å–∫–æ–≥–æ 77', '–ö–∏—ó–≤', '–£–∫—Ä–∞—ó–Ω–∞']",50.43812840290078,30.503086997745978,4,0,2,4,0,0,['52e81612bcbc57f1066b7a3d'],['Advertising Agency'],0
5102c61be4b0f083a6c674ce,–ö—É—Ä—Å—ã –¢–∞–º–æ–∂–µ–Ω–Ω—ã—Ö –ë—Ä–æ–∫–µ—Ä–æ–≤,['–£–∫—Ä–∞—ó–Ω–∞'],50.438064,30.504634,71,0,21,80,2,0,['4bf58dd8d48988d198941735'],['College Academic Building'],0
4f50af53e4b020de97195d94,–Ü–Ω—Å—Ç–∏—Ç—É—Ç –º–µ–¥–∏—Ü–∏–Ω–∏ –ø—Ä–∞—Ü—ñ –ù–ê–ú–ù –£–∫—Ä–∞—ó–Ω–∏,"['–≤—É–ª. –°–∞–∫—Å–∞–≥–∞–Ω—Å—å–∫–æ–≥–æ, 75', '–ö–∏—ó–≤, 01033', '–£–∫—Ä–∞—ó–Ω–∞']",50.437936432830575,30.503861036829996,564,0,1090,1840,3,0,"['4bf58dd8d48988d197941735', '4bf58dd8d48988d130941735']","['College Administrative Building', 'Building']",0
57fb9c2bcd10164c352604ef,–ü–æ–º–µ—Å—Ç—å–µ –®–∞–ª—å–Ω–æ–π –ò–º–ø–µ—Ä–∞—Ç—Ä–∏—Ü—ã,"['–ö–∏—ó–≤', '–£–∫—Ä–∞—ó–Ω–∞']",50.438114,30.503324,16,0,3,21,0,0,['4bf58dd8d48988d1e2931735'],['Art Gallery'],0
568993ee498e1d0108306b47,"Izolyatsia ""Da Vinci""","['–°–∞–∫—Å–∞–≥–∞–Ω—Å—å–∫–æ–≥–æ, 63/28', '–ö–∏—ó–≤', '–£–∫—Ä–∞—ó–Ω–∞']",50.43763502895944,30.50347575833788,16,0,16,16,1,0,['4bf58dd8d48988d1e1931735'],['Arcade'],0
51c19e03498ecc0375f96032,–û—Ñ–∏—Å,"['–°–∞–∫—Å–∞–≥–∞–Ω—Å–∫–æ–≥–æ', '–£–∫—Ä–∞—ó–Ω–∞']",50.436859,30.505504,9,0,4,10,0,0,['4bf58dd8d48988d124941735'],['Office'],0
4f9002c8e4b027bf9cefa1fd,–ú–æ–π –¥–≤–æ—Ä–∏–∫,['–£–∫—Ä–∞—ó–Ω–∞'],50.43601660104055,30.504914734742133,210,1,27,211,2,0,['4bf58dd8d48988d1e5941735'],['Dog Run'],0
570bce6c498ed1c139bbe30e,—Å—Ç–∞—Ä–±–∞—Ä,['–£–∫—Ä–∞—ó–Ω–∞'],50.436079,30.505174,2,0,4,5,0,0,['4bf58dd8d48988d155941735'],['Gastropub'],0
50b9c81fe4b069aae9cc5ded,–ú–∞–≥–∞–∑–∏–Ω –®–∞—à–ª—ã–∫–∞,['–£–∫—Ä–∞—ó–Ω–∞'],50.43696000516401,30.504808745128752,17,0,15,17,0,0,['4bf58dd8d48988d11d951735'],['Butcher'],0
57163c8c38fa2e4b0b8a1862,–º–æ—ë —É–∑–±–∏—â–µ,['–£–∫—Ä–∞—ó–Ω–∞'],50.436154,30.505267,2,0,2,2,0,0,['4d954b06a243a5684965b473'],['Residential Building (Apartment / Condo)'],0
530ed65b498e53f454ca5025,—É–ª–∏—Ü–∞ –≤–ª–∞–¥–∏–º–∏—Ä—Å–∫–∞—è 68,['–£–∫—Ä–∞—ó–Ω–∞'],50.437108637077614,30.504930105873434,3,0,3,3,0,0,['4bf58dd8d48988d1ae941735'],['University'],0
502de783e4b0bf3e6949ec66,Ukrainian Institute For Public Policy,['–£–∫—Ä–∞—ó–Ω–∞'],50.436737056640666,30.50542629425228,2,0,2,2,0,0,['4bf58dd8d48988d124941735'],['Office'],0
52c1b0e7498e386a1718bac9,Dis/Order Studio,"['Tarasovskaya 36a', '–£–∫—Ä–∞—ó–Ω–∞']",50.43600834773534,30.504849281978505,13,0,4,13,1,0,['4bf58dd8d48988d1f2931735'],['Performing Arts Venue'],0
53297112498e15d906c014cd,–î–≤–∞ —á–µ–º–æ–¥–∞–Ω–∞,"['–¢–∞—Ä–∞—Å–æ–≤—Å–∫–∞—è 38', '–ö–∏—ó–≤', '–£–∫—Ä–∞—ó–Ω–∞']",50.43634796142578,30.505455017089844,6,0,5,6,0,0,['4bf58dd8d48988d1f6931735'],['General Travel'],0
4fb411afe4b07b6e0523f851,Jacques Pr√©vert Bar,['–£–∫—Ä–∞—ó–Ω–∞'],50.435880360843925,30.50447179361353,24,1,12,24,1,0,['4bf58dd8d48988d121941735'],['Lounge'],0
573f03c7498e05602ceeab96,MEDISSA,['–£–∫—Ä–∞—ó–Ω–∞'],50.436204,30.504439,2,0,2,2,0,0,['4bf58dd8d48988d196941735'],['Hospital'],0
505078d4e4b062cf9b73cc02,–ü–∞—Ä–∫–æ–≤–∫–∞,['–£–∫—Ä–∞—ó–Ω–∞'],50.436220973932606,30.505026721769582,170,0,21,172,0,0,['4c38df4de52ce0d596b336e1'],['Parking'],0
50accaa1e4b0d5e82853ef3d,–í–µ—Å—Ç–∏–±—é–ª—å 92,"['–≤—É–ª. –¢–∞—Ä–∞—Å—ñ–≤—Å—å–∫–∞, 11', '–ö–∏—ó–≤, 01033', '–£–∫—Ä–∞—ó–Ω–∞']",50.43748520734512,30.507313004962953,81,0,17,86,1,0,['4bf58dd8d48988d1a1941735'],['College Cafeteria'],0
4fdbdc8be4b0ec5a8e9e604f,–°–∞–∫—Å–∞–≥–∞–Ω—Å–∫–æ–≥–æ 67,"['–ö–∏—ó–≤', '–£–∫—Ä–∞—ó–Ω–∞']",50.436256065062516,30.504995356026914,146,0,50,152,0,0,['4d954b06a243a5684965b473'],['Residential Building (Apartment / Condo)'],0
564df01a498e1f41e543c993,Apple Hall,"['–°–∞–∫—Å–∞–≥–∞–Ω—Å–∫–æ–≥–æ, 69', '–£–∫—Ä–∞—ó–Ω–∞']",50.43683201626841,30.505597911606962,85,0,111,165,3,0,['52f2ab2ebcbc57f1066b8b36'],['IT Services'],0
511cf426e4b0ca541c942635,–°–∞–∫—Å–∞–≥–∞–Ω–∫–æ–≥–æ 65,"['–°–∞–∫—Å–∞–≥–∞–Ω—Å–∫–æ–≥–æ 65', '–£–∫—Ä–∞—ó–Ω–∞']",50.43648727007084,30.505315356002058,60,0,23,62,1,0,['4d954b06a243a5684965b473'],['Residential Building (Apartment / Condo)'],0
55f2c26f498e2a38107dd13c,Wine House,"['–≤—É–ª. –°–∞–∫—Å–∞–≥–∞–Ω—Å—å–∫–æ–≥–æ, 48/15', '–ö–∏—ó–≤, 01033', '–£–∫—Ä–∞—ó–Ω–∞']",50.43651260021247,30.50716102123261,72,0,57,82,4,0,['4bf58dd8d48988d119951735'],['Wine Shop'],0
517f7612e4b06e1ee487d548,"–°–∞–ª–æ–Ω –°–≤–∞–¥–µ–±–Ω–æ–π –ò –í–µ—á–µ—Ä–Ω–µ–π –ú–æ–¥—ã ""–ú–∞–¥–æ–Ω–Ω–∞""","['–°–∞–∫—Å–∞–≥–∞–Ω—Å–∫–æ–≥–æ 67 (–¢–∞—Ä–∞—Å–æ–≤—Å–∫–∞—è)', '–ö–∏—ó–≤', '–£–∫—Ä–∞—ó–Ω–∞']",50.436226,30.505049,173,3,115,233,5,7.4,['4bf58dd8d48988d11a951735'],['Bridal Shop'],8
5035cf94e4b0e43b9aeee1b8,–°—Ç–æ–º–∞—Ç–æ–ª–æ–≥—ñ—á–Ω–∞ –∫–ª—ñ–Ω—ñ–∫–∞ ¬´–ö–ï–ú¬ª,"['–≤—É–ª. –°–∞–∫—Å–∞–≥–∞–Ω—Å—å–∫–æ–≥–æ, 67 (–≤—É–ª. –¢–∞—Ä–∞—Å—ñ–≤—Å—å–∫–∞)', '–ö–∏—ó–≤', '–£–∫—Ä–∞—ó–Ω–∞']",50.43658635412861,30.504503768586044,451,1,147,733,5,0,['4bf58dd8d48988d178941735'],"[""Dentist's Office""]",0
54720d37498ef31e59eb7f01,home ‚òïÔ∏èüíè,"['–ù–∏–∫–æ–ª—å—Å–∫–æ-–±–æ—Ç–∞–Ω–∏—á–µ—Å–∫–∞—è 6/8', '–ö–∏—ó–≤', '–£–∫—Ä–∞—ó–Ω–∞']",50.439107,30.505961,56,0,1,56,0,0,['4d954b06a243a5684965b473'],['Residential Building (Apartment / Condo)'],0
511ce8d3e4b0113e07795c31,–î–∏–∑–∞–π–Ω —Å—Ç—É–¥–∏—è Vlada Nazik,"['–ù–∏–∫–æ–ª—å—Å–∫–æ - –ë–æ—Ç–∞–Ω–∏—á–µ—Å–∫–∞—è 6/8, –æ—Ñ.94', '–≥.–ö–∏–µ–≤', '–£–∫—Ä–∞—ó–Ω–∞']",50.439151763916016,30.50568962097168,84,1,12,88,2,0,['4bf58dd8d48988d1f4941735'],['Design Studio'],0
510fe03ae4b0355db812109d,AuRa MuSic StuDio,"['–ì–º—ã—Ä–∏ 5', '–ö–∏—ó–≤', '–£–∫—Ä–∞—ó–Ω–∞']",50.438710588658765,30.50671773155685,5,2,4,5,0,0,['4bf58dd8d48988d1e5931735'],['Music Venue'],0
56cca7b3cd10e72e2611ab8d,Special Cattle,['–£–∫—Ä–∞—ó–Ω–∞'],50.43876220757179,30.505770276559115,16,0,4,17,0,0,['4d954b06a243a5684965b473'],['Residential Building (Apartment / Condo)'],0
5724a1d0498e7db35ed6f9fd,–∫—É—Ö–Ω—è –°–∞—à–∏ –í–µ–≥–∞–Ω–∞,['–£–∫—Ä–∞—ó–Ω–∞'],50.438664,30.506198,20,0,17,39,0,0,['4bf58dd8d48988d1d3941735'],['Vegetarian / Vegan Restaurant'],0
55474997498e43b52c6ab5c6,Full-frame work day,['–£–∫—Ä–∞—ó–Ω–∞'],50.439288,30.505995,2,0,1,2,0,0,['4bf58dd8d48988d130941735'],['Building'],0
52efa802498e86ec9143fc4b,–ö–ª–∏–º–∞—Ç –£–∫—Ä–∞–∏–Ω–∞,['–£–∫—Ä–∞—ó–Ω–∞'],50.43882751464844,30.506023406982422,47,0,8,73,0,0,['4bf58dd8d48988d124941735'],['Office'],0
51f3cd3d498e2469f8fa263e,Saturday SHELTER,['–£–∫—Ä–∞—ó–Ω–∞'],50.439102,30.505815,2,0,3,3,0,0,['4bf58dd8d48988d11e941735'],['Cocktail Bar'],0
57d14a27498e4f97b9063637,–ö—É—Ä–∏–ª–∫–∞ –∏–º. –î–∞—Ä—å–∏ –ö—Ä–∞–π–Ω–µ–π,['–£–∫—Ä–∞—ó–Ω–∞'],50.438745,30.506747,5,0,2,5,0,0,['4bf58dd8d48988d162941735'],['Other Great Outdoors'],0
51fd1f33498eb5bc4086fcc1,–°–ø–æ—Ä—Ç–ø–ª–æ—â–∞–¥–∫–∞,['–£–∫—Ä–∞—ó–Ω–∞'],50.438900523721934,30.505619008633445,14,1,5,14,1,0,['4bf58dd8d48988d1ba941735'],['College Basketball Court'],0
575320a6498e07a4d3c1f8c9,Roof 2.0,"['–ö–∏—ó–≤', '–£–∫—Ä–∞—ó–Ω–∞']",50.439146,30.505662,3,0,3,3,0,0,['4bf58dd8d48988d165941735'],['Scenic Lookout'],0
527e2a1b11d25a27b39ca643,–•–∏–º–∏—èüìö,['–£–∫—Ä–∞—ó–Ω–∞'],50.43908838420846,30.50598862597326,32,0,4,32,0,0,['4bf58dd8d48988d1a8941735'],['General College & University'],0
52f8f0c811d2cfe8f7e88561,–î–≤–æ—Ä–∏–∫ –Ω–∞ –ù.-–ë. üöôüöòüöó,['–£–∫—Ä–∞—ó–Ω–∞'],50.438648664549966,30.50576960236305,7,0,5,7,1,0,['4c38df4de52ce0d596b336e1'],['Parking'],0
562a5093498e15c3ca7f17e7,Vera's casa nuova,['–£–∫—Ä–∞—ó–Ω–∞'],50.43873329949788,30.506535194350338,117,0,3,131,0,0,['4d954b06a243a5684965b473'],['Residential Building (Apartment / Condo)'],0
4ffa52b1e4b0e8d00ee6c473,Adobe Premiere,"['–¢–∞—Ä–∞—Å–æ–≤—Å–∫–∞—è 10', '–£–∫—Ä–∞—ó–Ω–∞']",50.439067734960425,30.50652142341807,2,0,2,2,1,0,['4f2a210c4b9023bd5841ed28'],['Housing Development'],0
51d07d3c498ebe6bf91f1a0e,–õ–∞—Ä–µ–∫ –ö–∞—à—Ç–∞–Ω—á–∏–∫,['–£–∫—Ä–∞—ó–Ω–∞'],50.43872091786646,30.50604758157327,1,1,1,1,1,0,['4bf58dd8d48988d1f9941735'],['Food & Drink Shop'],0
558d59cc498e44df6e420a40,Nika'süòã,['–£–∫—Ä–∞—ó–Ω–∞'],50.4385,30.506254,1,0,1,1,1,0,['4bf58dd8d48988d16a941735'],['Bakery'],0
4fb12e91e4b0e047b2e56feb,–¥–≤–æ—Ä —à–∫–æ–ª—ã 92,['–£–∫—Ä–∞—ó–Ω–∞'],50.4385598950357,30.505569533460882,25,1,10,25,0,0,['4bf58dd8d48988d13d941735'],['High School'],0
5724f731498ea2e8d049f7a5,–°–º–æ—Ç—Ä–æ–≤–∞—è –±–∞—à–Ω—è –ö–æ—Ä–¥–∏—Ü–µ–ø—Å–∞,['–£–∫—Ä–∞—ó–Ω–∞'],50.439016,30.506071,18,0,16,33,0,0,['4bf58dd8d48988d121941735'],['Lounge'],0
5519d825498e1264b873e161,Nikolsko-batanicheskaya 11,['–£–∫—Ä–∞—ó–Ω–∞'],50.438644,30.505947,6,0,5,6,0,0,['4d954b06a243a5684965b473'],['Residential Building (Apartment / Condo)'],0
531284e3498ec97348ea4691,Show Room Vlada Nazik,"['–ù–∏–∫–æ–ª—å—Å–∫–æ-–ë–æ—Ç–∞–Ω–∏—á–µ—Å–∫–∞—è 6/8', '–ö–∏—ó–≤', '–£–∫—Ä–∞—ó–Ω–∞']",50.439206,30.50585,135,0,5,158,0,0,['4d954b06a243a5684965b473'],['Residential Building (Apartment / Condo)'],0
4d3054cff986a0938677fb66,–°—Ç–∞—Ä–æ–∫–∏—ó–≤—Å—å–∫–∏–π –ë–∞–Ω–∫,"['–≤—É–ª. –ú–∏–∫—ñ–ª—å—Å—å–∫–æ-–ë–æ—Ç–∞–Ω—ñ—á–Ω–∞, 6/8', '–ö–∏—ó–≤, 01033', '–£–∫—Ä–∞—ó–Ω–∞']",50.438671373306754,30.506024172820645,210,0,173,398,3,0,['4bf58dd8d48988d10a951735'],['Bank'],0
52430b0811d23be96ad2eac1,–ù–∞ –ù–∏–∫–æ–ª–∫–µ),"['–ù–∏–∫–æ–ª—å—Å–∫–æ-–ë–æ—Ç–∞–Ω–∏—á–µ—Å–∫–∞—è (–º–µ–∂–¥—É  15 –∏ 17)', '–ö–∏—ó–≤', '–£–∫—Ä–∞—ó–Ω–∞']",50.438976030170096,30.50577163696289,34,0,75,113,2,0,['4bf58dd8d48988d1e7941735'],['Playground'],0
536a251f498e2d75d9d0f0ab,–Ω–∏–∫–æ–ª—å—Å–∫–æ-–±–æ—Ç–∞–Ω–∏—á–µ—Å–∫–∞—è 7/9 –∫–≤ üíó,['–£–∫—Ä–∞—ó–Ω–∞'],50.438474,30.505472,388,0,76,473,0,0,['4d954b06a243a5684965b473'],['Residential Building (Apartment / Condo)'],0
52ff6f7a498e4c590744b800,–í—É–ª–∏—Ü—è –¢–∞—Ä–∞—Å—ñ–≤—Å—å–∫–∞,"['–≤—É–ª. –¢–∞—Ä–∞—Å—ñ–≤—Å—å–∫–∞', '–ö–∏—ó–≤', '–£–∫—Ä–∞—ó–Ω–∞']",50.43910902225448,30.506609420280796,49,0,28,55,1,0,['4bf58dd8d48988d1f9931735'],['Road'],0
56a3dd1c498e3eaf7bb60aae,–ö–æ—Ä–¥–∏—Ü–µ–ø—Å,"['–ù–∏–∫–æ–ª—å—Å–∫–æ-–ë–æ—Ç–∞–Ω–∏—á–µ—Å–∫–∞—è 6/8', '–£–∫—Ä–∞—ó–Ω–∞']",50.43894387508956,30.50594981108638,97,0,73,224,0,0,['4bf58dd8d48988d165941735'],['Scenic Lookout'],0
50e75d62e4b0441ef06396fa,–Ω–∏–∫–æ–ª—å—Å–∫–æ-–±–æ—Ç–∞–Ω–∏—á–µ—Å–∫–∞—è 6/8,['–£–∫—Ä–∞—ó–Ω–∞'],50.438729171664875,30.50646124352588,53,0,48,119,0,0,['4d954b06a243a5684965b473'],['Residential Building (Apartment / Condo)'],0
500af995e4b000b8d91bdebf,–í—É–ª–∏—Ü—è –ú–∏–∫—ñ–ª—å—Å—å–∫–æ-–ë–æ—Ç–∞–Ω—ñ—á–Ω–∞,"['–≤—É–ª. –ú–∏–∫—ñ–ª—å—Å—å–∫–æ-–ë–æ—Ç–∞–Ω—ñ—á–Ω–∞', '–ö–∏—ó–≤', '–£–∫—Ä–∞—ó–Ω–∞']",50.438976030170096,30.50570726394653,270,1,140,383,4,0,['4bf58dd8d48988d1f9931735'],['Road'],0
57431605498ea46452454b53,–ê—É–¥–∏—Ç–æ—Ä—ñ—è –í605,['–£–∫—Ä–∞—ó–Ω–∞'],50.440424,30.506783,1,0,1,1,0,0,['4bf58dd8d48988d1af941735'],['College Auditorium'],0
561fb363498ebf5eb812fbf0,–ü–ª–æ—â–∞–¥–∫–∞,['–£–∫—Ä–∞—ó–Ω–∞'],50.440638761092444,30.507551019709283,20,0,1,20,0,0,['4bf58dd8d48988d1e7941735'],['Playground'],0
4ffebabbe4b0f8be9bf7d30b,MJ Tour,"['–ö–∏—ó–≤', '–£–∫—Ä–∞—ó–Ω–∞']",50.44031462079756,30.507114603725807,9,0,5,11,0,0,['4f4530164b9074f6e4fb00ff'],['Tourist Information Center'],0
570d2d31498ee37e679a7e7f,–¥–µ—Ç—Å–∫–∏–π —Å–∞–¥ –Ω–∞ –¢–∞—Ä–∞—Å–æ–≤—Å–∫–∞—è 4,['–£–∫—Ä–∞—ó–Ω–∞'],50.440165,30.507097,2,0,2,2,0,0,['4bf58dd8d48988d1e7941735'],['Playground'],0
571667bf498e7dcd1c964356,–ö—Ä—ã—à–∞ –¥–∏—Å–ø–∞–Ω—Å–µ—Ä–∞,['–£–∫—Ä–∞—ó–Ω–∞'],50.439805,30.506874,2,0,2,2,0,0,['4bf58dd8d48988d130941735'],['Building'],0
526a9827498e93d7757bf5a7,Detka's parking,['–£–∫—Ä–∞—ó–Ω–∞'],50.44021224975586,30.507801055908203,10,0,6,10,1,0,['4bf58dd8d48988d1e4941735'],['Campground'],0
55cf5cce498e4eca2f0eebc5,–°–∏–Ω—ñ–π –ª—å–æ–Ω,"['–≤—É–ª. –°–∞–∫—Å–∞–≥–∞–Ω—Å—å–∫–æ–≥–æ, 70–±', '–ö–∏—ó–≤', '–£–∫—Ä–∞—ó–Ω–∞']",50.43971590903684,30.507442412989768,4,3,3,6,0,0,['4bf58dd8d48988d103951735'],['Clothing Store'],0
524038a311d29e05786e9490,–¢–∞—Ä–∞—Å–æ–≤—Å–∫–∞—è 3–∞,['–£–∫—Ä–∞—ó–Ω–∞'],50.43989760874513,30.507940269181876,34,0,14,34,0,0,['4d954b06a243a5684965b473'],['Residential Building (Apartment / Condo)'],0
5172ac6b498e908f681c5c34,Ace Of Spades,"['–¢–∞—Ä–∞—Å–æ–≤—Å–∫–∞—è 4-–∞', '–ö–∏—ó–≤', '–£–∫—Ä–∞—ó–Ω–∞']",50.4404411315918,30.506986618041992,5,0,3,5,0,0,['4bf58dd8d48988d1de931735'],['Tattoo Parlor'],0
4e2151f2d16474063205297c,–ß–∞–ø–∞–µ–≤–∞ 9,"['–ö–∏—ó–≤', '–£–∫—Ä–∞—ó–Ω–∞']",50.439942170937975,30.50764913838526,7,0,7,7,0,0,[],[],0
52d3f74f498e37c054376f00,üíéüíéüíéHome Dvaliüíéüíéüíé,['–£–∫—Ä–∞—ó–Ω–∞'],50.44073993711022,30.506781151862427,31,0,2,33,0,0,['4d954b06a243a5684965b473'],['Residential Building (Apartment / Condo)'],0
5435b4a8498e78176232e33c,Seyitmuhammedov's Home,"['–¢–∞—Ä–∞—Å–æ–≤—Å–∫–∞—è (2)', '–ö–∏—ó–≤', '–£–∫—Ä–∞—ó–Ω–∞']",50.44042611844433,30.507632332668237,51,0,1,51,0,0,['4d954b06a243a5684965b473'],['Residential Building (Apartment / Condo)'],0
52889ce3498e9f1f61db0ad5,–í–∏–Ω–Ω—ã–π –±—É—Ç–∏–∫ –°–æ—Ç–µ—Ä–Ω,['–£–∫—Ä–∞—ó–Ω–∞'],50.44069657026908,30.507806968720654,11,0,9,11,0,0,['4bf58dd8d48988d119951735'],['Wine Shop'],0
564184ed498e27ec2bd0e070,üíÖ,['–£–∫—Ä–∞—ó–Ω–∞'],50.44044876098633,30.507726669311523,1,0,1,1,0,0,['4f04aa0c2fb6e1c99f3db0b8'],['Nail Salon'],0
50a9f983e4b02a7dc10a08b9,Materik Travel,"['–£–ª.–¢–∞—Ä–∞—Å–æ–≤—Å–∫–∞—è,4–∞,–æ—Ñ.3', '–ö–∏—ó–≤', '–£–∫—Ä–∞—ó–Ω–∞']",50.44027955744948,30.506824831349892,116,0,5,116,2,0,['4bf58dd8d48988d1f6931735'],['General Travel'],0
5631011d498e89e9a6d709e0,–û—Ñ–∏—Å –î–∏–∞–Ω—ã,['–£–∫—Ä–∞—ó–Ω–∞'],50.44049218426294,30.507519334108743,10,0,2,10,0,0,['4bf58dd8d48988d124941735'],['Office'],0
53301dcc11d2eb1d9b36917d,–í–æ–∫–∞–ª—å–Ω–∞ —Å—Ç—É–¥—ñ—è –ö–ù–£ —ñ–º. –¢.–ì.–®–µ–≤—á–µ–Ω–∫–∞üé∂,['–£–∫—Ä–∞—ó–Ω–∞'],50.439947100880886,30.50704395802369,15,0,3,15,0,0,['4bf58dd8d48988d1e5931735'],['Music Venue'],0
560931b3498e9b727d289e9e,–ª–∏—Ñ—Ç Tabasco,"['–ö—Ä–∞—Å–Ω–æ–∞—Ä–º–µ–π—Å–∫–∞—è 72', '–ö–∏—ó–≤', '–£–∫—Ä–∞—ó–Ω–∞']",50.440018,30.507751,1,0,1,1,0,0,['52e81612bcbc57f1066b7a3d'],['Advertising Agency'],0
56390a7fcd100f2dd1070e33,–î–æ–º–∏–∫ –ü—Ä–∏–Ω—Ü–µ—Å—Å–∫–∏,['–£–∫—Ä–∞—ó–Ω–∞'],50.440593343962554,30.507496518270326,9,0,1,9,0,0,['4d954b06a243a5684965b473'],['Residential Building (Apartment / Condo)'],0
556fe0ea498e540fff2b0996,"—Å–∞–ª–æ–Ω –ù–∏–∫–∏—Ç–∞ —É–ª. –°–∞–∫—Å–∞–≥–∞–Ω—Å–∫–æ–≥–æ, 61/17","['–°–∞–∫—Å–∞–≥–∞–Ω—Å–∫–æ–≥–æ 61/17', '–£–∫—Ä–∞—ó–Ω–∞']",50.440398787401975,30.507068303032685,37,1,2,37,1,0,['4bf58dd8d48988d110951735'],['Salon / Barbershop'],0
55b9f73a498e2acf69b8fddd,TAT center,"['–õ—å–≤–∞ –¢–æ–ª—Å—Ç–æ–≥–æ, 15', '–£–∫—Ä–∞—ó–Ω–∞']",50.440244381143074,30.50769410106312,9,0,5,9,0,0,['4bf58dd8d48988d124941735'],['Office'],0
535bd9c711d2495b0b16f08c,–°–µ–≤–∞—Å—Ç–æ–ø–æ–ª—å—Å–∫–∞—è 19,"['–°–µ–≤–∞—Å—Ç–æ–ø–æ–ª—å—Å–∫–∞—è 19', '–ö–∏–µ–≤', '–£–∫—Ä–∞—ó–Ω–∞']",50.423872904687,30.66047391676481,29,0,30,59,1,0,['4d954b06a243a5684965b473'],['Residential Building (Apartment / Condo)'],0
4fcf4a43e4b0ad8ae2755e17,–ñ–∏—Ç–ª–æ–≤–æ-–ï–∫—Å–ø–ª—É–∞—Ü—ñ–π–Ω–∞ –ö–æ–Ω—Ç–æ—Ä–∞ #105,['–£–∫—Ä–∞—ó–Ω–∞'],50.440585085842486,30.507505836304677,22,0,17,22,0,0,['4bf58dd8d48988d130941735'],['Building'],0
56247830498efe46d2497da0,–õ–∞—Ä–µ–∫ –≤–æ–∑–ª–µ –¥–æ–º–∞,['–£–∫—Ä–∞—ó–Ω–∞'],50.440593343962554,30.507471153639674,38,0,7,38,0,0,['4d954b0ea243a5684a65b473'],['Convenience Store'],0
51ee4f34498e6128e910b533,A-screen,"['–ö–∏–µ–≤. —É–ª. –¢–µ—Ä–µ—â–µ–Ω–∫–æ–≤—Å–∫–∞—è 13, –æ—Ñ–∏—Å 82', '–£–∫—Ä–∞—ó–Ω–∞']",50.440801851659536,30.50767943429457,16,0,8,16,0,0,['4bf58dd8d48988d124941735'],['Office'],0
4fd667c4e4b0b31b85c53d86,–î–≤–æ—Ä–∏–∫,['–£–∫—Ä–∞—ó–Ω–∞'],50.440535,30.507307,155,0,90,254,1,0,['4bf58dd8d48988d1e7941735'],['Playground'],0
527f18e111d2e567dc5ecdfb,–¢–∞—Ä–∞—Å–æ–≤—Å–∫–∞—è 4,['–£–∫—Ä–∞—ó–Ω–∞'],50.44024445334059,30.507298965185246,71,0,49,96,0,0,['4f4530a74b9074f6e4fb0100'],['Boarding House'],0
53f1bc15498e96ff1061d05a,Fire Inn,['–£–∫—Ä–∞—ó–Ω–∞'],50.440157726390865,30.50796004962925,243,4,150,329,12,6.5,['4bf58dd8d48988d1f8931735'],['Bed & Breakfast'],22
4ebb8b8293ad649fc214ea23,–ö–∏—ó–≤—Å—å–∫–∏–π —Ü–µ–Ω—Ç—Ä —Å–ø–æ—Ä—Ç–∏–≤–Ω–æ—ó –º–µ–¥–∏—Ü–∏–Ω–∏,"['–≤—É–ª. –¢–∞—Ä–∞—Å—ñ–≤—Å—å–∫–∞, 6', '–ö–∏—ó–≤', '–£–∫—Ä–∞—ó–Ω–∞']",50.439901741249066,30.507897044723887,1553,11,1172,2749,13,0,"['4bf58dd8d48988d104941735', '4bf58dd8d48988d196941735']","['Medical Center', 'Hospital']",0
507e181ae4b0761d0a1dd10d,–ú–æ—Å—Ç–æ–±—É–¥,"['–ö–∏—ó–≤', '–£–∫—Ä–∞—ó–Ω–∞']",50.44074820549009,30.505583058279385,132,0,28,133,0,0,['4bf58dd8d48988d124941735'],['Office'],0
52e76189498e5d284813bf8f,–î–∏—Ä–µ–∫—Å-–¢–µ–ª–µ–∫–æ–º,['–£–∫—Ä–∞—ó–Ω–∞'],50.439858419810605,30.50580707524421,5,0,1,5,0,0,['4bf58dd8d48988d125941735'],['Tech Startup'],0
4f438e3de4b0435152bbba99,–í–¢–° –ö–æ–Ω—Å–∞–ª—Ç–∏–Ω–≥,"['–≤—É–ª. –ü–∞–Ω—å–∫—ñ–≤—Å—å–∫–∞, 5', '–ö–∏—ó–≤, 01033', '–£–∫—Ä–∞—ó–Ω–∞']",50.4405066567963,30.505934514035516,1555,0,130,1767,4,0,"['4bf58dd8d48988d174941735', '52f2ab2ebcbc57f1066b8b3f']","['Coworking Space', 'Lawyer']",0
53566245498e03ae386cbbe5,materiktravel,"['Tarasivska 4a', '–ö–∏—ó–≤', '–£–∫—Ä–∞—ó–Ω–∞']",50.44032291418157,30.50664265119214,4,0,1,4,0,0,['4f4530164b9074f6e4fb00ff'],['Tourist Information Center'],0
4e980ee4d3e322c8a1a3f5fd,Nichego Group,"['–ü–∞–Ω—å–∫–æ–≤—Å–∫–∞—è, 3', '–£–∫—Ä–∞—ó–Ω–∞']",50.440669,30.506211,85,1,15,85,0,0,['4bf58dd8d48988d171941735'],['Event Space'],0
5128cf86e4b03158b4bde3a9,–§–∞–∑–µ–Ω–¥–∞ –í–∏—à–Ω—è–∫–∏,['–£–∫—Ä–∞—ó–Ω–∞'],50.440808073620246,30.505946785621425,3,0,2,3,0,0,['4f2a210c4b9023bd5841ed28'],['Housing Development'],0
51373e1ce4b0488eb55442bb,–°–∞–ª–æ–Ω –∫—Ä–∞—Å–æ—Ç—ã –û-–ª—è-–ª—è,"['–ù–∏–∫–æ–ª—å—Å–∫–æ-–±–æ—Ç–∞–Ω–∏—á–µ—Å–∫–∞—è 14/7', '–ö–∏—ó–≤, 01033', '–£–∫—Ä–∞—ó–Ω–∞']",50.440504597272124,30.505422385740648,34,0,20,37,8,6.9,['4bf58dd8d48988d110951735'],['Salon / Barbershop'],10
523dcc6e498e9dc56d43cb88,–ø–∞–Ω—å–∫–æ–≤—Å–∫–∞—è 7,['–£–∫—Ä–∞—ó–Ω–∞'],50.44050872530321,30.505770245670256,126,0,14,130,0,0,['4d954b06a243a5684965b473'],['Residential Building (Apartment / Condo)'],0
4f3a85c76d86b0b274e338d4,Happy End Production,"['–≤—É–ª. –ü–∞–Ω–∫—ñ–≤—Å—å–∫–∞, 3', '–ö–∏—ó–≤', '–£–∫—Ä–∞—ó–Ω–∞']",50.4406676847776,30.506250287581217,47,1,7,47,0,0,['4bf58dd8d48988d124941735'],['Office'],0
4f143ffde4b0456269eba867,L-school,"['Pankovskaya 7/14 (Nikolsko-botanicheskaya)', '–ö–∏—ó–≤', '–£–∫—Ä–∞—ó–Ω–∞']",50.43972216614943,30.505654080983412,269,2,14,273,2,0,['4bf58dd8d48988d1a8941735'],['General College & University'],0
509ce393e4b0912bf1f98511,–ü–ª–æ—â–∞–¥—å –≠–≤–æ–ª—é—Ü–∏–∏,"['–≤—É–ª. –ü–∞–Ω—å–∫—ñ–≤—Å—å–∫–∞, 3', '–ö–∏—ó–≤', '–£–∫—Ä–∞—ó–Ω–∞']",50.4406553015693,30.506013424274148,7,0,3,7,0,0,['52e81612bcbc57f1066b7a3d'],['Advertising Agency'],0
55e43f0f498e77ce72cb04c6,–ü–æ—Ç—è–≥ –Ü–Ω—Ç–µ—Ä—Å—ñ—Ç—ñ+ –ö–∏—ó–≤-–ó–∞–ø–æ—Ä—ñ–∂–∂—è –ö–∏—ó–≤ –ü–∞—Å–∞–∂–∏—Ä—Å—å–∫–∏–π,['–£–∫—Ä–∞—ó–Ω–∞'],50.43965871372821,30.506718235512917,5,0,5,5,0,0,['4bf58dd8d48988d12a951735'],['Train'],0
52d52c0111d25fd26180c886,–°–ø–æ—Ä—Ç –¥–∏—Å–ø–∞–Ω—Å–µ—Ä,"['–¢–∞—Ä–∞—Å–æ–≤—Å–∫–∞—è 6', '–ö–∏—ó–≤', '–£–∫—Ä–∞—ó–Ω–∞']",50.44043431536439,30.506341793420212,19,0,15,22,0,0,['4bf58dd8d48988d104941735'],['Medical Center'],0
509bd3e3e4b01acbd2f41dab,–î–∏—Ç—è—á–∏–π —Å–∞–¥–æ–∫ ‚Ññ118,"['–≤—É–ª. –¢–∞—Ä–∞—Å—ñ–≤—Å—å–∫–∞, 6–∞', '–ö–∏—ó–≤, 01033', '–£–∫—Ä–∞—ó–Ω–∞']",50.44035180214122,30.507422422788057,188,2,30,228,2,0,['4f4533814b9074f6e4fb0107'],['Nursery School'],0
517ffc10e4b0031888ffa23d,"–≤—É–ª. –ü–∞–Ω–∫—ñ–≤—Å—å–∫–∞, 3","['–≤—É–ª. –ü–∞–Ω–∫—ñ–≤—Å—å–∫–∞, 3', '–ö–∏—ó–≤', '–£–∫—Ä–∞—ó–Ω–∞']",50.44053142541838,30.506283834449903,118,0,59,136,0,0,['4d954b06a243a5684965b473'],['Residential Building (Apartment / Condo)'],0
4f33d78ee4b0d59eee19038d,–Ü—Å—Ç–æ—Ä–∏–∫–æ-–º–µ–º–æ—Ä—ñ–∞–ª—å–Ω–∏–π –ú—É–∑–µ–π –ú–∏—Ö–∞–π–ª–∞ –ì—Ä—É—à–µ–≤—Å—å–∫–æ–≥–æ,"['–≤—É–ª. –ü–∞–Ω—å–∫—ñ–≤—Å—å–∫–∞, 9', '–ö–∏—ó–≤, 01033', '–£–∫—Ä–∞—ó–Ω–∞']",50.44010202506062,30.50592434074934,194,4,117,196,11,5.9,['4bf58dd8d48988d190941735'],['History Museum'],18
54faedd2498e7f86ee1563ff,Pilates Club,"['–õ—å–≤–∞ –¢–æ–ª—Å—Ç–æ–≥–æ , 23', '–£–∫—Ä–∞—ó–Ω–∞']",50.44085554202848,30.506698198752456,138,1,93,238,2,0,['52e81612bcbc57f1066b7a26'],['Recreation Center'],0
53d0158a498e27906da7aef9,MAZE QUEST –Ω–∞ –ù–∏–∫–æ–ª—å—Å–∫–æ-–ë–æ—Ç–∞–Ω–∏—á–µ—Å–∫–æ–π,"['–≤—É–ª. –ú–∏–∫—ñ–ª—å—Å—å–∫–æ-–ë–æ—Ç–∞–Ω—ñ—á–Ω–∞, 14/7', '–ö–∏—ó–≤, 01033', '–£–∫—Ä–∞—ó–Ω–∞']",50.43992448257135,30.505738697841448,1936,25,2011,3453,180,8.9,['4bf58dd8d48988d1e1931735'],['Arcade'],212
57160794498edcd5ff578506,NUFT LONGE ZONE,['–£–∫—Ä–∞—ó–Ω–∞'],50.439008,30.507975,5,0,2,5,0,0,['4bf58dd8d48988d121941735'],['Lounge'],0
55560492498e4fd12b2ed305,meder beauty science,"['–ö–∏—ó–≤', '–£–∫—Ä–∞—ó–Ω–∞']",50.43954666115195,30.507771666614747,20,0,3,21,0,0,['4bf58dd8d48988d124941735'],['Office'],0
557a7e88498e2bd7d91cd708,VDMT,"['Tarasivska Street 14', '–ö–∏—ó–≤', '–£–∫—Ä–∞—ó–Ω–∞']",50.43861389160156,30.50698471069336,2,0,1,2,0,0,['4bf58dd8d48988d122951735'],['Electronics Store'],0
5354021d498e5afc2e5851f3,–¢–∞—Ä—Å—ñ–≤—Å—å–∫–∞ 10,['–£–∫—Ä–∞—ó–Ω–∞'],50.439156494979294,30.507156674692038,38,0,13,45,0,0,['5032891291d4c4b30a586d68'],['Assisted Living'],0
520bfd1311d215083d481be8,–¢–∞—Ä–∞—Å–æ–≤—Å–∫–∞—è 12,['–£–∫—Ä–∞—ó–Ω–∞'],50.438691,30.507306,139,1,39,142,2,0,['4d954b06a243a5684965b473'],['Residential Building (Apartment / Condo)'],0
52f9e25c498e8a176089e13f,—Ç—É–∞–ª–µ—Ç –í- –∫–æ—Ä–ø—É—Å –ù–£–•–¢,['–£–∫—Ä–∞—ó–Ω–∞'],50.439226679592565,30.5074858530498,18,1,7,20,0,0,['5744ccdfe4b0c0459246b4c4'],['Public Bathroom'],0
51bf550c498e55ee5723c978,–ë–∞–Ω—è,"['–¢—Ä—É—Ç–µ–Ω–∫–æ 4', '–£–∫—Ä–∞—ó–Ω–∞']",50.439412476595486,30.50781658758195,7,0,3,10,0,0,['52e81612bcbc57f1066b7a27'],['Bath House'],0
51384aa2e4b0e5f029fbe861,TUI —Ç—É—Ä–∞–≥–µ–Ω—Ç—Å—Ç–≤–æ –Ω–∞ –¢–∞—Ä–∞—Å–æ–≤—Å–∫–æ–π,"['–¢–∞—Ä–∞—Å–æ–≤—Å–∫–∞—è, 14', '–ö–∏—ó–≤', '–£–∫—Ä–∞—ó–Ω–∞']",50.43948679452957,30.50757226186739,8,1,7,8,1,0,['4f04b08c2fb6e1c99f3db0bd'],['Travel Agency'],0
54e3ae7a498e7c46e1f3512d,–ê—Ç–µ–ª—å–µ –Ω–∞ –¢–∞—Ä–∞—Å–æ–≤—Å–∫–æ–π,"['–¢–∞—Ä–∞—Å–æ–≤—Å–∫–∞—è 12', '–ö–∏—ó–≤', '–£–∫—Ä–∞—ó–Ω–∞']",50.43911106930296,30.50754438852681,6,1,1,7,2,0,['5032781d91d4c4b30a586d5b'],['Tailor Shop'],0
50731ad8e4b074bcaed65af7,OTTO,['–£–∫—Ä–∞—ó–Ω–∞'],50.438455,30.507257,3,0,3,3,0,0,['4bf58dd8d48988d103951735'],['Clothing Store'],0
515d3924e4b09b91a395db30,–ë—É—Ñ–µ—Ç –í –ö–æ—Ä–ø—É—Å–∞ –ù—É—Ö—Ç,['–£–∫—Ä–∞—ó–Ω–∞'],50.43927209436606,30.507545347502003,31,0,13,32,0,0,['4bf58dd8d48988d16d941735'],['Caf√©'],0
50f8fccbe4b03d59641b2940,"–ù–£–•–¢ –∫–æ—Ä–ø—É—Å –í 
–ê–£–î–ò–¢–û–†–ò–Ø 301",['–£–∫—Ä–∞—ó–Ω–∞'],50.43932164896368,30.507162586565144,14,0,5,14,0,0,['4bf58dd8d48988d1a0941735'],['College Classroom'],0
55e6ddf7498e0eda7641e62b,–ö–∞—Ñ–µ–¥—Ä–∞ –ï–∫–æ–Ω–æ–º—ñ–∫–∏ —ñ –ü—Ä–∞–≤–∞ –ù–£–•–¢,['–£–∫—Ä–∞—ó–Ω–∞'],50.439474399282346,30.50790348170442,37,0,1,37,0,0,['4bf58dd8d48988d197941735'],['College Administrative Building'],0
533acca7498ecd57c9bd66db,TUI –¢—É—Ä–∞–≥–µ–Ω—Å—Ç–≤–æ,"['–≤—É–ª. –¢–∞—Ä–∞—Å—ñ–≤—Å—å–∫–∞, 14', '–ö–∏—ó–≤', '–£–∫—Ä–∞—ó–Ω–∞']",50.438378,30.507256,29,0,8,33,0,0,['4f4530164b9074f6e4fb00ff'],['Tourist Information Center'],0
4e863babb803ea3c406602b6,–ü–æ–∂–µ–∂–Ω–∞ —á–∞—Å—Ç–∏–Ω–∞ #4,"['–≤—É–ª. –¢–∞—Ä–∞—Å–∫—ñ–≤—Å—å–∫–∞4', '–ö–∏—ó–≤', '–£–∫—Ä–∞—ó–Ω–∞']",50.43891701673162,30.50677369525036,26,1,12,27,0,0,['4bf58dd8d48988d12c941735'],['Fire Station'],0
55efd201498ef4f8ac731aeb,–ö–∞—Ñ–µ–¥—Ä–∞ –±—ñ–æ—Ö—ñ–º—ñ—ó —Ç–∞ –µ–∫–æ–ª–æ–≥—ñ—á–Ω–æ–≥–æ –∫–æ–Ω—Ç—Ä–æ–ª—é –ù–£–•–¢,['–£–∫—Ä–∞—ó–Ω–∞'],50.43908835924548,30.50771188265709,79,0,4,80,0,0,['4bf58dd8d48988d1ae941735'],['University'],0
4e94803ee5faf79bbdc0368d,White Room Studio,"['–≤—É–ª. –¢–∞—Ä–∞—Å—ñ–≤—Å—å–∫–∞, 10 (–æ—Ñ—ñ—Å 11)', '–ö–∏—ó–≤', '–£–∫—Ä–∞—ó–Ω–∞']",50.439014,30.506997,49,1,27,49,0,0,['4bf58dd8d48988d174941735'],['Coworking Space'],0
4fe8473de4b0227be10b3346,–û—Ñ–∏—Å –°–ë–£,['–£–∫—Ä–∞—ó–Ω–∞'],50.438774571174335,30.507475697160977,18,0,7,34,1,0,['4e52adeebd41615f56317744'],['Military Base'],0
5655c7d9498eb50df6a81b36,Park City,"['–¢–∞—Ä–∞—Å–æ–≤—Å–∫–∞—è 10–∞', '–ö–∏—ë–≤', '–£–∫—Ä–∞—ó–Ω–∞']",50.438935,30.507025,27,0,42,85,0,0,['52e81612bcbc57f1066b7a3d'],['Advertising Agency'],0
5149ad22f13682aa788e4c3a,—Å–ø–æ—Ä—Ç–∏–≤–Ω–∞—è –∞–ø—Ç–µ–∫–∞,"['–¢–∞—Ä–∞—Å–æ–≤–∫–∞—è 6', '–ö–∏—ó–≤', '–£–∫—Ä–∞—ó–Ω–∞']",50.43957734728102,30.507531166076657,6,1,3,6,0,0,['4bf58dd8d48988d104941735'],['Medical Center'],0
51a271df498e838205923e21,–¢–∞—Ä–∞—Å–æ–≤—Å–∫–∞—è 5,"['–¢–∞—Ä–∞—Å–æ–≤—Å–∫–∞—è 5', '–ö–∏—ó–≤', '–£–∫—Ä–∞—ó–Ω–∞']",50.43915029379988,30.507526344545326,25,0,16,26,0,0,['4bf58dd8d48988d130941735'],['Building'],0
559917f9498e9e8ceb7aa71f,DISH,"['—É–ª. –¢–∞—Ä–∞—Å–æ–≤—Å–∫–∞—è 7', '–ö–∏—ó–≤', '–£–∫—Ä–∞—ó–Ω–∞']",50.43929685499677,30.508017290630907,5,1,3,5,1,0,['4bf58dd8d48988d110951735'],['Salon / Barbershop'],0
55f6813f498e2e9e379fa927,Free English,['–£–∫—Ä–∞—ó–Ω–∞'],50.439334,30.507185,36,0,22,78,0,0,['52e81612bcbc57f1066b7a46'],['Private School'],0
53c80cce498ec426554bd931,"–°–µ—Ç—å –∑–∞–≤–µ–¥–µ–Ω–∏–π ""–õ–Æ–ë–û–í–¨&–ì–û–õ–û–î""","['–£–ª. –¢–∞—Ä–∞—Å–æ–≤—Å–∫–∞—è, 10-–∞', '–ö–∏—ó–≤, 01033', '–£–∫—Ä–∞—ó–Ω–∞']",50.43922424316406,30.507387161254883,22,0,5,23,0,0,['4bf58dd8d48988d124941735'],['Office'],0
52fd10ca498ebac011440bed,English with Olga,['–£–∫—Ä–∞—ó–Ω–∞'],50.439206,30.507241,55,2,14,90,2,0,['52e81612bcbc57f1066b7a48'],['Language School'],0
54cf69e7498ec48ec8cfb793,–ù–£–•–¢ –∫–æ—Ä–ø—É—Å –µ - –≤—ñ–¥–¥—ñ–ª –∫–∞–¥—Ä—ñ–≤,['–£–∫—Ä–∞—ó–Ω–∞'],50.439137897264814,30.507913060069537,8,0,5,8,0,0,['4bf58dd8d48988d197941735'],['College Administrative Building'],0
57594cd1498e0501039bf15e,–ï-–∫–æ—Ä–ø—É—Å –ù–£–•–¢,['–£–∫—Ä–∞—ó–Ω–∞'],50.438847,30.50781,3,0,1,3,0,0,['4bf58dd8d48988d197941735'],['College Administrative Building'],0
5176ab0ee4b071c32fe1c1fe,–¢–∞—Ä–∞—Å–æ–≤—Å–∫–∞—è 6–∞,"['–¢–∞—Ä–∞—Å–æ–≤—Å–∫–∞—è 6–∞', '–£–∫—Ä–∞—ó–Ω–∞']",50.4394475658975,30.507596850769136,90,0,36,121,0,0,['4d954b06a243a5684965b473'],['Residential Building (Apartment / Condo)'],0
52e155c9498e16e736fcf7b1,–£ –ª—é–±–∏–º—ã—Ö –¥–µ–≤–æ—á–µ–∫ üíÖ,['–£–∫—Ä–∞—ó–Ω–∞'],50.4394104096833,30.507041357214504,13,0,8,17,2,0,['4f04aa0c2fb6e1c99f3db0b8'],['Nail Salon'],0
52f60abe11d2b9e502321106,EasyMac,"['Tarasivska, 14 (–Ω–∞ —É–≥–ª—É –ù–∏–∫–æ–ª—å—Å–∫–æ-–ë–æ—Ç–∞–Ω–∏—á–µ—Å–∫–æ–π –∏ –¢–∞—Ä–∞—Å–æ–≤—Å–∫–æ–π)', 'Kyiv, 01033', '–£–∫—Ä–∞—ó–Ω–∞']",50.4386890352196,30.50720930099487,25,4,19,25,6,8.1,['4bf58dd8d48988d122951735'],['Electronics Store'],9
52f767a5498e7c10f59a8f19,Aristocrats.FM,"['–≤—É–ª. –¢–∞—Ä–∞—Å—ñ–≤—Å—å–∫–∞, 14', '–ö–∏—ó–≤, 01030', '–£–∫—Ä–∞—ó–Ω–∞']",50.43864245607703,30.50748852265471,586,1,532,1118,12,0,['5032856091d4c4b30a586d63'],['Radio Station'],0
5778e6f5498e3c4f77d2fabb,–ö–∞—Ö–µ—Ç–∏,['–£–∫—Ä–∞—ó–Ω–∞'],50.438983,30.507448,30,0,97,125,0,0,['4bf58dd8d48988d108941735'],['Dumpling Restaurant'],0
54fc7c90498e5eb5ae15eb91,"–†–∞–¥—ñ–æ ""–ê—Ä–∏—Å—Ç–æ–∫—Ä–∞—Ç–∏""","['–¢–∞—Ä–∞—Å—ñ–≤–∫–∞, 14', '–£–∫—Ä–∞—ó–Ω–∞']",50.438520651244296,30.50744064866072,10,0,7,10,0,0,['507c8c4091d498d9fc8c67a9'],['Public Art'],0
4faa99c2e4b0f8337cfb1670,"–°–∞–ª–æ–Ω –∫—Ä–∞—Å–æ—Ç—ã ""Victory""",['–£–∫—Ä–∞—ó–Ω–∞'],50.43895005026088,30.507479245135332,103,3,35,115,9,7.9,['4bf58dd8d48988d110951735'],['Salon / Barbershop'],11
5742efa1498e3b4a6560fb9b,–ö–∞—Ö–µ—Ç–∏,"['–¢–∞—Ä–∞—Å–æ–≤—Å–∫–∞—è 10–ê', '–ö–∏—ó–≤, 01033', '–£–∫—Ä–∞—ó–Ω–∞']",50.43925619022905,30.507413148880005,42,4,60,80,3,0,['5293a7d53cf9994f4e043a45'],['Caucasian Restaurant'],0
50cf1655e4b0f94b4162ceae,–í-–∫–æ—Ä–ø—É—Å –ù–£–•–¢,['–£–∫—Ä–∞—ó–Ω–∞'],50.439356730239304,30.50777188966809,1501,9,491,2049,11,0,['4bf58dd8d48988d198941735'],['College Academic Building'],0
55f3e941498ec3d220bfce97,üíáüèª,['–£–∫—Ä–∞—ó–Ω–∞'],50.439379,30.503565,3,0,1,3,0,0,['545419b1498ea6ccd0202f58'],['Home Service'],0
5374c488498eca67773ecbb5,–ê–ª–º–∞—Ä–∏ –¢—É—Ä,"['–ü–∞–Ω—å–∫–æ–≤—Å–∫–∞—è, 10', '–£–∫—Ä–∞—ó–Ω–∞']",50.43943725666104,30.503590576106994,8,0,5,9,1,0,['4f04b08c2fb6e1c99f3db0bd'],['Travel Agency'],0
539a1ca6498e0fb58c2a3cc1,Havana hostel,['–£–∫—Ä–∞—ó–Ω–∞'],50.438888,30.504044,143,2,38,171,2,0,['4bf58dd8d48988d1ee931735'],['Hostel'],0
4f6c3cdce4b0a235d575d36e,–ö–æ–Ω–∫–æ—Ä–¥ –ì—Ä—É–ø,"['–ö–∏—ó–≤', '–£–∫—Ä–∞—ó–Ω–∞']",50.438628,30.503261,18,0,7,18,0,0,['4bf58dd8d48988d124941735'],['Office'],0
50ffdd5ce4b0d6af80976d86,Grandajour,['–£–∫—Ä–∞—ó–Ω–∞'],50.439271,30.5038,4,0,3,4,0,0,['4bf58dd8d48988d11a951735'],['Bridal Shop'],0
4c94fd0094a0236a42c99112,Bakery Cafe,"['–ü–∞–Ω—å–∫–æ–≤—Å–∫–∞—è —É–ª., 19 (–°–∞–∫—Å–∞–≥–∞–Ω—Å–∫–æ–≥–æ)', '–ö–∏—ó–≤', '–£–∫—Ä–∞—ó–Ω–∞']",50.43945996139842,30.50345286659626,11,3,10,11,0,0,['4bf58dd8d48988d16a941735'],['Bakery'],0
50c1d213e4b0757ad393e5e3,ICTV Newsroom,['–£–∫—Ä–∞—ó–Ω–∞'],50.43918128066699,30.50418406556787,54,0,23,54,0,0,['4bf58dd8d48988d124941735'],['Office'],0
5252847a93cda7fa0ac9fc0f,Wine House,"['–≤—É–ª. –°–∞–∫—Å–∞–≥–∞–Ω—Å—å–∫–æ–≥–æ, 68/21', '–ö–∏—ó–≤', '–£–∫—Ä–∞—ó–Ω–∞']",50.43892819779918,30.503175258636475,126,6,93,127,5,6.4,"['4bf58dd8d48988d119951735', '4bf58dd8d48988d186941735']","['Wine Shop', 'Liquor Store']",10
5715f7aa498e933ac771f15c,Esse House Production,['–£–∫—Ä–∞—ó–Ω–∞'],50.439348,30.503091,20,0,13,20,1,0,['52e81612bcbc57f1066b7a3d'],['Advertising Agency'],0
507bf263e4b0468865905079,Unex Bank,['–£–∫—Ä–∞—ó–Ω–∞'],50.43924938021118,30.503081433601253,55,3,26,57,1,0,['4bf58dd8d48988d10a951735'],['Bank'],0
54096f2a498e1edfb1dc73bb,–ö–∞—Å–∫–∞–¥,"['–ü–∞–Ω—å–∫–æ–≤—Å–∫–∞—è 17', '–£–∫—Ä–∞—ó–Ω–∞']",50.439422607421875,30.50360679626465,9,0,7,11,1,0,['4bf58dd8d48988d110951735'],['Salon / Barbershop'],0
554b73f1498e4086265a561e,–§–æ–Ω–¥ '–°—Ö—ñ–¥–Ω–∞ –Ñ–≤—Ä–æ–ø–∞',"['–ö–∏—ó–≤', '–£–∫—Ä–∞—ó–Ω–∞']",50.43920397211163,30.50341641978359,20,0,10,36,1,0,['50328a8e91d4c4b30a586d6c'],['Non-Profit'],0
58b01e262980db0b0f3fe265,–õ–ù–ú –õ–Ü–ì–ê–õ –ì–†–£–ü,"['–°–∞–∫—Å–∞–≥–∞–Ω—Å–∫–æ–≥–æ 68/21', '–ö–∏—ó–≤, 01033', '–£–∫—Ä–∞—ó–Ω–∞']",50.438924,30.503307,1,0,1,1,1,0,['52f2ab2ebcbc57f1066b8b3f'],['Lawyer'],0
5810dd3ad67cadfa1e3334a2,Two hearts studio,"[""Saksahans'koho vulytsya, 85"", '–ö–∏—ó–≤', '–£–∫—Ä–∞—ó–Ω–∞']",50.438681,30.502725,16,0,13,16,1,0,['4bf58dd8d48988d108951735'],"[""Women's Store""]",0
4fbcafbfe4b083d188d8d678,–ü–∞—Ä–∏–∫–º–∞—Ö–µ—Ä—Å–∫–∞—è,"['–ü–∞–Ω—å–∫–æ–≤—Å–∫–∞—è 17', '–£–∫—Ä–∞—ó–Ω–∞']",50.439249381212846,30.503406864426328,41,0,8,42,0,0,['4bf58dd8d48988d110951735'],['Salon / Barbershop'],0
5506e893498e36719a178233,ULTRA - fan-shop,['–£–∫—Ä–∞—ó–Ω–∞'],50.43897689655071,30.503863637518034,63,0,59,95,3,0,['4bf58dd8d48988d106951735'],"[""Men's Store""]",0
4c3d7808933b0f47fa72e521,Star Light Media,"['–ö–∏—ó–≤', '–£–∫—Ä–∞—ó–Ω–∞']",50.439614808636705,30.504149913074667,1086,0,136,1101,5,0,['4bf58dd8d48988d1f1931735'],['General Entertainment'],0
55a4ea69498ebf3dc8035701,Zarina marketing department,['–£–∫—Ä–∞—ó–Ω–∞'],50.43950330641218,30.503054594797295,14,0,7,14,0,0,['52e81612bcbc57f1066b7a3d'],['Advertising Agency'],0
4f34e441e4b0d7a27c44f18b,–õ–∏—Ü–µ–π ‚Ññ21,"['–≤—É–ª. –°–∞–∫—Å–∞–≥–∞–Ω—Å—å–∫–æ–≥–æ, 64', '–ö–∏—ó–≤, 01033', '–£–∫—Ä–∞—ó–Ω–∞']",50.438487617066556,30.50377688179254,265,1,85,312,1,0,['4bf58dd8d48988d13b941735'],['School'],0
50fafc61e4b01b267b278ffd,—Å–∞–∫—Å–∞–≥–∞–Ω—Å–∫–æ–≥–æ 85,['–£–∫—Ä–∞—ó–Ω–∞'],50.43849791457022,30.502468222356388,371,1,153,474,1,0,['4d954b06a243a5684965b473'],['Residential Building (Apartment / Condo)'],0
58bd7da761052870f4b98361,Genius Marketing,"['—É–ª–∏—Ü–∞ –ü–∞–Ω—å–∫–æ–≤—Å–∫–∞—è, 14', '–ö–∏—ó–≤', '–£–∫—Ä–∞—ó–Ω–∞']",50.439464,30.503246,5,0,2,5,0,0,['56aa371be4b08b9a8d573517'],['Business Center'],0
4ded08f322719aa552467b5e,–ì—Ä–∞–Ω–¥ –ê–∂—É—Ä,"['–ü–∞–Ω—å–∫—ñ–≤—Å—å–∫–∞, 17', '–ö–∏—ó–≤', '–£–∫—Ä–∞—ó–Ω–∞']",50.439294816520494,30.50390993504599,53,2,43,55,1,0,"['4bf58dd8d48988d108951735', '4bf58dd8d48988d104951735', '4bf58dd8d48988d11a951735']","[""Women's Store"", 'Boutique', 'Bridal Shop']",0
56e7efda498e282c283e8c3a,smoke point room,"['–≤—É–ª. –°–∞–∫—Å–∞–≥–∞–Ω—Å—å–∫–æ–≥–æ, 81', '–ö–∏—ó–≤, 01033', '–£–∫—Ä–∞—ó–Ω–∞']",50.43831421230237,30.503512025003648,255,8,281,560,20,7.7,['4bf58dd8d48988d119941735'],['Hookah Bar'],29
56a5db35498e01fa513e4c45,–Ø –≤ –ü—Å–∏—Ö—É—à–∫–µ,"['–ü–∞–Ω—å–∫–æ–≤—Å–∫–∞—è 14', '–ö–∏—ó–≤', '–£–∫—Ä–∞—ó–Ω–∞']",50.43924,30.503057,5,0,3,6,0,0,['52e81612bcbc57f1066b7a39'],['Mental Health Office'],0
4d2da913ae3a8cfad982c770,–°–∞–ª–æ–Ω ¬´O–ª–µ–∫—Å–∞–Ω–¥—Ä –°–∏—Ç–Ω—ñ–∫–æ–≤¬ª / Imitato by Sytnikov,"['–≤—É–ª. –ü–∞–Ω—å–∫—ñ–≤—Å—å–∫–∞, 19', '–ö–∏—ó–≤, 01033', '–£–∫—Ä–∞—ó–Ω–∞']",50.43926796793018,30.50309134148781,420,5,207,576,22,8.4,"['4bf58dd8d48988d110951735', '4bf58dd8d48988d10c951735']","['Salon / Barbershop', 'Cosmetics Shop']",25
590c35fd61f0701b4642f28d,Nashe Atelier,"['–ü–∞–Ω—å–∫–æ–≤—Å–∫–∞—è 25', '–ö–∏—ó–≤', '–£–∫—Ä–∞—ó–Ω–∞']",50.439526,30.503796,1,0,1,1,0,0,['5032781d91d4c4b30a586d5b'],['Tailor Shop'],0
57399dc0498e57bc0140a0c9,Amoniac O√ú,"['–°–∞–∫—Å–∞–≥–∞–Ω—Å—å–∫–æ–≥–æ –≤—É–ª–∏—Ü—è, 68 (–ü–∞–Ω—å–∫—ñ–≤—Å—å–∫–∞)', '–ö–∏—ó–≤', '–£–∫—Ä–∞—ó–Ω–∞']",50.43897894650651,30.5031199482806,121,0,53,192,1,0,['4bf58dd8d48988d125941735'],['Tech Startup'],0
50b0db77e4b00b39bd476968,Hugo Boss,['–£–∫—Ä–∞—ó–Ω–∞'],50.438688,30.503047,26,1,23,27,4,0,['4bf58dd8d48988d104951735'],['Boutique'],0
58deff9d8cfe546addb89761,–ü—Ä–∏—Ç–æ–∫ –°–∞–ª–≥–∏—Ä–∞,"['Saksahanskoho (Pankivska)', '–ö–∏—ó–≤', '–£–∫—Ä–∞—ó–Ω–∞']",50.438511,30.502858,19,0,7,19,0,0,['4d954b06a243a5684965b473'],['Residential Building (Apartment / Condo)'],0
5843575e8ae36321db673288,"Pankivska Str, 19","['Pankivska Street, 19', '–ö–∏—ó–≤', '–£–∫—Ä–∞—ó–Ω–∞']",50.439186,30.503637,71,0,3,76,0,0,['4d954b06a243a5684965b473'],['Residential Building (Apartment / Condo)'],0
4f34e34de4b0881788fcd7c6,Domino's Pizza,"['–≤—É–ª. –°–∞–∫—Å–∞–≥–∞–Ω—Å—å–∫–æ–≥–æ, 68/21', '–ö–∏—ó–≤, 01033', '–£–∫—Ä–∞—ó–Ω–∞']",50.43867536874997,30.503368377685547,2633,50,2081,3475,227,7.7,['4bf58dd8d48988d1ca941735'],['Pizza Place'],313
58f723b4419a9e1422d64ae8,BORN Solutions,"[""14 Pan'kivs'ka vulytsya"", '–ö–∏—ó–≤', '–£–∫—Ä–∞—ó–Ω–∞']",50.439458,30.503149,12,0,1,12,0,0,['4bf58dd8d48988d124941735'],['Office'],0
51fcf1ce498ea033bc43ab2b,–í–∏–Ω–æ –ì—Ä–∞–¥,"['–≤—É–ª. –°–∞–∫—Å–∞–≥–∞–Ω—Å—å–∫–æ–≥–æ, 83', '–ö–∏—ó–≤, 01033', '–£–∫—Ä–∞—ó–Ω–∞']",50.438464897136036,30.502856514938813,1972,65,1916,3630,124,7.9,"['4bf58dd8d48988d1c0941735', '4bf58dd8d48988d123941735']","['Mediterranean Restaurant', 'Wine Bar']",201
5470684b498e180cb6aeeed8,–≠—Ñ–∏—Ä–Ω–∞—è –∞–ø–ø–∞—Ä–∞—Ç–Ω–∞—è ICTV,['–£–∫—Ä–∞—ó–Ω–∞'],50.43938977705519,30.50400565453018,249,0,65,314,0,0,['4bf58dd8d48988d11a941735'],['Other Nightlife'],0
535501fa498e255471f93474,Gentlemen's Club Barbershop,"['–≤—É–ª. –ü–∞–Ω—å–∫—ñ–≤—Å—å–∫–∞, 12 (–≤—É–ª. –°–∞–∫—Å–∞–≥–∞–Ω—Å–∫–æ–≥–æ)', '–ö–∏—ó–≤, 01033', '–£–∫—Ä–∞—ó–Ω–∞']",50.43956026451399,30.503513216972348,724,23,1012,1877,84,9.0,['4bf58dd8d48988d110951735'],['Salon / Barbershop'],106
58b988224bc2f1632a560f58,MEAT,['–£–∫—Ä–∞—ó–Ω–∞'],50.439432,30.502982,65,1,23,84,5,0,['4bf58dd8d48988d1f4941735'],['Design Studio'],0
5343c3a3498efaba2d2c3d37,"–î–≤–æ—Ä–∏–∫ - –õ—å–≤–∞ –¢–æ–ª—Å—Ç–æ–≥–æ, 25",['–£–∫—Ä–∞—ó–Ω–∞'],50.44082046181065,30.50494260324072,16,0,7,16,0,0,['4bf58dd8d48988d1e7941735'],['Playground'],0
56668e9f498e735784030c61,VMMA Show room,"['–ù–∏–∫–æ–ª—å—Å–∫–æ-–ë–æ—Ç–∞–Ω–∏—á–µ—Å–∫–∞—è 14/7', '–ö–∏—ó–≤', '–£–∫—Ä–∞—ó–Ω–∞']",50.44072962522461,30.505506559755666,12,0,6,12,1,0,['4bf58dd8d48988d108951735'],"[""Women's Store""]",0
550be79d498e82297b429ec9,—Ä–∞–±–æ—á–∞—è –ø–µ—â–µ—Ä–∞,['–£–∫—Ä–∞—ó–Ω–∞'],50.440415824675696,30.505072345283043,18,0,2,18,0,0,['4eb1d4d54b900d56c88a45fc'],['Mountain'],0
5342a17a498e2ec5e00ed102,–û–ø–µ—Ä–∞—Ç–æ—Ä—Å—å–∫–∞ ICTV,['–£–∫—Ä–∞—ó–Ω–∞'],50.43971633911133,30.504398345947266,34,0,7,34,2,0,['4bf58dd8d48988d17f941735'],['Movie Theater'],0
5634afe5498ec8194bf7dff1,–£ –†–∏—Ç—ã,['–£–∫—Ä–∞—ó–Ω–∞'],50.440683,30.505482,3,0,2,3,0,0,['4bf58dd8d48988d1ed941735'],['Spa'],0
51862022498e858e79c414da,–ù–ê–£ 8 –∫–æ—Ä–ø—É—Å,['–£–∫—Ä–∞—ó–Ω–∞'],50.439750193431586,30.504363650006447,35,0,16,35,0,0,['4bf58dd8d48988d199941735'],['College Arts Building'],0
5111afb2e4b0c5761d6417b3,–ø–ª–æ—â–∞–¥–∫–∞ —Å –∫–∞—á–µ–ª—è–º–∏,['–£–∫—Ä–∞—ó–Ω–∞'],50.440067291259766,30.504465103149414,4,0,4,4,0,0,['4bf58dd8d48988d1e7941735'],['Playground'],0
55b1386e498ef393fd49d3b0,–ú–∞–ª–µ–Ω—å–∫–∞ –ö–∏—à–µ–Ω—å–∫–∞,['–£–∫—Ä–∞—ó–Ω–∞'],50.44038485464454,30.504934858226072,47,0,92,155,0,0,['4bf58dd8d48988d118951735'],['Grocery Store'],0
5460edc1498e013f497e22f7,vgscorporation,['–£–∫—Ä–∞—ó–Ω–∞'],50.43976345255496,30.504666792925814,15,0,4,15,0,0,['52e81612bcbc57f1066b7a3d'],['Advertising Agency'],0
51659a94e4b08adbe849be71,–°—É–ø–µ—Ä–º–∞—Ä–∫–µ—Ç —ç–ª–µ–∫—Ç—Ä–æ–Ω–∏–∫–∏ –¢–ñ–ö,['–£–∫—Ä–∞—ó–Ω–∞'],50.439697,30.504429,34,0,6,34,0,0,['4f04b1572fb6e1c99f3db0bf'],['Storage Facility'],0
4e94103f49015a5ff46f3449,Complex Ingenering,"['Nikolsko-Botanicheskaya 7/14', '–ö–∏—ó–≤', '–£–∫—Ä–∞—ó–Ω–∞']",50.440056606391416,30.50475668333265,39,0,7,39,0,0,['4bf58dd8d48988d174941735'],['Coworking Space'],0
5211d25c11d23c1ac6a9c63a,Fast Ducks Coffee,"[""Pan'kivska"", '–£–∫—Ä–∞—ó–Ω–∞']",50.439683,30.504269,15,0,7,15,0,0,['4bf58dd8d48988d1e0931735'],['Coffee Shop'],0
5358b92a498efe35bd483013,üêô –í–æ–∑–ª–µ –¥–æ–º–∞ –æ—Å—å–º–∏–Ω–æ–≥–∞ üêô,['–£–∫—Ä–∞—ó–Ω–∞'],50.44037246818989,30.504606944310137,2,0,1,2,0,0,"['4bf58dd8d48988d162941735', '4bf58dd8d48988d103941735']","['Other Great Outdoors', 'Home (private)']",0
56160930498ef562e9d6592a,Pediatry,['–£–∫—Ä–∞—ó–Ω–∞'],50.44057846069336,30.504831314086914,1,0,1,1,0,0,['4bf58dd8d48988d196941735'],['Hospital'],0
5354f062498eaa07b698a817,üå∏–£ –ø—Å–∏—Ö–æ–ª–æ–≥–∞üå∏,['–£–∫—Ä–∞—ó–Ω–∞'],50.440547,30.504285,1,0,1,1,0,0,['4f2a210c4b9023bd5841ed28'],['Housing Development'],0
52793307498eb1b6f2de5374,At Marta & Nata‚Äôs,['–£–∫—Ä–∞—ó–Ω–∞'],50.440054536802855,30.50427542290594,53,1,4,53,1,0,['4bf58dd8d48988d121941735'],['Lounge'],0
50a495e7e4b0ae69ee45e39c,Starlight Sales,"['Pankivska 11', '–ö–∏—ó–≤', '–£–∫—Ä–∞—ó–Ω–∞']",50.43964989653233,30.50441838272578,681,0,44,749,7,0,['4bf58dd8d48988d124941735'],['Office'],0
4e1f3945ae60cd553deef9d7,Konkord,['–£–∫—Ä–∞—ó–Ω–∞'],50.43968500694811,30.50511832476301,11,0,5,11,0,0,[],[],0
531dc3f711d2b89bbb58c662,–†–µ–¥–∞–∫—Ü–∏—è –∂—É—Ä–Ω–∞–ª–∞ The One,"['–ù–∏–∫–æ–ª—å—Å–∫–æ-–ë–æ—Ç–∞–Ω–∏—á–µ—Å–∫–∞—è 14/7', '–ö–∏—ó–≤', '–£–∫—Ä–∞—ó–Ω–∞']",50.43977584259842,30.50513118493724,7,0,5,7,1,0,['4bf58dd8d48988d124941735'],['Office'],0
50d8dd96e4b0f031285a813f,—Ü–∞—Ä—Å–∫–∞—è –∫—É—Ä–∏–ª–∫–∞,['–£–∫—Ä–∞—ó–Ω–∞'],50.44050979614258,30.504671096801758,16,0,10,16,1,0,['4f2a210c4b9023bd5841ed28'],['Housing Development'],0
4f5d9573e4b070e048de31bb,–ö—É—Ä–∏–ª–∫–∞ –ü–æ–¥ ICTV,['–£–∫—Ä–∞—ó–Ω–∞'],50.43963957664098,30.504306019673706,167,1,39,168,1,0,['4bf58dd8d48988d162941735'],['Other Great Outdoors'],0
4ec4d78077c8d69510f62cdc,–ò–Ω—Å—Ç–∏—Ç—É—Ç –ø—Å–∏—Ö–æ–ª–æ–≥–∏–∏ –∏–º. –ì.–°.–ö–æ—Å—Ç—é–∫–∞ –ê–ü–ù –£–∫—Ä–∞—ó–Ω–∏,"['—É–ª.–ü–∞–Ω–∫–∏–≤—Å–∫–∞—è,2', '–ö–∏—ó–≤', '–£–∫—Ä–∞—ó–Ω–∞']",50.440382793461744,30.504691578734885,186,0,81,208,0,0,"['4bf58dd8d48988d1ae941735', '4bf58dd8d48988d197941735']","['University', 'College Administrative Building']",0
576ce9c4498e3e0c5747078e,OK Media,"['–ù–∏–∫–æ–ª—å—Å–∫–æ-–ë–æ—Ç–∞–Ω–∏—á–µ—Å–∫–∞—è 17/4 (–ü–∞–Ω—å–∫–æ–≤—Å–∫–∞—è 4/17)', '–ö–∏—ó–≤', '–£–∫—Ä–∞—ó–Ω–∞']",50.440199,30.504372,52,0,92,158,1,0,['56aa371be4b08b9a8d573523'],['Film Studio'],0
4f72edc7e4b078214291fa4f,–°–∫–≤–µ—Ä –Ω–∞ –ü–∞–Ω—å–∫—ñ–≤—Å—å–∫—ñ–π,"['–≤—É–ª. –ü–∞–Ω—å–∫—ñ–≤—Å—å–∫–∞, 2/25', '–ö–∏—ó–≤', '–£–∫—Ä–∞—ó–Ω–∞']",50.44065354917539,30.505495369434353,768,4,421,1089,11,5.7,['4bf58dd8d48988d163941735'],['Park'],20
58aff09e61052868fbe65a40,Softermii,['–£–∫—Ä–∞—ó–Ω–∞'],50.440292,30.505039,47,0,18,72,0,0,['52f2ab2ebcbc57f1066b8b36'],['IT Services'],0
554a79a6498e35cdbab03573,Apartment in Kyiv,['–£–∫—Ä–∞—ó–Ω–∞'],50.440712,30.50378,5,0,2,9,0,0,['4d954b06a243a5684965b473'],['Residential Building (Apartment / Condo)'],0
5405fadb498e50e6e2394fc1,–ª–∞–≤–æ—á–∫–∞ –≤–æ–∑–ª–µ –¥–æ–º–∞,"['–ù–∏–∫–æ–ª—å—Å–∫–æ-–ë–æ—Ç–∞–Ω–∏—á–µ—Å–∫–∞—è 31', '–ö–∏—ó–≤', '–£–∫—Ä–∞—ó–Ω–∞']",50.440697,30.503432,9,0,3,10,0,0,['4bf58dd8d48988d1e7941735'],['Playground'],0
54e5c435498e4ac03ebc5638,Sonnechko apt.,"['–ö—Ä–∞—Å–Ω–æ–∞—Ä–º–µ–π—Å–∫–∞—è, 48', '–ö–∏—ó–≤', '–£–∫—Ä–∞—ó–Ω–∞']",50.43962748067104,30.503728703913726,10,0,3,11,0,0,['4d954b06a243a5684965b473'],['Residential Building (Apartment / Condo)'],0
515c0ef7e4b0acba8eb47e7f,–ò–Ω—Ç–µ—Ä–Ω–µ—Ç-–æ—Ç–¥–µ–ª ICTV,['–£–∫—Ä–∞—ó–Ω–∞'],50.439796,30.504145,44,1,6,45,1,0,['52e81612bcbc57f1066b7a31'],['TV Station'],0
510cc463e4b0ec5cc0cdaaff,–¢–∂–∫ ICTV,['–£–∫—Ä–∞—ó–Ω–∞'],50.439802672246586,30.504134758768707,9,0,5,9,0,0,['4bf58dd8d48988d127941735'],['Conference Room'],0
5211d25c11d23c1ac6a9c63a,Fast Ducks Coffee,"[""Pan'kivska"", '–£–∫—Ä–∞—ó–Ω–∞']",50.439683,30.504269,15,0,7,15,0,0,['4bf58dd8d48988d1e0931735'],['Coffee Shop'],0
4f2c262ce4b01c385e134fb4,–°–ø–∞—Ä–µ–Ω—ã–µ –ª–∞–≤–æ—á–∫–∏,"['–ù–∏–∫–æ–ª—å—Å–∫–æ –ë–æ—Ç–∞–Ω–∏—á–µ—Å–∫–∞—è 31', '–ö–∏—ó–≤', '–£–∫—Ä–∞—ó–Ω–∞']",50.44053555085493,30.50370687806345,172,0,30,174,0,0,['4bf58dd8d48988d1e7941735'],['Playground'],0
527a2b33498e15a92c7ddcdb,–¢–µ–ª–µ–∫–∞—Ñ–µ ICTV,"['–≤—É–ª. –ü–∞–Ω—å–∫—ñ–≤—Å—å–∫–∞, 11', '–ö–∏—ó–≤', '–£–∫—Ä–∞—ó–Ω–∞']",50.439666,30.503927,177,0,34,180,0,0,['5665c7b9498e7d8a4f2c0f06'],['Corporate Coffee Shop'],0
51b9c382498e58f4c0a46d2b,"–û–û–û ""–ö–∏–∑–ª—è—Ä –£–∫—Ä–∞–∏–Ω–∞""","['–ü–∞–Ω—å–∫–æ–≤—Å–∫–∞—è, 6', '–ö–∏—ó–≤', '–£–∫—Ä–∞—ó–Ω–∞']",50.43965,30.504026,4,0,3,4,0,0,['4bf58dd8d48988d174941735'],['Coworking Space'],0
536d069a498ea93da304b6e2,–õ–∞–≤–∫–∞ –ø–æ–¥ ICTV,['–£–∫—Ä–∞—ó–Ω–∞'],50.439763,30.504,12,0,8,12,0,0,['4deefb944765f83613cdba6e'],['Historic Site'],0
51a36f4e498e6d1b98417a9d,"–ù–∏–∫–æ–ª—å—Å–∫–æ-–ë–æ—Ç–∞–Ω–∏—á–µ—Å–∫–∞—è ""–ü—Ä–æ–º–∏–Ω—å""",['–£–∫—Ä–∞—ó–Ω–∞'],50.440366261055864,30.504818120328668,38,0,14,38,0,0,['4bf58dd8d48988d127941735'],['Conference Room'],0
4f495046e4b068e1d089b8fc,–õ–∞—Ä—á–∏–∫ –ø–æ–¥ –¥–æ–º–æ–º,['–£–∫—Ä–∞—ó–Ω–∞'],50.44039930780394,30.504421922919825,214,1,57,237,2,0,['4bf58dd8d48988d1f9941735'],['Food & Drink Shop'],0
57efd6d7498e25ef23a49810,Daruga House,"['–ù–∏–∫–æ–ª—å—Å—å–∫–æ-–ë–æ—Ç–∞–Ω–∏—á–µ—Å–∫–∞—è 17/4', '–ö–∏—ó–≤, 01032', '–£–∫—Ä–∞—ó–Ω–∞']",50.440548,30.504286,28,0,2,29,0,0,['4d954b06a243a5684965b473'],['Residential Building (Apartment / Condo)'],0
58696a21e6160c429b5e7676,"–§–∞–±—Ä–∏–∫–∞ ""–û–ª—ë–Ω–∫–∞""",['–£–∫—Ä–∞—ó–Ω–∞'],50.439791,30.503885,3,0,3,3,0,0,['4d954b06a243a5684965b473'],['Residential Building (Apartment / Condo)'],0
57514772cd10305757d04e98,–ï–∫–æ-–õ–∞–≤–∫–∞,"['–°–∞–∫—Å–∞–≥–∞–Ω—Å–∫–æ–≥–æ', '–ö–∏—ó–≤', '–£–∫—Ä–∞—ó–Ω–∞']",50.439689,30.504033,11,0,11,11,0,0,['50aa9e744b90af0d42d5de0e'],['Health Food Store'],0
4ff06310e4b0cf9880da027e,–î–≤–æ—Ä–∏–∫ –Ω–∞ –Ω–∏–∫–æ–ª—å—Å–∫–æ –±–æ—Ç–∞–Ω–∏—á–µ—Å–∫–æ–π,['–£–∫—Ä–∞—ó–Ω–∞'],50.44011026845622,30.503667479709325,28,0,11,29,0,0,['4bf58dd8d48988d1e7941735'],['Playground'],0
52ad8d44498efd4b4c13c268,–°–≤–æ–±–æ–¥–∞ –°–ª–æ–≤–∞,"['–≤—É–ª. –ü–∞–Ω—å–∫—ñ–≤—Å—å–∫–∞, 11', '–ö–∏—ó–≤', '–£–∫—Ä–∞—ó–Ω–∞']",50.43966848840079,30.504216377616803,26,0,17,27,0,0,['52e81612bcbc57f1066b7a31'],['TV Station'],0
56ae8b2c498eaae82d2e01a5,"–ú–∏–∫—ñ–ª—å—Å—å–∫–æ-–ë–æ—Ç–∞–Ω—ñ—á–Ω–∞, 27/29","['–≤—É–ª. –ú–∏–∫—ñ–ª—å—Å—å–∫–æ-–ë–æ—Ç–∞–Ω—ñ—á–Ω–∞, 27/29', '–ö–∏—ó–≤', '–£–∫—Ä–∞—ó–Ω–∞']",50.44090096298545,30.503702922440212,76,0,44,139,0,0,['4d954b06a243a5684965b473'],['Residential Building (Apartment / Condo)'],0
50e6fcd416487146b9b3deab,"–≤—É–ª. –ü–∞–Ω—å–∫—ñ–≤—Å—å–∫–∞, 6","['–≤—É–ª. –ü–∞–Ω—å–∫—ñ–≤—Å—å–∫–∞, 6', '–ö–∏—ó–≤', '–£–∫—Ä–∞—ó–Ω–∞']",50.43988483603352,30.504130125045776,108,0,16,125,1,0,['4d954b06a243a5684965b473'],['Residential Building (Apartment / Condo)'],0
524d1f3f11d2986c602ea510,StarLight Brand Content,"['–ü–∞–Ω—å–∫–æ–≤—Å–∫–∞—è 11', '–£–∫—Ä–∞—ó–Ω–∞']",50.439627189395544,30.50399905039712,633,1,58,677,4,0,['4bf58dd8d48988d124941735'],['Office'],0
537bd1ff498e262a54b4cd21,–ù–∏–∫–æ–ª—å—Å–∫–æ-–ë–æ—Ç–∞–Ω–∏—á–µ—Å–∫–∞—è 17/4,['–£–∫—Ä–∞—ó–Ω–∞'],50.440128854622756,30.50441131245568,91,0,80,197,0,0,['4d954b06a243a5684965b473'],['Residential Building (Apartment / Condo)'],0
5433f7d7498e591cd91810e9,Cathy Telle,"['–≤—É–ª. –ü–∞–Ω—å–∫—ñ–≤—Å—å–∫–∞, 17', '–ö–∏—ó–≤', '–£–∫—Ä–∞—ó–Ω–∞']",50.43936706935647,30.50377552732352,108,1,67,160,10,7.8,['4bf58dd8d48988d11a951735'],['Bridal Shop'],11
547b4b4c498e5c0b577dbedd,–£ –õ–∞—Ä—á–∏–∫–∞,"['–ù–∏–∫–æ–ª—å—Å–∫–æ-–±–æ—Ç–∞–Ω–∏—á–µ—Å–∫–∞—è, 17/19, –∫–≤. 20', '–ö–∏—ó–≤', '–£–∫—Ä–∞—ó–Ω–∞']",50.43959623625488,30.505290595071127,3,0,2,3,0,0,['4bf58dd8d48988d110951735'],['Salon / Barbershop'],0
5030b44fe4b07730f51fae0e,ictv AVM-6,"['–£–ª. –ü–∞–Ω—å–∫–æ–≤—Å–∫–∞—è, 11', '–£–∫—Ä–∞—ó–Ω–∞']",50.439402174018056,30.504396373392396,198,0,14,198,0,0,['4bf58dd8d48988d125941735'],['Tech Startup'],0
533cf660498e69d5fb354f7c,Gunter&Hauer,"['off. 4, Mykilsko-Botanichna 15/17', '–ö–∏—ó–≤, 01033', '–£–∫—Ä–∞—ó–Ω–∞']",50.43910490016464,30.50530111896113,2,0,2,2,0,0,['4bf58dd8d48988d124941735'],['Office'],0
5188e81e498e6e455e5a0380,–°—Ç—É–¥–∏—è,['–£–∫—Ä–∞—ó–Ω–∞'],50.438881,30.504926,7,1,6,8,1,0,['50328a8e91d4c4b30a586d6c'],['Non-Profit'],0
4f4e7ac5e4b0657aa683525d,TouchMe,['–£–∫—Ä–∞—ó–Ω–∞'],50.43915857651382,30.50544350865611,109,0,107,270,2,0,['4bf58dd8d48988d125941735'],['Tech Startup'],0
55ad1bd7498e0ce43c4d7fd2,–°–ø–µ—Ä–∫–æ,['–£–∫—Ä–∞—ó–Ω–∞'],50.438995486262485,30.505002353329143,3,0,2,3,0,0,['4bf58dd8d48988d124941735'],['Office'],0
517a04bd498e0661cc1fc93d,–ê–°–ë-3,['–£–∫—Ä–∞—ó–Ω–∞'],50.43932342529297,30.5042781829834,91,0,10,91,1,0,['4eb1bea83b7b6f98df247e06'],['Factory'],0
520f551411d2c0d41458cebb,"–ü–∞–Ω—å–∫–æ–≤—Å–∫–∞—è, 11",['–£–∫—Ä–∞—ó–Ω–∞'],50.439530170267645,30.504538395896795,7,0,7,7,0,0,['4bf58dd8d48988d124941735'],['Office'],0
4d722ffc3815f04d0c728967,–ù–æ–≥–∏–≤—Ä—É–∫–∏ –ê–≥–µ–Ω—Ç—Å—Ç–≤–æ –ü—É—Ç–µ—à–µ—Å—Ç–≤–∏–π,"['–≤—É–ª. –ê–Ω—Ç–æ–Ω–æ–≤–∏—á–∞, 47–± (–≤—É–ª. –§—ñ–∑–∫—É–ª—å—Ç—É—Ä–Ω–∞)', '–ö–∏—ó–≤, 03187', '–£–∫—Ä–∞—ó–Ω–∞']",50.43897484276053,30.505131438845854,1441,5,143,1575,7,7.2,['4f04b08c2fb6e1c99f3db0bd'],['Travel Agency'],12
54099667498edbb4b83d412a,"–ú–∞—Ä–∫–µ—Ç ""–ü–∞–Ω—å–∫—ñ–≤—Å—å–∫–∏–π""","['–ü–∞–Ω—å–∫–æ–≤—Å–∫–∞—è', '–£–∫—Ä–∞—ó–Ω–∞']",50.439344359917,30.504443743721374,13,0,9,13,0,0,['4d954b0ea243a5684a65b473'],['Convenience Store'],0
5624cd82498ed9f1fb343fe2,Appfellas,"['Nikolasko-botanichna 15/17', '–ö–∏—ó–≤', '–£–∫—Ä–∞—ó–Ω–∞']",50.43952398091715,30.505175338837507,6,0,3,6,0,0,['5032764e91d4c4b30a586d5a'],['Campaign Office'],0
50f67c48e4b0a61af13bd044,AMAI designlab,"['–≤—É–ª. –ú–∏–∫—ñ–ª—å—Å—å–∫–æ-–ë–æ—Ç–∞–Ω—ñ—á–Ω–∞, 15/17–∞', '–ö–∏—ó–≤', '–£–∫—Ä–∞—ó–Ω–∞']",50.43911934964638,30.504686594124145,148,4,9,148,3,0,['4bf58dd8d48988d124941735'],['Office'],0
53fb2257498e83dc4d2aeefd,–Ω–∏–∫–æ–ª—å—Å–∫–æ-–±–æ—Ç–∞–Ω–∏—á–µ—Å–∫–∞—è 15/17,"['–ù–∏–∫–æ–ª—å—Å–∫–æ-–ë–æ—Ç–∞–Ω–∏—á–µ—Å–∫–∞—è 15/17', '–ö–∏—ó–≤', '–£–∫—Ä–∞—ó–Ω–∞']",50.43883033314749,30.504748690956735,47,0,59,191,0,0,['4bf58dd8d48988d124941735'],['Office'],0
57e25b52498e2013c0fc470f,–í –æ—Ñ–∏—Å–µ,"['–ù–∏–∫–æ–ª—å—Å–∫–æ - –ë–æ—Ç–∞–Ω–∏—á–µ—Å–∫–∞—è 10', '–£–∫—Ä–∞—ó–Ω–∞']",50.439193,30.505904,30,0,1,30,0,0,['4bf58dd8d48988d124941735'],['Office'],0
587135c50aac7528e968618e,–ü—ñ–ø–ø–∞-–ø–µ–ø–ø–∞-–º–∞—Ä–º—É–ª—î—Ç–∫–∞-—à–Ω—ñ–ø–µ–ª—å—Å–æ–Ω Mansion,"['–≤—É–ª. –ú–∏–∫—ñ–ª—å—Å—å–∫–æ-–±–æ—Ç–∞–Ω—ñ—á–Ω–∞ 15-17', '–ö–∏—ó–≤', '–£–∫—Ä–∞—ó–Ω–∞']",50.439114,30.50533,8,0,3,8,0,0,['4d954b06a243a5684965b473'],['Residential Building (Apartment / Condo)'],0
52ea79d8498e2e9e7ccd0efd,–Ω–∏–∫–æ–ª—å—Å–∫–æ-–±–æ—Ç–∞–Ω–∏—á–µ—Å–∫–∞—è 17/19,['–£–∫—Ä–∞—ó–Ω–∞'],50.439468240910735,30.505041523170078,64,0,17,82,0,0,['4d954b06a243a5684965b473'],['Residential Building (Apartment / Condo)'],0
57404236498e3e12ac01b094,–î–∏—Ç—è—á–∏–π —Å–∞–¥–æ–∫ 158,['–£–∫—Ä–∞—ó–Ω–∞'],50.438322,30.505373,38,0,10,43,0,0,['4f4533814b9074f6e4fb0107'],['Nursery School'],0
4f647a1fe4b098610ad57fe9,ICTV,"['–≤—É–ª. –ü–∞–Ω—å–∫—ñ–≤—Å—å–∫–∞, 11', '–ö–∏—ó–≤, 01033', '–£–∫—Ä–∞—ó–Ω–∞']",50.43953634862975,30.504376888275143,5373,4,2001,8300,29,0,"['52e81612bcbc57f1066b7a31', '4bf58dd8d48988d130941735']","['TV Station', 'Building']",0
509b9331e4b080289fb871d3,Russian Standard Bank,"['Saksoganskogo 105', '–ö–∏—ó–≤', '–£–∫—Ä–∞—ó–Ω–∞']",50.43693729324005,30.506406742840024,3,0,3,3,0,0,['4bf58dd8d48988d10a951735'],['Bank'],0
4cb808f243ec6dcbb0279231,"–ü–µ—Ä—É–∫–∞—Ä–Ω—è ""–Ø—Ä–∏–Ω–∞""",['–£–∫—Ä–∞—ó–Ω–∞'],50.436621451921695,30.506095045736817,4,0,4,4,0,0,['4bf58dd8d48988d10c951735'],['Cosmetics Shop'],0
562b9e0e498e9f606ef57380,Salon –Ω–∞ –¢–∞—Ä–∞—Å—ñ–≤—Å—å–∫—ñ–π,"['–¢–∞—Ä–∞—Å—ñ–≤—Å—å–∫–∞ 19', '–ö–∏—ó–≤', '–£–∫—Ä–∞—ó–Ω–∞']",50.43617142646019,30.506400967447966,9,7,5,12,7,0,"['4bf58dd8d48988d110951735', '54541900498ea6ccd0202697']","['Salon / Barbershop', 'Health & Beauty Service']",0
5618feed498ed6b441af73a5,Magnum Tattoo,"['–¢–∞—Ä–∞—Å–æ–≤—Å–∫–∞—è 36', '–ö–∏—ó–≤', '–£–∫—Ä–∞—ó–Ω–∞']",50.43589893995723,30.506066869396914,8,0,8,10,0,0,['4bf58dd8d48988d1de931735'],['Tattoo Parlor'],0
5007e7b9e88903a7aa99bea1,–ù–æ—Ç–∞—Ä–∏—É—Å –•–æ–º–µ–Ω–∫–æ –í–∏–∫—Ç–æ—Ä–∏—è –í–∞–ª–µ—Ä—å–µ–≤–Ω–∞,"['—É–ª. –°–∞–∫—Å–∞–≥–∞–Ω—Å–∫–æ–≥–æ 65', '–ö–∏—ó–≤', '–£–∫—Ä–∞—ó–Ω–∞']",50.43637934583866,30.505878925323486,2,1,2,2,0,0,['52f2ab2ebcbc57f1066b8b3f'],['Lawyer'],0
5572ab42498e61b3f8f5162f,—Å–∞–∫—Å–∞–≥–∞–Ω—Å–∫–æ–≥–æ 65,['–£–∫—Ä–∞—ó–Ω–∞'],50.436270513932755,30.506385287813675,6,0,6,6,0,0,['52e81612bcbc57f1066b7a34'],['Community Center'],0
54351a97498ebb35732d0298,"–°—Ç—É–¥–∏—è —Å–ø–æ—Ä—Ç–∏–≤–Ω–æ-–±–∞–ª—å–Ω–æ–≥–æ —Ç–∞–Ω—Ü–∞ ""–ê–≤—Ä–æ—Ä–∞""","['–£–ª. –°–∞–∫—Å–∞–≥–∞–Ω—Å–∫–æ–≥–æ, 64', '–ö–∏—ó–≤', '–£–∫—Ä–∞—ó–Ω–∞']",50.43708592402498,30.506457057011712,50,0,11,61,2,0,['4bf58dd8d48988d134941735'],['Dance Studio'],0
51b8918d498e9626c5019b7c,SEVEN Communications,"['Saksaganskogo, 50', '–ö–∏—ó–≤', '–£–∫—Ä–∞—ó–Ω–∞']",50.43681962676851,30.506513640141655,134,1,28,141,2,0,['4bf58dd8d48988d124941735'],['Office'],0
5831a44103cf2531660f7914,TONE beauty space,['–£–∫—Ä–∞—ó–Ω–∞'],50.436056,30.506417,3,0,2,3,0,0,['54541900498ea6ccd0202697'],['Health & Beauty Service'],0
4f522325e4b0ddd8f6ab4cf1,–ö—É–¥–ª–∞—Ç—ã–π –ø–µ—Å,['–£–∫—Ä–∞—ó–Ω–∞'],50.436675125958935,30.506271028007582,15,0,12,15,0,0,['4bf58dd8d48988d100951735'],['Pet Store'],0
5836fc4f6cea3f6e86850ab1,Extra lingua,['–£–∫—Ä–∞—ó–Ω–∞'],50.436608,30.506157,5,0,2,5,0,0,"['4bf58dd8d48988d1ab941735', '4bf58dd8d48988d1a8941735']","['Student Center', 'General College & University']",0
5617cb37498e5b447ccf3cfe,—Å–∞–ª–æ–Ω –Ω–∞ —Ç–∞—Ä–∞—Å–æ–≤—Å–∫–æ–π,"['–£–ª. –¢–∞—Ä–∞—Å–æ–≤—Å–∫–∞—è 19', '–ö–∏—ó–≤', '–£–∫—Ä–∞—ó–Ω–∞']",50.436129,30.506383,75,4,9,122,2,0,['4bf58dd8d48988d110951735'],['Salon / Barbershop'],0
4e00bcd81495692a4bb6a83c,–ó–æ–æ–º–∞–≥–∞–∑–∏–Ω,"['–°–∞–∫—Å–∞–≥–∞–Ω—Å–∫–æ–≥–æ', '–ö–∏—ó–≤', '–£–∫—Ä–∞—ó–Ω–∞']",50.43689402592164,30.505580589169448,98,1,54,98,1,0,['4bf58dd8d48988d100951735'],['Pet Store'],0
58c14b764ca49b5098a437bc,–º–µ–¥—Ç–µ—Ö–Ω–∏–∫–∞,['–£–∫—Ä–∞—ó–Ω–∞'],50.43655,30.50672,1,0,1,1,0,0,['5745c2e4498e11e7bccabdbd'],['Drugstore'],0
50c0aa3ee4b0862c2eba8fee,–ï–∫–æ—Ü–µ–Ω—Ç—Ä | –ù–∞—Ü—ñ–æ–Ω–∞–ª—å–Ω–∏–π –ï–∫–æ–ª–æ–≥—ñ—á–Ω–∏–π –¶–µ–Ω—Ç—Ä –£–∫—Ä–∞—ó–Ω–∏,"['–°–∞–∫—Å–∞–≥–∞–Ω—Å—å–∫–æ–≥–æ, 52–∞', '–ö–∏—ó–≤', '–£–∫—Ä–∞—ó–Ω–∞']",50.441039137695476,30.501057148302312,51,0,34,61,0,0,['50328a8e91d4c4b30a586d6c'],['Non-Profit'],0
5271118d11d29a3cf947052e,–î–≤–æ—Ä–∏–∫ –Ω–∞ –¢–∞—Ä–∞—Å–æ–≤—Å–∫–æ–π,['–£–∫—Ä–∞—ó–Ω–∞'],50.43664002565175,30.50664603622922,9,0,7,9,1,0,['4bf58dd8d48988d15a941735'],['Garden'],0
53187021498e56c34a0248fb,LBT Group,"['–°–∞–∫—Å–∞–≥–∞–Ω—Å–∫–æ–≥–æ 50/20 (–¢–∞—Ä–∞—Å–æ–≤—Å–∫–∞—è)', '–ö–∏—ó–≤', '–£–∫—Ä–∞—ó–Ω–∞']",50.436563649872426,30.506226668802064,62,0,11,94,1,0,['52e81612bcbc57f1066b7a48'],['Language School'],0
5836cd286b0cdb239480a4cf,Elma lash &obesity studio,"['–°–∞–∫—Å–∞–≥–∞–Ω—Å—å–∫–∞, 65', '–ö–∏—ó–≤', '–£–∫—Ä–∞—ó–Ω–∞']",50.43605,30.505627,9,0,7,13,0,0,['54541900498ea6ccd0202697'],['Health & Beauty Service'],0
4ec3aeb177c83d76b180896f,–û—â–∞–¥–±–∞–Ω–∫,"['–≤—É–ª. –°–∞–∫—Å–∞–≥–∞–Ω—Å—å–∫–æ–≥–æ, 63/28', '–ö–∏—ó–≤', '–£–∫—Ä–∞—ó–Ω–∞']",50.436720490743994,30.506117588157338,44,1,33,44,0,0,['4bf58dd8d48988d10a951735'],['Bank'],0
573454b8498ebbf28cdba42d,Salateira,['–£–∫—Ä–∞—ó–Ω–∞'],50.436944,30.505724,3,0,3,3,1,0,['4bf58dd8d48988d110941735'],['Italian Restaurant'],0
560a4355498ecdcb8cc4c74f,–°–∞–∫—Å–∞–≥–∞–Ω—Å–∫–æ–≥–æ 75,['–£–∫—Ä–∞—ó–Ω–∞'],50.43601454070964,30.50613581555036,5,0,4,5,0,0,['50328a8e91d4c4b30a586d6c'],['Non-Profit'],0
548d7149498edadd0ebaa866,Happy Buddha,"['–≤—É–ª. –°–∞–∫—Å–∞–≥–∞–Ω—Å—å–∫–æ–≥–æ, 69', '–ö–∏—ó–≤', '–£–∫—Ä–∞—ó–Ω–∞']",50.436869174446414,30.505519648565965,39,0,33,47,1,0,['4bf58dd8d48988d1ee931735'],['Hostel'],0
511bd296e4b0ce305e366046,Dance & Fitness Studio Rumbero's,"['–≤—É–ª. –°–∞–∫—Å–∞–≥–∞–Ω—Å—å–∫–æ–≥–æ, 61/17 (–≤—É–ª. –¢–∞—Ä–∞—Å—ñ–≤—Å—å–∫–∞)', '–ö–∏—ó–≤', '–£–∫—Ä–∞—ó–Ω–∞']",50.43615904051461,30.506395422511016,2736,17,782,3804,44,8.3,['4bf58dd8d48988d134941735'],['Dance Studio'],58
4e37d4bd483bda3eb1146feb,Da Mario,"['–≤—É–ª. –°–∞–∫—Å–∞–≥–∞–Ω—Å—å–∫–æ–≥–æ, 52 (–≤—É–ª. –¢–∞—Ä–∞—Å—ñ–≤—Å—å–∫–∞)', '–ö–∏—ó–≤', '–£–∫—Ä–∞—ó–Ω–∞']",50.436827887511825,30.505624633963908,247,6,227,321,13,7.1,['4bf58dd8d48988d110941735'],['Italian Restaurant'],21
527ca2e411d2468e6cb42ab2,"–°–∞–∫—Å–∞–≥–∞–Ω—Å–∫–æ–≥–æ, 50",['–£–∫—Ä–∞—ó–Ω–∞'],50.436556,30.506476,9,1,9,10,0,0,['4bf58dd8d48988d130941735'],['Building'],0
4cb80d7f90c9a143a3717cd6,Universal Bank,"['–≤—É–ª. –¢–∞—Ä–∞—Å—ñ–≤—Å—å–∫–∞, 28/63 (–≤—É–ª. –°–∞–∫—Å–∞–≥–∞–Ω—Å—å–∫–æ–≥–æ)', '–ö–∏—ó–≤, 01033', '–£–∫—Ä–∞—ó–Ω–∞']",50.43628702372508,30.506431691223533,262,7,139,284,1,4.8,['4bf58dd8d48988d10a951735'],['Bank'],11
58ab082372efa45b3706a166,Pelekh.agency,"['–¢–∞—Ä–∞—Å–æ–≤—Å—å–∫–∞', '–£–∫—Ä–∞—ó–Ω–∞']",50.436467,30.505883,2,0,1,2,0,0,['5453de49498eade8af355881'],['Business Service'],0
4cb801dda33bb1f747ea7dfd,–£–∫—Ä–ø–æ—à—Ç–∞ 01033,"['–≤—É–ª. –°–∞–∫—Å–∞–≥–∞–Ω—Å—å–∫–æ–≥–æ, 48 (–≤—É–ª. –¢–∞—Ä–∞—Å—ñ–≤—Å—å–∫–∞)', '–ö–∏—ó–≤, 01033', '–£–∫—Ä–∞—ó–Ω–∞']",50.436591185949375,30.50699472427368,572,4,686,1257,8,0,['4bf58dd8d48988d172941735'],['Post Office'],0
4ff1cfa0e4b00d073c33e195,"–ê—Ä—Ç –°—Ç—É–¥–∏—è ""–ü–ª–∞–Ω–µ—Ç–∞ –°—á–∞—Å—Ç—å—è""","['–¢–∞—Ä–∞—Å—ñ–≤—Å—å–∫–∞, 19–ë (–ù–µ–ø–æ–¥–∞–ª—ñ–∫ –°–∞–∫—Å–∞–≥–∞–Ω—Å—å–∫–æ–≥–æ)', '–ö–∏—ó–≤', '–£–∫—Ä–∞—ó–Ω–∞']",50.436200328454134,30.506737788523786,48,2,22,52,2,0,"['4bf58dd8d48988d1e2931735', '4bf58dd8d48988d1f1931735']","['Art Gallery', 'General Entertainment']",0
55926021498e1e005d27b79c,"–°–ø–æ—Ä—Ç –∫–ª—É–± ""–ì–æ–ª–æ—Å—ñ—î–≤–æ""","['–ñ–∏–ª—è–Ω—Å—å–∫–∞ –≤—É–ª. 45 (–¢–∞—Ä–∞—Å—ñ–≤—Å—å–∫–∞)', '–ö–∏—ó–≤', '–£–∫—Ä–∞—ó–Ω–∞']",50.43483995949329,30.506062553844686,130,0,9,137,1,0,['4bf58dd8d48988d175941735'],['Gym / Fitness Center'],0
5533d036498e0d5798cf9664,"–ö–≤–µ—Å—Ç-–ø—Ä–æ–µ–∫—Ç ""IZO–õ–Ø–¶–ò–Ø""","['–≤—É–ª. –°–∞–∫—Å–∞–≥–∞–Ω—Å—å–∫–æ–≥–æ, 63/28 (–≤—É–ª. –¢–∞—Ä–∞—Å—ñ–≤—Å—å–∫–∞)', '–ö–∏—ó–≤', '–£–∫—Ä–∞—ó–Ω–∞']",50.43618800556901,30.506179332733154,303,9,301,337,36,7.7,['4bf58dd8d48988d1f1931735'],['General Entertainment'],51
4eec4e08e300215592241c92,–í—É–ª–∏—Ü—è –¢–∞—Ä–∞—Å—ñ–≤—Å—å–∫–∞,"['–≤—É–ª. –¢–∞—Ä–∞—Å—ñ–≤—Å—å–∫–∞', '–ö–∏—ó–≤', '–£–∫—Ä–∞—ó–Ω–∞']",50.43687330096827,30.506109772296686,2164,2,703,2652,15,0,['4bf58dd8d48988d1f9931735'],['Road'],0
519626eb498e8e5a974f457d,–ü—Ä–∏–≤–∞—Ç–ë–∞–Ω–∫,"['–≤—É–ª. –°–∞–∫—Å–∞–≥–∞–Ω—Å—å–∫–æ–≥–æ, 61/17', '–ö–∏—ó–≤', '–£–∫—Ä–∞—ó–Ω–∞']",50.43640881585162,30.507050177657796,749,3,1388,2608,9,5.0,['4bf58dd8d48988d10a951735'],['Bank'],37
56cdeb02cd10b23e5ebac86a,SEO2,"['–°–∞–∫—Å–∞–≥–∞–Ω—Å–∫–æ–≥–æ 50/20 (–¢–∞—Ä–∞—Å–æ–≤—Å–∫–∞—è)', '–ö–∏–µ–≤, 01033', '–£–∫—Ä–∞—ó–Ω–∞']",50.436695762699664,30.506277436156477,559,0,227,819,2,0,['4bf58dd8d48988d1f4941735'],['Design Studio'],0
515eabc5e4b0795d4046addf,Lucky Cup,"['–≤—É–ª. –¢–∞—Ä–∞—Å—ñ–≤—Å—å–∫–∞, 17', '–ö–∏—ó–≤, 01033', '–£–∫—Ä–∞—ó–Ω–∞']",50.436388179805526,30.50634092845032,1934,38,2430,5257,72,6.8,['4bf58dd8d48988d1e0931735'],['Coffee Shop'],127
5704d664498e461ec37155a2,—Ö–∏—Å—Ç–æ—Ä–∏92,['–£–∫—Ä–∞—ó–Ω–∞'],50.437290285153765,30.50724907878932,20,0,8,20,0,0,['4bf58dd8d48988d1b1941735'],['College Bookstore'],0
56fb976c498e461bcb108af8,–∫–ª–∞–¥–æ–≤–∞—è 8-–±,['–£–∫—Ä–∞—ó–Ω–∞'],50.43723454484225,30.507359438379783,61,0,11,61,0,0,['4bf58dd8d48988d198941735'],['College Academic Building'],0
574d57bf498ec640888fdc33,–ê–¥—Å–∫–∏–π –∫–∞–±–∏–Ω–µ—Ç –ù–µ–ª–ª–∏ –í–∏–∫—Ç–æ—Ä–æ–≤–Ω—ã,['–£–∫—Ä–∞—ó–Ω–∞'],50.437714,30.507362,3,0,3,3,0,0,['4bf58dd8d48988d1a0941735'],['College Classroom'],0
53d7ab52498e3c6389f975c1,"–ê–Ω—Å–∞–º–±–ª—å –ø–µ—Å–Ω–∏ –∏ —Ç–∞–Ω—Ü–∞ ""–°–≤–∏—Ç–∞–Ω–æ–∫""","['–í–ª–∞–¥–∏–º–∏—Ä—Å–∫–∞—è 71-–∞', '–ö–∏—ó–≤', '–£–∫—Ä–∞—ó–Ω–∞']",50.438117922701274,30.511243376303398,47,0,9,54,0,0,['4bf58dd8d48988d130941735'],['Building'],0
570e1051498ef1d3429c32e1,cab 9 —Ç—Ä—É–¥—ã,['–£–∫—Ä–∞—ó–Ω–∞'],50.437718,30.507022,13,0,8,13,0,0,['4bf58dd8d48988d1a0941735'],['College Classroom'],0
570f3111498ee69767c6e5c9,–≤–∞—Ö—Ç–∞ 92,['–£–∫—Ä–∞—ó–Ω–∞'],50.437595,30.506983,9,0,4,9,0,0,['4bf58dd8d48988d1a0941735'],['College Classroom'],0
570b6f4dcd1024004ccd974a,–∏–Ω–≥–ª–∏—à,['–£–∫—Ä–∞—ó–Ω–∞'],50.43744098694261,30.507030377734253,10,0,6,10,0,0,['4bf58dd8d48988d1af941735'],['College Auditorium'],0
57ece137498eeb077e4c82c6,12 –ö–∞–±–∏–Ω–µ—Ç,"['–ö–∏—ó–≤', '–£–∫—Ä–∞—ó–Ω–∞']",50.43739,30.507336,1,0,1,1,0,0,['4bf58dd8d48988d1a0941735'],['College Classroom'],0
57f21ec0cd10342970c546e2,52 –ö–∞–±,"['–ö–∏—ó–≤', '–£–∫—Ä–∞—ó–Ω–∞']",50.43738,30.507385,2,0,2,2,0,0,['4bf58dd8d48988d1a0941735'],['College Classroom'],0
567d0dc9498e206aa4f42ac9,–ö–∞–±–∏–Ω–µ—Ç –°–∞–Ω–∏-–ú—É–∑—ã–∫–∞–Ω—Ç–∞ü¶Ñüëª‚òÑüòíüö®,['–£–∫—Ä–∞—ó–Ω–∞'],50.437616437007925,30.507197415769546,15,0,6,15,0,0,['4bf58dd8d48988d1a0941735'],['College Classroom'],0
56fe4b89498ef7be926b8e3a,—Ñ–∏–∑—Ä–∞ 92,['–£–∫—Ä–∞—ó–Ω–∞'],50.43775063989409,30.507152011372412,9,0,5,9,1,0,['4bf58dd8d48988d1b2941735'],['College Gym'],0
512b0c0ae4b0a2d7b4afe8e4,20 –∫–∞–±. (–±–∏–æ–ª–æ–≥–∏—è),['–£–∫—Ä–∞—ó–Ω–∞'],50.43774238499834,30.507246408283045,48,0,20,48,0,0,[],[],0
4f476815e4b01d17b87aeb4b,–ê–∫—Ç–æ–≤—ã–π –∑–∞–ª 92,"['–≤—É–ª. –¢–∞—Ä–∞—Å—ñ–≤—Å—å–∫–∞, 11', '–ö–∏—ó–≤, 01033', '–£–∫—Ä–∞—ó–Ω–∞']",50.43746057145151,30.507384946257844,143,0,32,144,3,0,['4bf58dd8d48988d1ac941735'],['College Theater'],0
52dfa781498e2548e84cf2cc,"–°—Ç—É–¥–∏—è –≤–æ—Å—Ç–æ—á–Ω—ã—Ö –ø—Ä–∞–∫—Ç–∏–∫ ""–õ–æ—Ç–æ—Å""","['–≤—É–ª. –¢–∞—Ä–∞—Å—ñ–≤—Å—å–∫–∞, 18', '–ö–∏—ó–≤', '–£–∫—Ä–∞—ó–Ω–∞']",50.437509112623836,30.50692947741219,43,0,9,43,0,0,['4bf58dd8d48988d131941735'],['Spiritual Center'],0
4ca46c0cc1f1ef3b1f7197a4,"–î–∏—Ç—è—á–∏–π —Å–∞–¥–æ—á–æ–∫ ‚Ññ61 ""–ü–µ—Ä–≤–æ—Ü–≤—ñ—Ç""","['–≤—É–ª. –¢–∞—Ä–∞—Å—ñ–≤—Å—å–∫–∞, 13', '–ö–∏—ó–≤, 01033', '–£–∫—Ä–∞—ó–Ω–∞']",50.4373066940122,30.50804724021039,265,2,47,350,3,0,['4f4533814b9074f6e4fb0107'],['Nursery School'],0
574202eecd10a3bfcb853450,–ø—Ä–æ–¥—É–∫—Ç—ã 61/17–∞,['–£–∫—Ä–∞—ó–Ω–∞'],50.43659,30.507081,63,0,13,66,0,0,['52f2ab2ebcbc57f1066b8b46'],['Supermarket'],0
52b6c58d498e4ddd185ec2e6,–¢–∞—Ä–∞—Å—ñ–≤—Å—å–∫–∞ 18,['–£–∫—Ä–∞—ó–Ω–∞'],50.43771967752524,30.506871617095054,407,0,118,602,1,0,['4d954b06a243a5684965b473'],['Residential Building (Apartment / Condo)'],0
4eddc73661af8a14ba533adb,–®–∫–æ–ª–∞ ‚Ññ92,"['–≤—É–ª. –¢–∞—Ä–∞—Å—ñ–≤—Å—å–∫–∞, 11', '–ö–∏—ó–≤', '–£–∫—Ä–∞—ó–Ω–∞']",50.437333642638684,30.507202328989113,4824,3,1240,7122,26,0,['4bf58dd8d48988d13b941735'],['School'],0
57209ebc498e87eb3a3cffe6,cab 22,['–£–∫—Ä–∞—ó–Ω–∞'],50.437816,30.507544,3,0,3,3,0,0,['4bf58dd8d48988d13b941735'],['School'],0
5703986dcd10d66a96307a25,–∫–∞–±–∏–Ω–µ—Ç –∏–Ω—Ñ–æ—Ä–º–∞—Ç–∏–∫–∏,['–£–∫—Ä–∞—ó–Ω–∞'],50.437901331744506,30.507515491576296,3,0,2,3,0,0,['4bf58dd8d48988d1a0941735'],['College Classroom'],0
571f0f1e498ea88920cc767e,–ª–æ–≥–æ–≤–æ —Å—É—Å–ª–∏–∫–∞,['–£–∫—Ä–∞—ó–Ω–∞'],50.43776095453526,30.507500852015013,1,0,1,1,0,0,['4bf58dd8d48988d1a0941735'],['College Classroom'],0
5716011c498eafae9ece5c0f,–ª–æ–≥–æ–≤–æ —Å–∫–æ—Ä–æ—Å—Ç—Ä–µ–ª–∞,['–£–∫—Ä–∞—ó–Ω–∞'],50.43788,30.507708,1,0,1,1,0,0,['4bf58dd8d48988d13b941735'],['School'],0
508925d8e4b0c96981c54324,–ö—É—Ä–∏–ª–∫–∞ –®–∫–æ–ª—ã 92,['–£–∫—Ä–∞—ó–Ω–∞'],50.43804998516235,30.506141536495424,255,1,61,297,1,0,['4f2a210c4b9023bd5841ed28'],['Housing Development'],0
52d7bf69498e0cee9d383967,–í–µ–∫—Ç–æ—Ä –ë–∞–Ω–∫,"['–≤—É–ª. –¢–∞—Ä–∞—Å—ñ–≤—Å—å–∫–∞, 9', '–ö–∏—ó–≤', '–£–∫—Ä–∞—ó–Ω–∞']",50.43813667836629,30.507467050976818,28,0,7,103,0,0,['4bf58dd8d48988d10a951735'],['Bank'],0
516d15fbe4b0ad5ab8c3fdad,"–≤—É–ª. –¢–∞—Ä–∞—Å—ñ–≤—Å—å–∫–∞, 7","['–≤—É–ª. –¢–∞—Ä–∞—Å—ñ–≤—Å—å–∫–∞, 7', '–ö–∏—ó–≤', '–£–∫—Ä–∞—ó–Ω–∞']",50.43834723310678,30.50782875576936,245,0,38,250,2,0,['4d954b06a243a5684965b473'],['Residential Building (Apartment / Condo)'],0
52430161498e1004c3545824,–î–æ–º Arte,['–£–∫—Ä–∞—ó–Ω–∞'],50.438239895320244,30.50700352397768,18,2,11,20,2,0,['4bf58dd8d48988d127951735'],['Arts & Crafts Store'],0
4fcdca6de4b0155a2e8f7ad7,Market research agency IFAK Institut,['–£–∫—Ä–∞—ó–Ω–∞'],50.438,30.5071,40,0,8,52,1,0,['4bf58dd8d48988d124941735'],['Office'],0
4f391dabe4b01139d77979b3,LAW OFFICES OF OMP,"['–≤—É–ª. –¢–∞—Ä–∞—Å—ñ–≤—Å—å–∫–∞, 9', '–ö–∏—ó–≤', '–£–∫—Ä–∞—ó–Ω–∞']",50.43804997681432,30.50709288459647,509,0,241,828,2,0,['52f2ab2ebcbc57f1066b8b3f'],['Lawyer'],0
50583957e4b0b1650f3c4464,–ß–∞—Å—Ç–Ω—ã–π –ù–æ—Ç–∞—Ä–∏—É—Å –ö–æ—Å–µ–Ω–∫–æ –û.–ê.,"['–¢–∞—Ä–∞—Å–æ–≤—Å–∫–∞—è, 16', '–£–∫—Ä–∞—ó–Ω–∞']",50.437793998371944,30.50704115985692,25,1,9,25,1,0,"['4bf58dd8d48988d124941735', '52f2ab2ebcbc57f1066b8b3f']","['Office', 'Lawyer']",0
4c99e9d6db10b60c12c08d6d,–ü—Ä–∏–≤–∞—Ç–ë–∞–Ω–∫,"['–≤—É–ª. –ú–∏–∫—ñ–ª—å—Å—å–∫–æ-–ë–æ—Ç–∞–Ω—ñ—á–Ω–∞, 2 (–≤—É–ª. –¢–∞—Ä–∞—Å—ñ–≤—Å—å–∫–∞)', '–ö–∏—ó–≤', '–£–∫—Ä–∞—ó–Ω–∞']",50.438184166330984,30.506865309586523,861,10,986,1959,8,5.1,"['4bf58dd8d48988d10a951735', '4bf58dd8d48988d130941735']","['Bank', 'Building']",29
570f36afcd1058844b35bc56,cab 44,['–£–∫—Ä–∞—ó–Ω–∞'],50.437316,30.507662,2,0,2,2,0,0,['4bf58dd8d48988d1a0941735'],['College Classroom'],0
57039ceb498ecd536604c15f,–í–æ–µ–Ω–∫–∞,['–£–∫—Ä–∞—ó–Ω–∞'],50.437348,30.507405,1,0,1,1,0,0,['4bf58dd8d48988d1af941735'],['College Auditorium'],0
57049d18498ee13ba5b4177d,47 –∫–∞–±,['–£–∫—Ä–∞—ó–Ω–∞'],50.437412076215594,30.50751479515181,25,0,12,25,0,0,['4bf58dd8d48988d1a0941735'],['College Classroom'],0
57063a3d498e49428fea2f20,–ª–æ–≥–æ–≤–æ —Ö–∏–º–∏—á–∫–∏,['–£–∫—Ä–∞—ó–Ω–∞'],50.437705,30.507601,3,0,2,3,0,0,['4bf58dd8d48988d1a0941735'],['College Classroom'],0
56fba6ebcd10d7a7e1857d70,—á–µ—Ä–¥–∞–∫ 92,"['Tarasivska 11', 'Kiyv', '–£–∫—Ä–∞—ó–Ω–∞']",50.437399,30.507762,6,0,4,6,0,0,['4bf58dd8d48988d1ad941735'],['Trade School'],0
56fb9667498e52ddbdf81a1d,8 cab. English,"['Tarasivska 11', 'Kiyv', '–£–∫—Ä–∞—ó–Ω–∞']",50.43762469578901,30.507914138090666,11,0,5,11,0,0,"['4bf58dd8d48988d1a2941735', '4bf58dd8d48988d198941735']","['Community College', 'College Academic Building']",0
56fcd34e498e1944bb227261,44 –ö–∞–±–∏–Ω–µ—Ç,['–£–∫—Ä–∞—ó–Ω–∞'],50.437273761140695,30.507646826158666,3,0,1,3,0,0,['4bf58dd8d48988d1a0941735'],['College Classroom'],0
56e7e21bcd10b34b58d346d9,–ö–∞–±–∏–Ω–µ—Ç –∑–∞—Ä—É–±–µ–∂–Ω–æ–π –ª–∏—Ç–µ—Ä–∞—Ç—É—Ä—ã,"['–≤—É–ª. –¢–∞—Ä–∞—Å—ñ–≤—Å—å–∫–∞, 11', '–ö–∏—ó–≤, 01033', '–£–∫—Ä–∞—ó–Ω–∞']",50.437377180454725,30.50759489380937,20,0,11,20,0,0,['4f4533814b9074f6e4fb0106'],['Middle School'],0
5704e21a498ea1545b559748,–∫–∞–± 31,['–£–∫—Ä–∞—ó–Ω–∞'],50.437496,30.507718,4,0,4,4,0,0,['4bf58dd8d48988d1a0941735'],['College Classroom'],0
5715c571498e331ede538b47,–ª–æ–≥–æ–≤–æ –∏—Å—Ç–æ—Ä–∏—á–∫–∏,['–£–∫—Ä–∞—ó–Ω–∞'],50.43713545045578,30.50760582474324,2,0,2,2,0,0,['4bf58dd8d48988d1a0941735'],['College Classroom'],0
4f87df37e4b005c38fa93bc6,Schoolyard,"['–í—É–ª. –¢–∞—Ä–∞—Å—ñ–≤—Å—å–∫–∞ 11–∞', '–ö–∏—ó–≤', '–£–∫—Ä–∞—ó–Ω–∞']",50.43761024057437,30.50795140697549,124,0,18,124,0,0,['4bf58dd8d48988d1b4941735'],['College Stadium'],0
50b88996e4b07e5a147dd82a,–ò—Å—Ç–æ—Ä–∏—è,"['–¢–∞—Ä–∞—Å–æ–≤—Å–∫–∞—è 11', '–£–∫—Ä–∞—ó–Ω–∞']",50.437286150508925,30.507507882749866,21,0,8,21,0,0,['4bf58dd8d48988d1af941735'],['College Auditorium'],0
56c2fb24cd10bb6461949565,–ì–µ–æ–≥—Ä–∞—Ñ–∏—è 49,"['–≤—É–ª. –¢–∞—Ä–∞—Å—ñ–≤—Å—å–∫–∞, 11', '–ö–∏—ó–≤, 01033', '–£–∫—Ä–∞—ó–Ω–∞']",50.437427341534196,30.507451338623014,20,0,8,20,0,0,['4bf58dd8d48988d1a0941735'],['College Classroom'],0
55420f87498e6af2ec65e394,–ö–∞–±–∏–Ω–µ—Ç –ë–∏–æ–ª–æ–≥–∏–∏üåµüåø,['–£–∫—Ä–∞—ó–Ω–∞'],50.437647409379124,30.50770106233616,61,0,19,61,0,0,['52e81612bcbc57f1066b7a24'],['Tree'],0
5547366b498e423463658893,–§—É—Ç–±–æ–ª—å–Ω–æ–µ –ø–æ–ª–µ 92,"['–≤—É–ª. –¢–∞—Ä–∞—Å—ñ–≤—Å—å–∫–∞', '–ö–∏—ó–≤, 01033', '–£–∫—Ä–∞—ó–Ω–∞']",50.437567,30.507831,20,0,7,20,1,0,['4cce455aebf7b749d5e191f5'],['Soccer Field'],0
571f5403498ec67a2db5723e,–ª–æ–≥–æ–≤–æ –°–≤–µ—Ç–ª–∞—Ö–∏,['–£–∫—Ä–∞—ó–Ω–∞'],50.437259,30.507837,1,0,1,1,0,0,['4bf58dd8d48988d1a0941735'],['College Classroom'],0
56ebcdbe498ef700937dcb56,—Ö–∏–º–∏—è 54,"['–≤—É–ª. –¢–∞—Ä–∞—Å—ñ–≤—Å—å–∫–∞, 11', '–ö–∏—ó–≤, 01033', '–£–∫—Ä–∞—ó–Ω–∞']",50.43745985157997,30.507401505882058,61,0,18,61,0,0,['4bf58dd8d48988d1af941735'],['College Auditorium'],0
56ebae1a498e35328446d978,15 –∫–∞–±–∏–Ω–µ—Ç,"['–≤—É–ª. –¢–∞—Ä–∞—Å—ñ–≤—Å—å–∫–∞, 11', '–ö–∏—ó–≤, 01033', '–£–∫—Ä–∞—ó–Ω–∞']",50.43740003615588,30.507637916148497,33,0,10,33,0,0,['4bf58dd8d48988d1af941735'],['College Auditorium'],0
57039d2c498edccac1c19bd1,cab 48,['–£–∫—Ä–∞—ó–Ω–∞'],50.43716641598028,30.50759491755354,17,0,8,17,0,0,['4bf58dd8d48988d198941735'],['College Academic Building'],0
56e662d8498e29dda3505385,43 –∫–∞–±–∏–Ω–µ—Ç–∏–∫,"['–≤—É–ª. –¢–∞—Ä–∞—Å—ñ–≤—Å—å–∫–∞, 11', '–ö–∏—ó–≤, 01033', '–£–∫—Ä–∞—ó–Ω–∞']",50.43740715390757,30.507614835673394,33,0,9,33,0,0,['4bf58dd8d48988d1a0941735'],['College Classroom'],0
4f30d045e4b09c2f0ed9f690,–°–ø–æ—Ä—Ç–∑–∞–ª 92,"['–≤—É–ª. –¢–∞—Ä–∞—Å—ñ–≤—Å—å–∫–∞, 11', '–ö–∏—ó–≤, 01033', '–£–∫—Ä–∞—ó–Ω–∞']",50.43747522288743,30.507418504171255,123,0,31,128,1,0,['4bf58dd8d48988d1b7941735'],['College Soccer Field'],0
5710931d498e79efe3c917c9,—Ç—É–∞–ª–µ—Ç 4,['–£–∫—Ä–∞—ó–Ω–∞'],50.42643602382268,30.493169114510984,15,0,6,15,0,0,['5744ccdfe4b0c0459246b4c4'],['Public Bathroom'],0
4f22897de4b0fd1835cbb6a4,–°—Ç–æ–ª–æ–≤–∞—è School 92,"['–≤—É–ª. –¢–∞—Ä–∞—Å—ñ–≤—Å—å–∫–∞, 11', '–ö–∏—ó–≤, 01033', '–£–∫—Ä–∞—ó–Ω–∞']",50.43722421758495,30.507482335998258,300,0,46,301,3,0,['4bf58dd8d48988d1a1941735'],['College Cafeteria'],0
57060d41498e826beee8146f,49 –∫–∞–±,['–£–∫—Ä–∞—ó–Ω–∞'],50.43724899181478,30.507520971498483,59,0,16,59,0,0,['4bf58dd8d48988d1a0941735'],['College Classroom'],0
56fe79e7498e2b8c7b95c255,–∫—Ä—ã—à–∞ –ø—Ä–∏—á–∞–ª–∞,['–£–∫—Ä–∞—ó–Ω–∞'],50.437666,30.505939,2,0,1,2,1,0,['52e81612bcbc57f1066b79e6'],['Laser Tag'],0
57304808498edf83e66b3f3e,Casa Que Pasa,"['–ö–∏—ó–≤', '–£–∫—Ä–∞—ó–Ω–∞']",50.438168,30.506088,1,0,1,1,0,0,['56aa371be4b08b9a8d573511'],['Cave'],0
541c5c4a498e35d26fdb517e,Friendly Doctor,"['–≤—É–ª. –°–∞–∫—Å–∞–≥–∞–Ω—Å—å–∫–æ–≥–æ, 54/56', '–ö–∏—ó–≤, 01033', '–£–∫—Ä–∞—ó–Ω–∞']",50.43771142832645,30.50593918800345,8,0,8,8,1,0,['4bf58dd8d48988d177941735'],"[""Doctor's Office""]",0
4fa45328e4b089a95984f2cb,–ö—Ä—ã—à–∞ –°–∞–∫—Å–∞–≥–∞–Ω—Å–∫–æ–≥–æ 54/56,['–£–∫—Ä–∞—ó–Ω–∞'],50.437300623833025,30.50578665868806,88,0,55,88,0,0,['4d954b06a243a5684965b473'],['Residential Building (Apartment / Condo)'],0
4f210e29e4b0272a56a4ceb1,"–í–ë–û ""–¢–æ—á–∫–∞ –û–ø–æ—Ä–∏""","['54/56 Saksaganskogo St.', '–ö–∏—ó–≤', '–£–∫—Ä–∞—ó–Ω–∞']",50.43746990133209,30.50572834271056,604,1,103,658,4,0,['4bf58dd8d48988d124941735'],['Office'],0
5515571c498ece57a4a989b1,Clubok. –ö–≤–µ—Å—Ç-–∫–æ–º–Ω–∞—Ç–∞,"['–≤—É–ª. –¢–∞—Ä–∞—Å—ñ–≤—Å—å–∫–∞, 18', '–ö–∏—ó–≤', '–£–∫—Ä–∞—ó–Ω–∞']",50.43768046388251,30.50622184950906,46,1,77,115,6,6.6,['4bf58dd8d48988d1f1931735'],['General Entertainment'],8
56bf8f3f498e0190cd74e542,–¥–æ–º –°–æ—Ñ–∏–π–∫–∏,['–£–∫—Ä–∞—ó–Ω–∞'],50.438016956813485,30.506043587741022,192,0,5,193,0,0,['4bf58dd8d48988d11a941735'],['Other Nightlife'],0
570e278c498e22bd0f25340f,cab 22 —Å–µ–∫—Ç–∞ –º—É–∑—ã–∫–∞–Ω—Ç–æ–≤,['–£–∫—Ä–∞—ó–Ω–∞'],50.437492,30.506689,4,0,2,4,0,0,['4bf58dd8d48988d1a0941735'],['College Classroom'],0
56d34660cd107912929a2af0,–í–µ—Ç–µ—Ä–û–∫,"['–¢–∞—Ä–∞—Å–æ–≤—Å–∫–∞—è 16/1', '–£–∫—Ä–∞—ó–Ω–∞']",50.437443059909036,30.506408017019382,13,0,2,13,0,0,['4bf58dd8d48988d175941735'],['Gym / Fitness Center'],0
4fc76704e4b03776d9e26b66,"""Nature"" –º–∞—Å–∞–∂–Ω—ã–π —Å–∞–ª–æ–Ω –Ω–∞ —Ç—Ä–∞–≤–∞—Ö",['–£–∫—Ä–∞—ó–Ω–∞'],50.43821450000752,30.506285978418823,36,2,26,36,5,0,['4f4532974b9074f6e4fb0104'],['Daycare'],0
587ca6959e35d312248978a7,"–ì—Ä–æ–º–∞–¥—Å—å–∫–∞ –û—Ä–≥–∞–Ω—ñ–∑–∞—Ü—ñ—è ""–ù–∞—Ä–æ–¥–Ω–∞ –£–∫—Ä–∞—ó–Ω–∞""",['–£–∫—Ä–∞—ó–Ω–∞'],50.437867,30.506648,4,0,1,10,0,0,['50328a8e91d4c4b30a586d6c'],['Non-Profit'],0
58b2d544fc73d40cf761c512,—Ü–µ–Ω—Ç—Ä —Ç–∞–π—Å–∫–æ–≥–æ –º–∞—Å—Å–∞–∂–∞ Chok Di,['–£–∫—Ä–∞—ó–Ω–∞'],50.437883,30.505872,2,0,2,2,0,0,['52f2ab2ebcbc57f1066b8b3c'],['Massage Studio'],0
4e71a3d652b16b24917646bb,–ë–∞–Ω–∫ –ö—Ä–µ–¥–∏—Ç –î–Ω—ñ–ø—Ä–æ,"['–≤—É–ª. –°–∞–∫—Å–∞–≥–∞–Ω—Å–∫–æ–≥–æ, 69', '–ö–∏—ó–≤', '–£–∫—Ä–∞—ó–Ω–∞']",50.437354293636375,30.50552332312116,209,0,93,246,1,0,['4bf58dd8d48988d10a951735'],['Bank'],0
51289797e4b069ea607aa143,Marchi,"['–ù–∏–∫–æ–ª—å—Å–∫–æ-–ë–æ—Ç–∞–Ω–∏—á–µ—Å–∫–∞—è 2', '–ö–∏—ó–≤', '–£–∫—Ä–∞—ó–Ω–∞']",50.43829977575508,30.506438425174263,82,1,40,83,4,0,['4bf58dd8d48988d104951735'],['Boutique'],0
51082be4e4b09861c6805edf,–¢–∞—Ä–∞—Å–æ–≤—Å–∫–∞—è 19,"['–¢–∞—Ä–∞—Å–æ–≤—Å–∫–∞—è 19', '–ö–∏—ó–≤, 01033', '–£–∫—Ä–∞—ó–Ω–∞']",50.437003348100305,30.506192808676236,125,1,39,127,0,0,['4d954b06a243a5684965b473'],['Residential Building (Apartment / Condo)'],0
55657388498e43bdac1c90a6,"–ú–î–¶ ""–ê—Ä—Ç–µ–∫—ñ–≤–µ—Ü—å""","['–ù–∏–∫–æ–ª—å—Å–∫–æ - –ë–æ—Ç–∞–Ω–∏—á–µ—Å–∫–∞—è 3, –û—Ñ 1', '–ö–∏—ó–≤', '–£–∫—Ä–∞—ó–Ω–∞']",50.438179,30.506537,8,0,2,9,0,0,['4bf58dd8d48988d124941735'],['Office'],0
4d89be4f1508a143271a141e,Smile,"['–£–ª.–°–∞–∫—Å–∞–≥–∞–Ω—Å–∫–æ–≥–æ,58', '–ö–∏—ó–≤', '–£–∫—Ä–∞—ó–Ω–∞']",50.4375277037104,30.505254194150215,217,2,75,244,2,0,"['4bf58dd8d48988d178941735', '4bf58dd8d48988d104941735']","[""Dentist's Office"", 'Medical Center']",0
56e7c555498e5475f5cde4a5,bublik.fit,"['–≤—É–ª. –¢–∞—Ä–∞—Å—ñ–≤—Å—å–∫–∞, 16/1', '–ö–∏—ó–≤', '–£–∫—Ä–∞—ó–Ω–∞']",50.43760614665843,30.506209577899426,68,0,65,150,5,0,['52f2ab2ebcbc57f1066b8b48'],['Gymnastics Gym'],0
5390929d498e21833a567627,–í–∑–∞–ø–µ—Ä—Ç–∏ –Ω–∞ –ù–∏–∫–æ–ª—å—Å–∫–æ-–ë–æ—Ç–∞–Ω–∏—á–µ—Å–∫–æ–π,"['–≤—É–ª. –ú–∏–∫—ñ–ª—å—Å—å–∫–æ-–ë–æ—Ç–∞–Ω—ñ—á–Ω–∞, 3', '–ö–∏—ó–≤', '–£–∫—Ä–∞—ó–Ω–∞']",50.43807062872772,30.50654087348806,749,8,980,1587,34,8.0,['4bf58dd8d48988d1e1931735'],['Arcade'],50
4d58157b36d1721e6878f2b1,–¢—Ä–µ–Ω–∞–∂–µ—Ä–Ω—ã–π –∑–∞–ª –ê.—É.–¢.,"['–ù-–ë–æ—Ç–∞–Ω–∏—á–µ—Å–∫–∞—è 3', '–ö–∏—ó–≤', '–£–∫—Ä–∞—ó–Ω–∞']",50.437814648206,30.506056315456327,1007,7,214,1428,10,6.6,['4bf58dd8d48988d175941735'],['Gym / Fitness Center'],16
56fce196498ea0ad31b9c5ca,cab 15,['–£–∫—Ä–∞—ó–Ω–∞'],50.43700333227406,30.507653409036493,54,0,9,54,0,0,['4bf58dd8d48988d198941735'],['College Academic Building'],0
5784ed5a498e7afa84027063,–ë–∞–Ω–∫ –¢—Ä–∞—Å—Ç. –ö–∏–µ–≤—Å–∫–∞—è —Ä–µ–≥–∏–æ–Ω–∞–ª—å–Ω–∞—è –¥–∏—Ä–µ–∫—Ü–∏—è #3,"['–°–∞–∫—Å–∞–≥–∞–Ω—Å–∫–æ–≥–æ, 61', '–£–∫—Ä–∞—ó–Ω–∞']",50.436462,30.506814,7,0,6,7,0,0,['4bf58dd8d48988d10a951735'],['Bank'],0
512c5d49e4b036e581ba2729,50 –∫–∞–±.,['–£–∫—Ä–∞—ó–Ω–∞'],50.4369806344051,30.50712204294632,11,0,8,11,0,0,[],[],0
5441123f498e713d54f48616,Art Ego,['–£–∫—Ä–∞—ó–Ω–∞'],50.43612805736057,30.507745733209752,19,2,21,22,3,0,['4bf58dd8d48988d1e2931735'],['Art Gallery'],0
