id,name,formattedAddress,lat,lng,checkinsCount,tipCount,usersCount,visitsCount,likesCount,rating,categories_ids,categories_names,ratingSignals
5214a17b11d2d18c04fbf572,RAMAS –†–∞–º–∫–∏ & –í–∏—à–∏–≤–∫–∏ - –±–∞–≥–µ—Ç–Ω–∞ –º–∞–π—Å—Ç–µ—Ä–Ω—è,"['–∫–Ω–∏–∂.—Ä–∏–Ω–æ–∫ –ü–µ—Ç—Äi–≤–∫–∞: 39 —Ä—è–¥, –ºi—Å—Ü–µ 6-7 (–≤—É–ª. –í–µ—Ä–±–æ–≤–∞, 17)', '–ö–∏—ó–≤', '–£–∫—Ä–∞—ó–Ω–∞']",50.48518243545083,30.484458486723373,7,2,5,7,3,0,['4bf58dd8d48988d127951735'],['Arts & Crafts Store'],0
4f5f5652e4b03d720293d439,–ö–∏—ó–≤–µ–Ω–µ—Ä–≥–æ,"['–≤—É–ª. –ù–æ–≤–æ–∫–æ—Å—Ç—è–Ω—Ç–∏–Ω—ñ–≤—Å—å–∫–∞, 20', '–ö–∏—ó–≤, 04080', '–£–∫—Ä–∞—ó–Ω–∞']",50.48589493660239,30.483237502008155,143,0,53,171,0,0,['4bf58dd8d48988d124941735'],['Office'],0
5017adc1e4b0d405ec35a03d,–ó–¥–æ—Ä–æ–≤'—è —Ä–æ–¥–∏–Ω–∏,"['–ù–æ–≤–æ–∫–æ–Ω—Å—Ç–∞–Ω—Ç–∏–Ω–æ–≤—Å–∫–∞—è 15/15', '–ö–∏—ó–≤', '–£–∫—Ä–∞—ó–Ω–∞']",50.48497397017386,30.48419540994475,46,0,25,48,0,0,['4bf58dd8d48988d177941735'],"[""Doctor's Office""]",0
525ffea111d26926c62bf298,–ù–æ–≤–æ–∫–æ–Ω—Å—Ç–∞–Ω—Ç–∏–Ω–æ–≤—Å–∫–∞—è 15,['–£–∫—Ä–∞—ó–Ω–∞'],50.485368418063516,30.483472750785634,14,0,11,18,0,0,['4e39a956bd410d7aed40cbc3'],['Tennis Court'],0
50a0bcb6e4b057cac53872d9,–ë–æ—Ä–ª–∞—Å –£–∫—Ä–∞–∏–Ω–∞,"['–≤—É–ª. –ù–æ–≤–æ–∫–æ—Å—Ç—è–Ω—Ç–∏–Ω—ñ–≤—Å—å–∫–∞, 18 (–ë–¶ ¬´RIALTO¬ª)', '–ö–∏—ó–≤, 04080', '–£–∫—Ä–∞—ó–Ω–∞']",50.48541210744622,30.484421253204346,10,0,4,10,0,0,['4bf58dd8d48988d124941735'],['Office'],0
534ea69d498e213222181904,"–û—Å—Ç–∞–Ω–æ–≤–∫–∞ ""–¢—É–ª—å—á–∏–Ω—Å–∫–∞—è""","['–≤—É–ª. –ù–æ–≤–æ–∫–æ—Å—Ç—è–Ω—Ç–∏–Ω—ñ–≤—Å—å–∫–∞', '–ö–∏—ó–≤, 04080', '–£–∫—Ä–∞—ó–Ω–∞']",50.485356123478326,30.483878224910065,17,0,9,19,0,0,['52f2ab2ebcbc57f1066b8b4f'],['Bus Stop'],0
54528bf0498e0f068e1d19ba,Lounge fm party kitchen,['–£–∫—Ä–∞—ó–Ω–∞'],50.486464,30.481096,2,0,2,2,0,0,['4deefb944765f83613cdba6e'],['Historic Site'],0
51b8700f498e29bf21321868,Arpa Real Estate,"['–£–ª. –ê—Ä—Ç–µ–º–∞, 50, 7 –≠—Ç–∞–∂', '–ö–∏—ó–≤, 04053', '–£–∫—Ä–∞—ó–Ω–∞']",50.485230086196836,30.483912965087345,5,0,2,5,1,0,['4bf58dd8d48988d130941735'],['Building'],0
5479df31498e141c4cd1d57a,–°–ø–æ—Ä—Ç–∑–∞–ª,"['–ù–æ–≤–æ–∫–æ–Ω—Å—Ç–∞–Ω—Ç–∏–Ω–æ–≤—Å–∫–∞—è 15', '–ö–∏—ó–≤', '–£–∫—Ä–∞—ó–Ω–∞']",50.48483657836914,30.483917236328125,1,0,1,1,0,0,['4e39a891bd410d7aed40cbc2'],['Tennis Stadium'],0
52ca96e1498e9d7e410173d6,—Å—Ç–æ–ª–æ–≤–∫–∞ –±–∞–±—ã –ö–∞—Ç–∏),['–£–∫—Ä–∞—ó–Ω–∞'],50.48574447631836,30.483592987060547,2,0,2,2,0,0,['4bf58dd8d48988d128941735'],['Cafeteria'],0
53a6f8df498ed8a14f2399f7,4party –í—Å–µ –¥–ª—è –ø—Ä–∞–∑–¥–Ω–∏–∫–∞,"['–≤—É–ª. –ù–æ–≤–æ–∫–æ—Å—Ç—è–Ω—Ç–∏–Ω—ñ–≤—Å—å–∫–∞, 15/15 (–≤—É–ª. –í—ñ–∫–µ–Ω—Ç—ñ—è –•–≤–æ–π–∫–∏)', '–ö–∏—ó–≤, 04080', '–£–∫—Ä–∞—ó–Ω–∞']",50.48485830962424,30.484420733684207,23,1,23,23,3,0,['4bf58dd8d48988d1ff941735'],['Miscellaneous Shop'],0
53f459d0498ead0cb4132d7e,—Å–∫–ª–∞–¥ –ª—è –±—É—Ç–∏–∫,['–£–∫—Ä–∞—ó–Ω–∞'],50.48537,30.484397,3,0,2,3,0,0,['52e81612bcbc57f1066b7a36'],['Warehouse'],0
516d67fbe4b0fb8d6b74b728,–ò–Ω—Ç–µ—Ä—Å–≤—è–∑—å,"['–ö–∏—ó–≤', '–£–∫—Ä–∞—ó–Ω–∞']",50.48487278591766,30.484326921306305,38,0,3,39,0,0,['5032764e91d4c4b30a586d5a'],['Campaign Office'],0
530680d011d2303671b16db4,–º–æ–ª–Ω–∏—è‚ö°Ô∏è‚ö°Ô∏è‚ö°Ô∏è,['–£–∫—Ä–∞—ó–Ω–∞'],50.485988184198064,30.48317694564981,1,0,1,1,2,0,['4f2a23984b9023bd5841ed2c'],['Moving Target'],0
53a2b42d498ea4f08529bcc0,–¢–æ—Ä–≥–æ–≤—ã–π –¥–æ–º Claire,['–£–∫—Ä–∞—ó–Ω–∞'],50.48574853682048,30.483274387638602,1,0,1,1,0,0,"['4bf58dd8d48988d10c951735', '4bf58dd8d48988d103941735']","['Cosmetics Shop', 'Home (private)']",0
5587b395498e999aa33cbaa0,Eskada-M,"['–ù–æ–≤–æ–∫–æ–Ω—Å—Ç–∞–Ω—Ç–∏–Ω–æ–≤—Å–∫–∞—è 15/15', '–ö–∏—ó–≤', '–£–∫—Ä–∞—ó–Ω–∞']",50.485409,30.482958,4,0,4,12,0,0,['4bf58dd8d48988d124941735'],['Office'],0
511cccb9e4b08fd256090d87,–ö–ª–∏–Ω–∏–∫–∞ –ó–¥–æ—Ä–æ–≤—å–µ —Å–µ–º—å–∏,"['–ù–æ–≤–æ–∫–æ–Ω—Å—Ç–∞–Ω—Ç–∏–Ω–æ–≤—Å–∫–∞—è, 15/15', '–ö–∏—ó–≤', '–£–∫—Ä–∞—ó–Ω–∞']",50.484961390691424,30.48345274446105,12,0,9,17,0,0,['4bf58dd8d48988d177941735'],"[""Doctor's Office""]",0
52959ffe11d299f419a5fc25,–ö–æ–º–ø–∞–Ω–∏—è –ê–Ω–∫–æ—Ä –õ–¢–î,"['–≤—É–ª. –ù–æ–≤–æ–∫–æ—Å—Ç—è–Ω—Ç–∏–Ω—ñ–≤—Å—å–∫–∞, 13/10', '–ö–∏—ó–≤, 04080', '–£–∫—Ä–∞—ó–Ω–∞']",50.485951396804154,30.48231840133667,62,0,3,63,0,0,"['4bf58dd8d48988d125941735', '52f2ab2ebcbc57f1066b8b36', '52e81612bcbc57f1066b7a37']","['Tech Startup', 'IT Services', 'Distribution Center']",0
56bc57b1498e1817859febdf,Awt Bavaria BMW Cafe,['–£–∫—Ä–∞—ó–Ω–∞'],50.48592,30.482683,4,0,4,4,0,0,['4bf58dd8d48988d1c7941735'],['Snack Place'],0
4f5713d3e4b03d89eb670ff9,–°–ø–æ—Ä—Ç –ó–∞–ª,"['–ö–æ–Ω—Å—Ç–∞–Ω—Ç–∏–Ω–æ–≤—Å–∫–∞—è 37', '–ö–∏—ó–≤', '–£–∫—Ä–∞—ó–Ω–∞']",50.48525454874649,30.482450629103816,22,0,18,32,1,0,['4bf58dd8d48988d1b2941735'],['College Gym'],0
4f1c529f77166bf6d11de33f,"–ü—Ä–µ–¥—Å—Ç–∞–≤–∏—Ç–µ–ª—å—Å—Ç–≤–æ ""GIG"" (""–î–∂–∏–ê–π–î–∂–∏"")","['—É–ª–∏—Ü–∞ –ù–æ–≤–æ–∫–æ–Ω—Å—Ç–∞–Ω—Ç–∏–Ω–æ–≤—Å–∫–∞—è, 13/10', '–ö–∏—ó–≤', '–£–∫—Ä–∞—ó–Ω–∞']",50.48593774398495,30.482511520385742,19,0,1,19,0,0,['4bf58dd8d48988d124941735'],['Office'],0
53d0c3e5498e26dcee469bae,–±–∏–≥ –ø—Ä–∏–Ω—Ç,['–£–∫—Ä–∞—ó–Ω–∞'],50.48493229231816,30.48202851627526,9,0,3,16,0,0,['4bf58dd8d48988d1f4941735'],['Design Studio'],0
523d7303498e959b90a15a0b,–≥–Ω–µ–∑–¥–æ –ì—É—Å—è,['–£–∫—Ä–∞—ó–Ω–∞'],50.486244201660156,30.481016159057617,1,0,1,1,0,0,"['5032891291d4c4b30a586d68', '4bf58dd8d48988d103941735']","['Assisted Living', 'Home (private)']",0
52d3e29e498ee33f299ebe99,–≥–ª–æ–±–∞–ª –î–∏—Å—Ç—Ä–∏–±—É—à–Ω –£–∫—Ä–∞–∏–Ω–∞,"['–í–∏–∫–µ–Ω—Ç–∏—è –•–≤–æ–π–∫–∏ 15', '–ö–∏—ó–≤', '–£–∫—Ä–∞—ó–Ω–∞']",50.486374380801486,30.482437472849163,7,0,4,7,0,0,['4bf58dd8d48988d124941735'],['Office'],0
5485c051498e76066a4395d0,Flamingo,['–£–∫—Ä–∞—ó–Ω–∞'],50.485633850097656,30.484037399291992,1,0,1,1,0,0,['4bf58dd8d48988d127941735'],['Conference Room'],0
51b81175e4b0b209bec70eba,ASAS,"['–ö–∏—ó–≤', '–£–∫—Ä–∞—ó–Ω–∞']",50.485106,30.484065,2,0,2,2,0,0,['4bf58dd8d48988d124951735'],['Automotive Shop'],0
522efea011d24f9acd328543,–º–æ–π–∫–∞ –Ω–∞ –•–≤–æ–π–∫–∏,"['–•–≤–æ–π–∫–∏ 15/15', '–ö–∏—ó–≤', '–£–∫—Ä–∞—ó–Ω–∞']",50.48493194580078,30.483688354492188,1,0,1,1,0,0,['4f04ae1f2fb6e1c99f3db0ba'],['Car Wash'],0
54b8c2b2498e991be3cfda45,–ú–∏—Ä —Ç–µ—Ö–Ω–æ–ª–æ–≥–∏–πüíª,"['–ù–æ–≤–æ–∫–æ–Ω—Å—Ç–∞—Ç–∏–Ω–æ–≤—Å–∫–∞—è 13/10', '–ö–∏—ó–≤', '–£–∫—Ä–∞—ó–Ω–∞']",50.485767,30.48262,12,0,6,19,0,0,['5453de49498eade8af355881'],['Business Service'],0
51aef1d7498e3d2f8e546ee4,"–ü–ê–¢ ""–ö–ò–ï–í–≠–ù–ï–†–ì–û"" –°–í–ü ""–ö–ò–ï–í–°–ö–ò–ï –ï–õ–ï–ö–¢–†–ò–ß–ï–°–ö–ò–ï –°–ï–¢–ò""","['–≤—É–ª. –ù–æ–≤–æ–∫–æ—Å—Ç—è–Ω—Ç–∏–Ω—ñ–≤—Å—å–∫–∞, 20', '–ö–∏—ó–≤, 04080', '–£–∫—Ä–∞—ó–Ω–∞']",50.486829026071156,30.482847990990017,24,0,15,28,0,0,['4bf58dd8d48988d130941735'],['Building'],0
507844ace4b0e942469974e1,–°–ø–æ—Ä—Ç–∫–æ–º–ø–ª–µ–∫—Å –∑-–¥ –¢–æ–º–∞–∫,"['–ù–æ–≤–æ–∫–æ–Ω—Å—Ç–∞–Ω—Ç–∏–Ω–æ–≤—Å–∫–∞—è, 15', '–ö–∏—ó–≤', '–£–∫—Ä–∞—ó–Ω–∞']",50.484961659601915,30.4831706094685,51,0,22,58,1,0,['4bf58dd8d48988d101941735'],['Martial Arts Dojo'],0
55487cd3498e6fbd5096a96e,–ë–µ–π TATTOO,"['–ù–æ–≤–æ–∫–æ–Ω—Å—Ç–∞–Ω—Ç–∏–Ω–æ–≤—Å–∫–∞—è 15/5', '–ö–∏—ó–≤', '–£–∫—Ä–∞—ó–Ω–∞']",50.48476473194043,30.48178676789855,16,0,8,21,2,0,['4bf58dd8d48988d1de931735'],['Tattoo Parlor'],0
516a850fe4b0e8899c9ff1b0,–®–∏–Ω–æ–º–æ–Ω—Ç–∞–∂,"['–ù–æ–≤–æ–∫–æ–Ω—Å—Ç–∞–Ω—Ç–∏–Ω–æ–≤—Å–∫–∞—è, 22/15', '–£–∫—Ä–∞—ó–Ω–∞']",50.48689288685876,30.48239660558451,22,1,18,23,0,0,['4eb1bea83b7b6f98df247e06'],['Factory'],0
541819d5498e43d4e7c85e81,ArtDivisionSecretLoft,['–£–∫—Ä–∞—ó–Ω–∞'],50.4847215296243,30.48257103548879,36,0,59,110,2,0,['4bf58dd8d48988d1e2931735'],['Art Gallery'],0
51599efae4b079b32fd0f258,KarKat Fashion,"['–≤—É–ª. –ù–æ–≤–æ–∫–æ—Å—Ç—è–Ω—Ç–∏–Ω—ñ–≤—Å—å–∫–∞, 13/10', '–ö–∏—ó–≤, 04080', '–£–∫—Ä–∞—ó–Ω–∞']",50.486017,30.482703,292,0,48,330,2,0,['4bf58dd8d48988d174941735'],['Coworking Space'],0
544f58f3498eb67087d1009d,"–ó–∞–≤–æ–¥ ""–¢–æ–º–∞–∫""",['–£–∫—Ä–∞—ó–Ω–∞'],50.48495952230507,30.483985440435173,28,0,11,28,0,0,['4eb1bea83b7b6f98df247e06'],['Factory'],0
5864035bbbec66033bbdb9db,–°—É–ø–µ—Ä –ô–û,['–£–∫—Ä–∞—ó–Ω–∞'],50.485972,30.482918,2,0,1,2,0,0,['56aa371be4b08b9a8d573517'],['Business Center'],0
56b0f209498ec51759c50ccb,"–°–ö ""–ê–ª—å—è–Ω—Å""","['–ù–æ–≤–æ–∫–æ–Ω—Å—Ç–∞–Ω—Ç–∏–Ω–æ–≤—Å–∫–∞—è,15', '–ö–∏—ó–≤', '–£–∫—Ä–∞—ó–Ω–∞']",50.48494867254082,30.482036201371358,38,0,30,123,2,0,['52f2ab2ebcbc57f1066b8b47'],['Boxing Gym'],0
4fb482bee4b067982c6db999,–¢–∏–ø-–¢–æ–ø –°–µ—Ä–≤–∏—Å 24h,"['–≤—É–ª. –ù–æ–≤–æ–∫–æ—Å—Ç—è–Ω—Ç–∏–Ω—ñ–≤—Å—å–∫–∞, 22/15', '–ö–∏—ó–≤', '–£–∫—Ä–∞—ó–Ω–∞']",50.48691984678404,30.48240846896317,75,4,59,89,4,0,['4bf58dd8d48988d124951735'],['Automotive Shop'],0
5228734311d2250b427a73af,–ó–¥–æ—Ä–æ–≤'—è —Ä–æ–¥–∏–Ω–∏,"['–≤—É–ª. –ù–æ–≤–æ–∫–æ—Å—Ç—è–Ω—Ç–∏–Ω—ñ–≤—Å—å–∫–∞, 15/15 (–≤—É–ª. –í—ñ–∫–µ–Ω—Ç—ñ—è –•–≤–æ–π–∫–∏)', '–ö–∏—ó–≤, 04080', '–£–∫—Ä–∞—ó–Ω–∞']",50.48496569554993,30.48427694702438,305,5,674,1238,6,0,['4bf58dd8d48988d196941735'],['Hospital'],0
4fcf1861e4b07c39d66ca857,"–ë–¶ ""Valmi""","['–≤—É–ª. –ù–æ–≤–æ–∫–æ—Å—Ç—è–Ω—Ç–∏–Ω—ñ–≤—Å—å–∫–∞, 13/10', '–ö–∏—ó–≤, 04080', '–£–∫—Ä–∞—ó–Ω–∞']",50.486045902443855,30.482289404885748,154,0,70,174,5,0,['56aa371be4b08b9a8d573517'],['Business Center'],0
58f785106bd36b54110a829a,–ì–∞–ª–µ—Ä–Ω–∞—è –®—Ö—É–Ω–∞,"['–ù–æ–≤–æ–∫–æ–Ω—Å—Ç–∞–Ω—Ç–∏–Ω–æ–≤—Å–∫–∞—è 18', '–ö–∏—ó–≤', '–£–∫—Ä–∞—ó–Ω–∞']",50.485181,30.484437,8,0,4,9,0,0,['55077a22498e5e9248869ba2'],['Cruise'],0
4e0f2b20d22d8582bdc60744,"AWT Bavaria, BMW Dealer","['–≤—É–ª. –ù–æ–≤–æ–∫–æ—Å—Ç—è–Ω—Ç–∏–Ω—ñ–≤—Å—å–∫–∞, 13/10', '–ö–∏—ó–≤', '–£–∫—Ä–∞—ó–Ω–∞']",50.4858434732743,30.48287806457089,1661,9,2343,4723,100,8.4,['4eb1c1623b7b52c0e1adc2ec'],['Auto Dealership'],122
535df42f11d216d65b0bdcc4,–†–∞–±–æ—Ç–≥–æ (—Å–æ—é–∑ –±–µ–∑–¥–µ–ª—å–Ω–∏–∫–æ–≤ –ª–∞–±–æ—Ä–∞—Ç–æ—Ä–Ω–æ–≥–æ –º–∏—Ä–∞),"['–ù–æ–≤–æ–∫–æ–Ω—Å—Ç–∞–Ω—Ç–∏–Ω–æ–≤—Å–∫–∞—è 13/10', '–£–∫—Ä–∞—ó–Ω–∞']",50.486054173650636,30.482614411603677,691,0,191,933,0,0,['4bf58dd8d48988d124941735'],['Office'],0
