id,name,formattedAddress,lat,lng,checkinsCount,tipCount,usersCount,visitsCount,likesCount,rating,categories_ids,categories_names,ratingSignals
53a1e3ad498e85bda62c3ecb,–ù–∞—à–µ —Å–µ–∫—Ä–µ—Ç–Ω–æ–µ –º–µ—Å—Ç–æ,"['–†—É—Å–∞–Ω—ñ–≤—Å—å–∫–∞  –ù–∞–±–µ—Ä–µ–∂–Ω–∞', '–ö–∏—ó–≤', '–£–∫—Ä–∞—ó–Ω–∞']",50.430980767379296,30.59193139787621,18,0,17,24,0,0,['4eb1d4dd4b900d56c88a45fd'],['River'],0
56c6c650cd102e90a92e77cd,–•–∞—Ç–∞ –Ω–∞ —Ç–∞—Ç–∞,['–£–∫—Ä–∞—ó–Ω–∞'],50.435576,30.593007,5,0,1,5,0,0,['4d954b06a243a5684965b473'],['Residential Building (Apartment / Condo)'],0
53420fe2498e41b8782bb191,–ù–∞ –ë–µ—Ä–µ–≥—É,['–£–∫—Ä–∞—ó–Ω–∞'],50.43427340152238,30.588494691678743,5,0,4,5,0,0,['4eb1d4dd4b900d56c88a45fd'],['River'],0
52e27d64498e4c4a833d7b79,–ë—É–¥—ñ–≤–µ–ª—å–Ω–∏–π —Å—É–ø–µ—Ä–º–∞—Ä–∫–µ—Ç,"['–≠–Ω—Ç—É–∑–∏–∞—Å—Ç–æ–≤, 7', '–£–∫—Ä–∞—ó–Ω–∞']",50.435176849365234,30.592790603637695,3,0,3,3,0,0,['4bf58dd8d48988d112951735'],['Hardware Store'],0
4e22e745d16474063214fbc1,–ê–ø—Ç–µ–∫–∞ #3,"['—É–ª. –†—É—Å–∞–Ω–æ–≤—Å–∫–∞—è –Ω–∞–±., 4', '–ö–∏—ó–≤', '–£–∫—Ä–∞—ó–Ω–∞']",50.43407896567259,30.59287573464167,13,0,10,14,0,0,['4bf58dd8d48988d10f951735'],['Pharmacy'],0
5571f32d498e9a7167c40808,–°–≤—è—Ç–æ–º–µ—Å—Ç–æ,['–£–∫—Ä–∞—ó–Ω–∞'],50.43583,30.591643,7,0,4,7,0,0,['4bf58dd8d48988d1df931735'],['BBQ Joint'],0
506045f8e4b0e2196c7e4960,–ö—Ä–∞—Å–Ω—ã–π –¥–≤–æ—Ä,['–£–∫—Ä–∞—ó–Ω–∞'],50.43332970150207,30.58890852460401,12,2,12,12,1,0,['4bf58dd8d48988d165941735'],['Scenic Lookout'],0
555ae946498e13a585e40160,"–ö—ñ–æ—Å–∫ ""–ü—Ä–µ—Å–∞""","['–†—É—Å–∞–Ω—ñ–≤—Å—å–∫–∞ –Ω–∞–±–µ—Ä–µ–∂–Ω–∞', '–ö–∏—ó–≤', '–£–∫—Ä–∞—ó–Ω–∞']",50.434228,30.592944,4,0,2,4,0,0,['4f04ad622fb6e1c99f3db0b9'],['Newsstand'],0
527e28a511d2e85b422bee82,"–∞–ø—Ç–µ–∫–∞ ""–ó–¥–æ—Ä–æ–≤–∞ —Å–µ–º—å—è""","['–†—É—Å–∞–Ω–æ–≤–∫–∞ –Ω–∞–±–µ—Ä–µ–∂–Ω–æ–π 4', '–£–∫—Ä–∞—ó–Ω–∞']",50.434797840326304,30.592801599055527,18,0,8,22,1,0,['4bf58dd8d48988d10f951735'],['Pharmacy'],0
500e56e4e4b057e4cb5bcbb0,–¢–û–í –û–ø—Ç–∏–∫–∞ –õ—é–∫—Å,['–£–∫—Ä–∞—ó–Ω–∞'],50.434084,30.591878,5,0,5,5,0,0,['4bf58dd8d48988d10f951735'],['Pharmacy'],0
5539d160498e67b88538fdc8,Porto restaurant,"['1 Entuziastov Street', '–ö–∏—ó–≤', '–£–∫—Ä–∞—ó–Ω–∞']",50.43195745217391,30.59286887573848,6,0,6,6,0,0,['52e81612bcbc57f1066b79f9'],['Modern European Restaurant'],0
523339a911d2968497da8889,–ú–∞—Ç—Ä–∞—Å–æ–Ω,['–£–∫—Ä–∞—ó–Ω–∞'],50.434117,30.592993,3,0,3,3,0,0,['4bf58dd8d48988d1f8941735'],['Furniture / Home Store'],0
58b6c3e15cab2f599558161d,–ê–∑–∏—è,"['–†—É—Å–∞–Ω–æ–≤—Å–∫–∞—è –Ω–∞–±–µ—Ä–µ–∂–Ω–∞—è,4', '–ö–∏—ó–≤', '–£–∫—Ä–∞—ó–Ω–∞']",50.43166,30.592932,20,1,3,20,1,0,['4bf58dd8d48988d109941735'],['Eastern European Restaurant'],0
521c5a8c498e89cd82c3e69d,–ë–∞–±–∫–∞ —Å –ö—Ä–∞–≤—á—É—á–∫–æ–π,"['–†—É—Å–∞–Ω—ñ–≤—Å—å–∫–∞ –ù–∞–±–µ—Ä–µ–∂–Ω–∞', '–ö–∏—ó–≤', '–£–∫—Ä–∞—ó–Ω–∞']",50.4358629405526,30.592107292578795,316,5,222,324,22,6.8,['52e81612bcbc57f1066b79ed'],['Outdoor Sculpture'],31
5220ae4c11d2113dcda7dfbc,–û—Å—Ç–∞–Ω–æ–≤–∫–∞ —Ä–µ—á–Ω–æ–≥–æ —Ç—Ä–∞–º–≤–∞—è ¬´–†—É—Å–∞–Ω–æ–≤—Å–∫–∞—è –Ω–∞–±–µ—Ä–µ–∂–Ω–∞—è¬ª,"['–†—É—Å–≤–Ω—ñ–≤—Å—å–∫–∞ –Ω–∞–±.', '–£–∫—Ä–∞—ó–Ω–∞']",50.43397512310758,30.59200688311192,76,1,61,77,1,0,['4e74f6cabd41c4836eac4c31'],['Pier'],0
53809947498e2e6e70e298a0,–í –ª–æ–¥–∫–µ –Ω–∞ –î–Ω–µ–ø—Ä–µ,['–£–∫—Ä–∞—ó–Ω–∞'],50.435169613604536,30.590665903529768,17,0,17,17,0,0,['4eb1d4dd4b900d56c88a45fd'],['River'],0
4d98899ea2c654817f3df353,–ú–æ—Å—Ç –∏–º. –†–∞–¥—É–≥–∏,"['–≤—É–ª. –†—É—Å–∞–Ω—ñ–≤—Å—å–∫–∞ –Ω–∞–±–µ—Ä–µ–∂–Ω–∞', '–ö–∏—ó–≤', '–£–∫—Ä–∞—ó–Ω–∞']",50.4323498984361,30.592633961308145,2501,3,1091,2591,12,0,['4bf58dd8d48988d1df941735'],['Bridge'],0
57ab684b498e2efa27b8c03f,Monkey Nice Cream,"['–†—É—Å–∞–Ω—ñ–≤—Å—å–∫–∞ –Ω–∞–±–µ—Ä–µ–∂–Ω–∞, 4', '–ö–∏—ó–≤, 02154', '–£–∫—Ä–∞—ó–Ω–∞']",50.434345,30.593103,449,24,604,867,84,9.1,"['4bf58dd8d48988d1d0941735', '4bf58dd8d48988d1c9941735', '4bf58dd8d48988d1e0931735']","['Dessert Shop', 'Ice Cream Shop', 'Coffee Shop']",105
55674d8b498e0197637b1a83,–õ–∞–∫–∫–∏ –õ—É—á–∞–Ω–æ,"['–†—É—Å–∞–Ω—ñ–≤—Å—å–∫–∞ –Ω–∞–±–µ—Ä–µ–∂–Ω–∞, 4', '–ö–∏—ó–≤, 02154', '–£–∫—Ä–∞—ó–Ω–∞']",50.4342239413763,30.592766454378953,3004,76,3661,7073,264,7.2,"['4bf58dd8d48988d16c941735', '4bf58dd8d48988d14e941735']","['Burger Joint', 'American Restaurant']",423
57121dd0498eabd0f62e5ca8,–ê–∑–∏—è,"['–†—É—Å–∞–Ω—ñ–≤—Å—å–∫–∞ –Ω–∞–±., 4', '–ö–∏—ó–≤, 02098', '–£–∫—Ä–∞—ó–Ω–∞']",50.43505703210812,30.592986345291138,624,23,765,1336,49,8.3,"['4bf58dd8d48988d142941735', '4bf58dd8d48988d115941735']","['Asian Restaurant', 'Middle Eastern Restaurant']",71
5728f9f7498ef2a263a845bb,River Grill,"['–≤—É–ª. –†—É—Å–∞–Ω—ñ–≤—Å—å–∫–∞ –ù–∞–±–µ—Ä–µ–∂–Ω–∞, 4', '–ö–∏—ó–≤', '–£–∫—Ä–∞—ó–Ω–∞']",50.43578960245605,30.59179454382825,529,19,893,1174,36,5.6,['52e81612bcbc57f1066b7a00'],['Comfort Food Restaurant'],80
507fac4ce4b0998ce42db75a,"–ù–ú–£ –∏–º. –ê.–ê. –ë–æ–≥–æ–º–æ–ª—å—Ü–∞, –∫–∞—Ñ–µ–¥—Ä–∞ –ª–∞—Ç—ã–Ω–∏",['–£–∫—Ä–∞—ó–Ω–∞'],50.43696393517541,30.594361852246685,7,0,5,7,0,0,['4bf58dd8d48988d1a8941735'],['General College & University'],0
5052a67de4b0e5434b8cefa2,—Ä—É—Å–∞–Ω–æ–≤—Å–∫–∞—è –Ω–∞–±–µ—Ä–µ–∂–Ω–∞—è 8/1,['–£–∫—Ä–∞—ó–Ω–∞'],50.43702377513119,30.59404450034553,1281,4,296,1461,10,0,"['4d954b06a243a5684965b473', '4bf58dd8d48988d130941735']","['Residential Building (Apartment / Condo)', 'Building']",0
567f2e0a498e99f5089c1faa,–í–ª–∞–¥–µ–Ω–∏—è –í–ª–∞–¥–∏–º–∏—Ä–∞,"['–†—É—Å–∞–Ω–æ–≤—Å–∫–∞—è –ù–∞–±–µ—Ä–µ–∂–Ω–∞—è (–†—É—Å–∞–Ω–æ–≤—Å–∫–∞—è –ù–∞–±–µ—Ä–µ–∂–Ω–∞—è)', '–ö–∏—ó–≤', '–£–∫—Ä–∞—ó–Ω–∞']",50.43657504595774,30.59269915765095,41,0,13,53,0,0,['4d954b06a243a5684965b473'],['Residential Building (Apartment / Condo)'],0
558f0688498e40e25d19472d,—Ä—É—Å–∞–Ω–æ–≤—Å–∫–∏–π –±—É–ª—å–≤–∞—Ä 4 —Å—Ç—É–¥–∏—è,"['–†—É—Å–∞–Ω–æ–≤—Å–∫–∏–π –±—É–ª—å–≤–∞—Ä 4', '–£–∫—Ä–∞—ó–Ω–∞']",50.438068,30.594125,25,0,4,29,1,0,['4bf58dd8d48988d1e5931735'],['Music Venue'],0
535524f4498e01e619628b1c,"–°–∞–ª–æ–Ω –∫—Ä–∞—Å–æ—Ç—ã ""–Ø–º–ø–æ–ª—å—Å–∫–∏–π""","['–†—É—Å–∞–Ω–æ–≤—Å–∫–∏–π –±—É–ª—å–≤–∞—Ä, 4', '–£–∫—Ä–∞—ó–Ω–∞']",50.43806215828965,30.59390430342043,60,1,20,63,0,0,['4bf58dd8d48988d110951735'],['Salon / Barbershop'],0
506782f6e4b0890847b50d7c,NikolMUSIC,"['–†—É—Å–∞–Ω–æ–≤—Å–∫–∏–π –ë—É–ª—å–≤–∞—Ä 4', '–£–∫—Ä–∞—ó–Ω–∞']",50.438084583012945,30.594167477455084,220,4,88,329,9,7.3,['4bf58dd8d48988d1e9931735'],['Rock Club'],14
52d06bba498e0a8890a36d8e,RusHome,['–£–∫—Ä–∞—ó–Ω–∞'],50.43731214462654,30.593024272236654,187,3,5,208,1,0,['4d954b06a243a5684965b473'],['Residential Building (Apartment / Condo)'],0
50a489eee4b0bf59ea0611d9,–±—É–ª. –†—É—Å–∞–Ω–æ–≤—Å–∫–∏–π 6,['–£–∫—Ä–∞—ó–Ω–∞'],50.43818326654562,30.594771576018225,84,1,19,85,2,0,['4d954b06a243a5684965b473'],['Residential Building (Apartment / Condo)'],0
51bb9116498e3b192a637b06,"–†—É—Å–∞–Ω–æ–≤—Å–∫–∞—è –ù–∞–±–µ—Ä–µ–∂–Ω–∞—è, 6","['–†—É—Å–∞–Ω—ñ–≤—Å—å–∫–∞ –Ω–∞–±–µ—Ä–µ–∂–Ω–∞, 6', '–ö–∏—ó–≤', '–£–∫—Ä–∞—ó–Ω–∞']",50.435989572043674,30.59331433123741,378,0,170,604,4,0,['4d954b06a243a5684965b473'],['Residential Building (Apartment / Condo)'],0
4fa928dae4b0024962d1e25d,–ù–æ–≤–∞ –ü–æ—à—Ç–∞ ‚Ññ41,"['–±—É–ª. –†—É—Å–∞–Ω—ñ–≤—Å—å–∫–∏–π, 4', '–ö–∏—ó–≤, 02000', '–£–∫—Ä–∞—ó–Ω–∞']",50.43803304022697,30.593512058258053,1417,7,1347,3806,30,0,['4bf58dd8d48988d172941735'],['Post Office'],0
518483bc498e58bd36f7fe49,–†—É—Å–∞–Ω—ñ–≤—Å—å–∫–∏–π –±—É–ª—å–≤–∞—Ä,"['–±—É–ª. –†—É—Å–∞–Ω—ñ–≤—Å—å–∫–∏–π', '–ö–∏—ó–≤', '–£–∫—Ä–∞—ó–Ω–∞']",50.4384235242745,30.592843277434888,1959,13,1610,3383,87,9.0,['4bf58dd8d48988d163941735'],['Park'],102
52c0397d498e2370ddd419e5,Rossi Residence,['–£–∫—Ä–∞—ó–Ω–∞'],50.44060134887695,30.597387313842773,71,1,4,82,0,0,"['4d954b06a243a5684965b473', '4bf58dd8d48988d103941735']","['Residential Building (Apartment / Condo)', 'Home (private)']",0
529510a611d221b923417172,Homey Home,['–£–∫—Ä–∞—ó–Ω–∞'],50.44011641229118,30.597840247101214,58,0,1,58,0,0,"['4d954b06a243a5684965b473', '4bf58dd8d48988d103941735']","['Residential Building (Apartment / Condo)', 'Home (private)']",0
5197a763498e2ebed3ef7ec2,–î–∞–≤—ã–¥–æ–≤–∞ 15,['–£–∫—Ä–∞—ó–Ω–∞'],50.4406766178099,30.59716044796479,99,0,9,102,0,0,['4d954b06a243a5684965b473'],['Residential Building (Apartment / Condo)'],0
5765845f498ed02d5f5052b7,–ö–≤–∞–¥—Ä–∞—Ç,"['–ë—É–ª—å–≤–∞—Ä –î–∞–≤—ã–¥–æ–≤–∞', '–ö–∏—ó–≤', '–£–∫—Ä–∞—ó–Ω–∞']",50.438614,30.597975,2,0,2,3,0,0,['52e81612bcbc57f1066b7a28'],['Bathing Area'],0
526d979211d2fe3ce60e0b55,–î–µ—Ç—Å–∫–∞—è –ø–ª–æ—â–∞–¥–∫–∞,"['–ë-—Ä –î–∞–≤—ã–¥–æ–≤ 13', '–£–∫—Ä–∞—ó–Ω–∞']",50.439623470023776,30.597517028931886,7,0,5,7,0,0,['4bf58dd8d48988d1e7941735'],['Playground'],0
530f28cf11d2f0fb81bf0b4d,–£ –ë–∞–±—É–ª–∏ –∏ –î–µ–¥—É–ª–∏,"['–≠–Ω—Ç—É–∑–∏–∞—Å—Ç–æ–≤ 7/3', '–£–∫—Ä–∞—ó–Ω–∞']",50.438657486145445,30.597567080800264,6,0,2,6,0,0,['4d954b06a243a5684965b473'],['Residential Building (Apartment / Condo)'],0
52dbfdd5498e7eebb6fe2f5d,–ö–∞–≤'—è—Ä–Ω—è,"['–±—É–ª. –û–ª–µ–∫—Å—ñ—è –î–∞–≤–∏–¥–æ–≤–∞, 12', '–ö–∏—ó–≤', '–£–∫—Ä–∞—ó–Ω–∞']",50.43867790751422,30.597209718206642,61,2,50,108,6,7.2,['4bf58dd8d48988d1e0931735'],['Coffee Shop'],9
52b8542b498e6898d2196e9a,–ö–≤—ñ—Ç–∏ –º–∞–≥–∞–∑–∏–Ω,"['–ë—É–ª—å–≤–∞—Ä –î–∞–≤—ã–¥–æ–≤–∞, 14', '–£–∫—Ä–∞—ó–Ω–∞']",50.4392538260068,30.597610215331695,10,0,6,12,1,0,['4bf58dd8d48988d11b951735'],['Flower Shop'],0
543a7a54498edc9273e7c224,–£ –û&–û,['–£–∫—Ä–∞—ó–Ω–∞'],50.43934631347656,30.597606658935547,110,0,3,111,0,0,['4d954b06a243a5684965b473'],['Residential Building (Apartment / Condo)'],0
54d61f55498e31d1e8dee432,–ö–ª—É–± –¢–∞–π—Å–∫–æ–≥–æ –ë–æ–∫—Å–∞,['–£–∫—Ä–∞—ó–Ω–∞'],50.440755066629315,30.597125118707275,68,0,40,148,1,0,['4f4533814b9074f6e4fb0106'],['Middle School'],0
56a0d4ae498ed394112190a8,–¢–∞–º–∏–ª–∞,['–£–∫—Ä–∞—ó–Ω–∞'],50.438879,30.597882,8,0,4,10,1,0,['4bf58dd8d48988d127951735'],['Arts & Crafts Store'],0
548cc079498e4c3cf07a7cd8,–ë–æ–≥–µ–º–Ω–µ –õ–æ–∂–µ 1410,['–£–∫—Ä–∞—ó–Ω–∞'],50.43935910585767,30.59764161730832,3,0,2,4,0,0,['507c8c4091d498d9fc8c67a9'],['Public Art'],0
55572db6498e86f0cb0784c2,–£ –î–∏üíï,"['–ë—É–ª—å–≤–∞—Ä –î–∞–≤–∏–¥–æ–≤–∞ 14', '–£–∫—Ä–∞—ó–Ω–∞']",50.439352871228266,30.59722091858017,22,0,2,22,0,0,['4d954b06a243a5684965b473'],['Residential Building (Apartment / Condo)'],0
57ecca00498eb5fd39fb0dc3,New Moscow home,"['–ö–∏—ó–≤', '–£–∫—Ä–∞—ó–Ω–∞']",50.440033,30.597488,2,0,1,2,0,0,['4d954b06a243a5684965b473'],['Residential Building (Apartment / Condo)'],0
5208c87a11d280d89c11a86b,"—Ä–∞–¥–∏–æ—Å—Ç–∞–Ω—Ü–∏—è ""–ù–æ—Å—Ç–∞–ª—å–∂–∏""",['–£–∫—Ä–∞—ó–Ω–∞'],50.43931583747699,30.59597737044458,14,0,6,14,1,0,['5032856091d4c4b30a586d63'],['Radio Station'],0
55329ef2498ef644463b4dd8,–û—Ä–µ—à–∫–∏–Ω—ã-—Ö–æ—É–º,"['–î–∞–≤—ã–¥–æ–≤–∞ 13–ê', '–£–∫—Ä–∞—ó–Ω–∞']",50.44025681298396,30.595711326617668,53,0,42,124,1,0,['4d954b06a243a5684965b473'],['Residential Building (Apartment / Condo)'],0
5459f15a498eed3b54db4450,–∫—Ä–∞—Å–Ω—ã–π –ª–∞—Ä—ë–∫‚ô†Ô∏è,['–£–∫—Ä–∞—ó–Ω–∞'],50.439266,30.597249,2,0,2,2,0,0,['4bf58dd8d48988d141941735'],['Sorority House'],0
55283c1e498ea8f3dc3d686c,–∫–µ–ª—å—è,['–£–∫—Ä–∞—ó–Ω–∞'],50.439393,30.597475,4,0,4,4,0,0,['4bf58dd8d48988d1e2931735'],['Art Gallery'],0
551aeaa0498ec096b3a9ac4b,–•–æ—Ö–ª–æ—Ö–∞—Ç–∞,"['–ö–∏—ó–≤', '–£–∫—Ä–∞—ó–Ω–∞']",50.439582508365184,30.597198065002143,24,0,4,27,0,0,['4d954b06a243a5684965b473'],['Residential Building (Apartment / Condo)'],0
5746c9fd498e2cda92310b95,Velokrat - –ü—Ä–æ–∫–∞—Ç –≤–µ–ª–æ—Å–∏–ø–µ–¥–æ–≤,['–£–∫—Ä–∞—ó–Ω–∞'],50.439072,30.597295,3,1,1,3,0,0,['4e4c9077bd41f78e849722f9'],['Bike Rental / Bike Share'],0
52715da511d2192a88f2bbef,–ë—É–ª—å–≤–∞—Ä –î–∞–≤—ã–¥–æ–≤–∞ 13 –ê,['–£–∫—Ä–∞—ó–Ω–∞'],50.44013513284214,30.59564802443394,178,1,63,239,1,0,['4d954b06a243a5684965b473'],['Residential Building (Apartment / Condo)'],0
5856c98376f2ca378fa44a19,–£ –ú–∞—Ä–∞–Ω–¥—ñ–Ω–∏—Ö,"['–ë—É–ª—å–≤–∞—Ä –î–∞–≤–∏–¥–æ–≤–∞', '–ö–∏—ó–≤', '–£–∫—Ä–∞—ó–Ω–∞']",50.440017,30.59725,4,0,2,4,0,0,['4d954b06a243a5684965b473'],['Residential Building (Apartment / Condo)'],0
52ee42b711d2b55c469fc27a,–ë—é–≤–µ—Ç,"['–ö–∏—ó–≤', '–£–∫—Ä–∞—ó–Ω–∞']",50.438572040404836,30.59615450955165,63,3,32,74,0,0,['4fbc1be21983fc883593e321'],['Well'],0
542474ce498efeaec8f57d38,üî•Bodichka house üî•üíÄüî•,"['–î–∞–≤—ã–¥–æ–≤–∞ –ë—É–ª—å–≤–∞—Ä 14', '–ö–∏—ó–≤', '–£–∫—Ä–∞—ó–Ω–∞']",50.43993159424025,30.597422518306534,18,0,1,20,1,0,['4d954b06a243a5684965b473'],['Residential Building (Apartment / Condo)'],0
575331a5498e848fcc4ece9a,"–ë—É–ª—å–≤–∞—Ä –Ü–≥–æ—Ä—è –®–∞–º–æ, 14","['–ë—É–ª—å–≤–∞—Ä –Ü–≥–æ—Ä—è –®–∞–º–æ, 14', '–ö–∏—ó–≤, 02147', '–£–∫—Ä–∞—ó–Ω–∞']",50.43984247501217,30.59725373179232,33,0,14,48,0,0,['4d954b06a243a5684965b473'],['Residential Building (Apartment / Condo)'],0
4fc9d2ace4b063c02934b8c8,–°—Ç—Ä–∏–∂,"['–î–∞–≤—ã–¥–æ–≤–∞ 14', '–ö–∏—ó–≤', '–£–∫—Ä–∞—ó–Ω–∞']",50.440674702849975,30.597253549816454,154,4,138,285,15,7.7,['4bf58dd8d48988d110951735'],['Salon / Barbershop'],21
50cc8a59e4b06fef21826bcd,"–±—É–ª. –î–∞–≤—ã–¥–æ–≤–∞, 12",['–£–∫—Ä–∞—ó–Ω–∞'],50.438814711425806,30.597616157499548,183,0,49,232,0,0,['4d954b06a243a5684965b473'],['Residential Building (Apartment / Condo)'],0
50ed644ee4b0915f89bd152d,–ê–ø—Ç–µ–∫–∞ –î–æ–±—Ä–æ–≥–æ –î–Ω—è,"['–ë—É–ª. –î–∞–≤—ã–¥–æ–≤–∞, 12', '–ö–∏—ó–≤', '–£–∫—Ä–∞—ó–Ω–∞']",50.438746034857004,30.59730212247982,95,4,82,118,3,6.0,['4bf58dd8d48988d10f951735'],['Pharmacy'],8
51b4f39c498e77ba12a034f1,"–±—É–ª. –Ü–≥–æ—Ä—è –®–∞–º–æ, 14","['–±—É–ª. –Ü–≥–æ—Ä—è –®–∞–º–æ, 14', '–£–∫—Ä–∞—ó–Ω–∞']",50.4398947932006,30.597428460011315,805,3,507,1689,7,0,['4d954b06a243a5684965b473'],['Residential Building (Apartment / Condo)'],0
53961e0b498e65d34f3b488a,"–±-—Ä –î–∞–≤–∏–¥–æ–≤–∞, 15",['–£–∫—Ä–∞—ó–Ω–∞'],50.44062136773299,30.59674746389689,85,0,82,262,1,0,['4d954b06a243a5684965b473'],['Residential Building (Apartment / Condo)'],0
51065377e4b02d11e04b9fce,–±—É–ª—å–≤–∞—Ä –¥–∞–≤—ã–¥–æ–≤–∞ 13,['–£–∫—Ä–∞—ó–Ω–∞'],50.43956177253526,30.59721079475202,453,1,96,539,6,0,['4d954b06a243a5684965b473'],['Residential Building (Apartment / Condo)'],0
4e91fe4e0cd629b696cd6797,–ë—É–ª—å–≤–∞—Ä –®–∞–º–æ,"['–±—É–ª. –®–∞–º–æ', '–ö–∏—ó–≤', '–£–∫—Ä–∞—ó–Ω–∞']",50.43857970335216,30.597009658813477,1682,6,560,2076,15,0,['4bf58dd8d48988d1f9931735'],['Road'],0
4dc79676e4cd169dc6803a49,–ê–¢–ë,"['–±—É–ª. –†—É—Å–∞–Ω—ñ–≤—Å—å–∫–∏–π, 11', '–ö–∏—ó–≤', '–£–∫—Ä–∞—ó–Ω–∞']",50.438692147970464,30.59617003557794,1824,13,1645,5283,35,5.3,['4bf58dd8d48988d118951735'],['Grocery Store'],93
56c74068498e7033ff21d895,¬´SOHO¬ª. –°—Ç—É–¥–∏—è —ç—Å—Ç–µ—Ç–∏—á–µ—Å–∫–æ–π –∫—Ä–∞—Å–æ—Ç—ã,"['–ë—É–ª—å–≤–∞—Ä –î–∞–≤—ã–¥–æ–≤–∞ 12', '–ö–∏—ó–≤', '–£–∫—Ä–∞—ó–Ω–∞']",50.439046976268926,30.594206738253458,15,3,6,16,3,0,"['54541900498ea6ccd0202697', '4f04aa0c2fb6e1c99f3db0b8']","['Health & Beauty Service', 'Nail Salon']",0
54ccd756498ebdd6b1881172,The Coffee –†—É—Å–∞–Ω–æ–≤–∫–∞,"['–†—É—Å–∞–Ω–æ–≤—Å–∫–∏–π –ë—É–ª—å–≤–∞—Ä 7', '–ö–∏—ó–≤', '–£–∫—Ä–∞—ó–Ω–∞']",50.438653,30.595128,97,1,44,186,9,7.4,['4bf58dd8d48988d1e0931735'],['Coffee Shop'],11
580a52b938fab6b0dfd5b445,—Å–∏—Å—Ç–µ—Ä,['–£–∫—Ä–∞—ó–Ω–∞'],50.438807,30.595353,3,0,1,3,0,0,['4d954b06a243a5684965b473'],['Residential Building (Apartment / Condo)'],0
5704ff87498e9c45d0dc9688,Mathematics courses,['–£–∫—Ä–∞—ó–Ω–∞'],50.43938474061359,30.59482978866425,36,0,9,43,0,0,['4bf58dd8d48988d1ad941735'],['Trade School'],0
578608bf498e8034b0847dbf,–ù–æ—Ç–∞—Ä—ñ–∞–ª—å–Ω–∞ –∫–æ–Ω—Ç–æ—Ä–∞,"['–†—É—Å–∞–Ω–æ–≤—Å–∫–∏–π –±—É–ª—å–≤–∞—Ä 7', '–£–∫—Ä–∞—ó–Ω–∞']",50.43859100341797,30.594858169555664,6,0,6,6,0,0,['4bf58dd8d48988d124941735'],['Office'],0
5149810ae4b0d62af57e0263,–ö–æ–Ω—Å—É–ª—å—Å—Ç–≤–æ –≠—Å—Ç–æ–Ω–∏–∏,"['–ü—É—à–∫–∏–Ω—Å–∫–∞—è, 43–±', '–ö–∏—ó–≤', '–£–∫—Ä–∞—ó–Ω–∞']",50.440869308236714,30.593470385344446,22,0,18,23,1,0,['4bf58dd8d48988d126941735'],['Government Building'],0
561a50ba498e228014fec467,–§–ª—ç—Ç –ñ & Aüéàüè°,"['–†—É—Å–∞–Ω–æ–≤—Å–∫–∏–π –ë—É–ª—å–≤–∞—Ä 9', '–ö–∏—ó–≤', '–£–∫—Ä–∞—ó–Ω–∞']",50.43925397162316,30.595359079415154,40,0,22,70,0,0,['4d954b06a243a5684965b473'],['Residential Building (Apartment / Condo)'],0
52c8274111d2042ae7d28610,–†—É—Å–∞–Ω–æ–≤—Å–∫–∏–π –±—É–ª—å–≤–∞—Ä 9,"['–ö–∏—ó–≤', '–£–∫—Ä–∞—ó–Ω–∞']",50.43967152466045,30.594839547101234,325,1,146,523,1,0,['4d954b06a243a5684965b473'],['Residential Building (Apartment / Condo)'],0
56592e31498ef7fd88cdd82b,–¢–£-134,"['–†—É—Å–∞–Ω–æ–≤—Å–∫–∞—è –Ω–∞–±–µ—Ä–µ–∂–Ω–∞—è, 10/1', '–ö–∏—ó–≤', '–£–∫—Ä–∞—ó–Ω–∞']",50.439584,30.593718,26,0,32,63,1,0,['4bf58dd8d48988d12d941735'],['Monument / Landmark'],0
50b64130e4b0bc146b99e476,–∞–ø—Ç–µ–∫–∞ –∫–æ—Å–º–æ,"['–†—É—Å–∞–Ω–æ–≤—Å–∫–∞—è –ù–∞–±–µ—Ä–µ–∂–Ω–∞—è, 10', '–£–∫—Ä–∞—ó–Ω–∞']",50.43865564948839,30.59511894796845,25,1,19,25,0,0,['4bf58dd8d48988d10f951735'],['Pharmacy'],0
572636a2498ee9bee7fd3fb5,let's hook,"['–†—É—Å–∞–Ω–æ–≤—Å–∫–∏–π –ë—É–ª—å–≤–∞—Ä 7', '–ö–∏—ó–≤', '–£–∫—Ä–∞—ó–Ω–∞']",50.438709,30.594525,9,0,8,9,0,0,['56aa371be4b08b9a8d573538'],['Theme Restaurant'],0
571fa214498ebfe67e0f2715,–ó–∞—Ç–∏—Ä–∫–∞ –õ—é–±–∞–Ω—á–∏–∫–∞,['–£–∫—Ä–∞—ó–Ω–∞'],50.439269217782126,30.59543847545,32,0,10,47,0,0,['4d954b06a243a5684965b473'],['Residential Building (Apartment / Condo)'],0
53538b41498e05a2c83f3c1d,–î–µ—Ç—Å–∫–∞—è –ø–ª–æ—â–∞–¥–∫–∞ –Ω–∞ –±—É–ª—å–≤–∞—Ä–µ,"['–†—É—Å–∞–Ω–æ–≤—Å–∫–∏–π –ë—É–ª—å–≤–∞—Ä', '–£–∫—Ä–∞—ó–Ω–∞']",50.4384644964985,30.594282136770662,12,0,10,12,1,0,['4bf58dd8d48988d1e7941735'],['Playground'],0
575a8918498ee3ed91cc95b2,–ú–∞—Ä–∞—Ñ–µ—Ç,['–£–∫—Ä–∞—ó–Ω–∞'],50.438707,30.593668,7,0,2,7,0,0,['4bf58dd8d48988d10c951735'],['Cosmetics Shop'],0
504897a5e4b0756f6722f6ec,–ú–¢–°–ë–£,['–£–∫—Ä–∞—ó–Ω–∞'],50.438101373462885,30.594971179962158,112,1,74,128,0,0,['4bf58dd8d48988d124941735'],['Office'],0
58a9b10ebf1a6d74d12f49df,Macintosh,"['–†—É—Å–∞–Ω—ñ–≤—Å—å–∫–∏–π –ë—É–ª—å–≤–∞—Ä 7', '–ö–∏—ó–≤', '–£–∫—Ä–∞—ó–Ω–∞']",50.438748,30.594742,14,0,5,14,1,0,['4bf58dd8d48988d1e0931735'],['Coffee Shop'],0
4e383a27483bda3eb1190f34,–ë—É–ª—å–≤–∞—Ä,"['–±—É–ª. –†—É—Å–∞–Ω—ñ–≤—Å—å–∫–∏–π, 7 (–†—É—Å–∞–Ω–æ–≤—Å–∫–∞—è –Ω–∞–±–µ—Ä–µ–∂–Ω–∞—è)', '–ö–∏—ó–≤', '–£–∫—Ä–∞—ó–Ω–∞']",50.43867864518192,30.594853079988937,1290,35,992,1893,65,6.5,['52e81612bcbc57f1066b79f9'],['Modern European Restaurant'],113
56f97fc1498e6968f2a85bdb,Mr. White,"['–±—É–ª. –†—É—Å–∞–Ω—ñ–≤—Å—å–∫–∏–π, 7', '–ö–∏—ó–≤', '–£–∫—Ä–∞—ó–Ω–∞']",50.438524,30.594925,979,26,679,1835,57,7.4,"['4bf58dd8d48988d119941735', '4bf58dd8d48988d121941735']","['Hookah Bar', 'Lounge']",94
5197f02e498e965e7ad990e5,–†—É—Å–∞–Ω–æ–≤—Å–∫–∞—è –ù–∞–±–µ—Ä–µ–∂–Ω–∞—è 10/1,['–£–∫—Ä–∞—ó–Ω–∞'],50.43965009730633,30.59200668343272,236,2,136,277,3,0,['4d954b06a243a5684965b473'],['Residential Building (Apartment / Condo)'],0
522a5f2511d2f7efb1d26805,–ß–∏–∂ appartements),"['–†—É—Å–∞–Ω–æ–≤—Å–∫–∏–π –ë—É–ª—å–≤–∞—Ä 10', '–£–∫—Ä–∞—ó–Ω–∞']",50.437536,30.595821,5,0,3,5,1,0,['4d954b06a243a5684965b473'],['Residential Building (Apartment / Condo)'],0
53536625498e830ce11c3775,–†–æ–¥–Ω–æ–π –¥–æ–ºüè¢,"['–î–∞–≤—ã–¥–æ–≤–∞ 10', '–ö–∏—ó–≤', '–£–∫—Ä–∞—ó–Ω–∞']",50.43657932959338,30.59737568350191,13,0,2,15,0,0,['4d954b06a243a5684965b473'],['Residential Building (Apartment / Condo)'],0
56543a31498e3127b553ee8a,–ö–ª–∏–Ω–∏–∫–∞ –ª–∞–∑–µ—Ä–Ω–æ–π –∫–æ—Å–º–µ—Ç–æ–ª–æ–≥–∏–∏ –∏ –ø–ª–∞—Å—Ç–∏—á–µ—Å–∫–æ–π —Ö–∏—Ä—É—Ä–≥–∏–∏ Gold Laser,"['—É–ª. –õ—å–≤–∞ –¢–æ–ª—Å—Ç–æ–≥–æ, 8', '–ö–∏—ó–≤', '–£–∫—Ä–∞—ó–Ω–∞']",50.43833015448745,30.596526493670453,7,0,5,7,0,0,['54541900498ea6ccd0202697'],['Health & Beauty Service'],0
529ef86211d22184acbd79c4,–≠–∫–æ–Ω–æ–º —Ç–∞–∫—Å–∏,['–£–∫—Ä–∞—ó–Ω–∞'],50.436546325683594,30.597509384155273,25,0,4,25,0,0,['4bf58dd8d48988d130951735'],['Taxi'],0
5680eb4c498e8f5eda4c7add,DONE!,"['–±-—Ä –î–∞–≤—ã–¥–æ–≤–∞, 12', '–ö–∏—ó–≤', '–£–∫—Ä–∞—ó–Ω–∞']",50.43830611906401,30.597817919610115,110,0,61,191,0,0,['52e81612bcbc57f1066b7a3d'],['Advertising Agency'],0
5271135711d2034dd724fe4b,TimaLeraHatka,"['—Ä—É—Å–∞–Ω–æ–≤—Å–∫–∏–π –±—É–ª—å–≤–∞—Ä 10', '–ö–∏—ó–≤', '–£–∫—Ä–∞—ó–Ω–∞']",50.43725155907641,30.595528461924463,281,0,15,311,0,0,['4d954b06a243a5684965b473'],['Residential Building (Apartment / Condo)'],0
52baea57498eac595b80d359,–¥–æ–º –ª—é–±–≤–∏,['–£–∫—Ä–∞—ó–Ω–∞'],50.437502168038925,30.596854521243685,30,1,9,38,1,0,"['4bf58dd8d48988d16a941735', '4bf58dd8d48988d103941735']","['Bakery', 'Home (private)']",0
52b473fb498e8bf3e39b7890,–ú–∞–Ω–∏–∫—é—Ä –ë–∞—Ä –ê–ª–∏–Ω—ã üòç,"['–ë—É–ª—å–≤–∞—Ä –î–∞–≤—ã–¥–æ–≤–∞ 10', '–ö–∏—ó–≤', '–£–∫—Ä–∞—ó–Ω–∞']",50.437837420775814,30.597917885808293,102,1,10,107,2,0,['4bf58dd8d48988d127941735'],['Conference Room'],0
52fc0191498eef3a734384d3,Expecto Patronum,"['–ë—É–ª—å–≤–∞—Ä –î–∞–≤—ã–¥–æ–≤–∞ (13)', '–ö–∏—ó–≤', '–£–∫—Ä–∞—ó–Ω–∞']",50.43815733714351,30.597981038454023,50,1,3,52,0,0,['4d954b06a243a5684965b473'],['Residential Building (Apartment / Condo)'],0
555deb3c498e642743341343,–£ –°–µ—Å—Ç—Ä–∏—á–∫–∏ –î–æ–º–∞,"['–ë—É–ª. –î–∞–≤—ã–¥–æ–≤–∞', '–ö–∏—ó–≤', '–£–∫—Ä–∞—ó–Ω–∞']",50.43791020180807,30.597398886296304,27,0,7,31,0,0,['4d954b06a243a5684965b473'],['Residential Building (Apartment / Condo)'],0
577d378c38fa31f5bba5f638,–ó–∞ –°–∏–Ω–∏–º,"['–ë—É–ª—å–≤–∞—Ä –î–∞–≤—ã–¥–æ–≤–∞', '–£–∫—Ä–∞—ó–Ω–∞']",50.438198,30.597692,7,0,2,8,0,0,['52e81612bcbc57f1066b7a28'],['Bathing Area'],0
56b31aeb498efde4873faa7c,–ñ–µ–ª–µ–∑–∫–∞,['–£–∫—Ä–∞—ó–Ω–∞'],50.436719,30.596384,4,0,2,4,0,0,['4bf58dd8d48988d1e7941735'],['Playground'],0
55b89422498ee820f1039966,–í–∑—Ä–æ—Å–ª–∞—è –ü–æ–ª–∏–∫–ª–∏–Ω–∏–∫–∞ –ù–∞ –†—É—Å–∞–Ω–æ–≤–∫–µ,"['—É–ª. –≠–Ω—Ç—É–∑–∏–∞—Å—Ç–æ–≤', '–ö–∏—ó–≤', '–£–∫—Ä–∞—ó–Ω–∞']",50.43788111019191,30.59554393850867,12,0,6,12,0,0,['4bf58dd8d48988d104941735'],['Medical Center'],0
57b0b29c498e1459feed81e9,Rusanovka Island.,"['–ö–∏—ó–≤', '–£–∫—Ä–∞—ó–Ω–∞']",50.437622,30.59741,1,0,1,1,0,0,['50aaa4314b90af0d42d5de10'],['Island'],0
55ad5459498e31c6e7f1ab6b,–°—Ç–æ—è–Ω–∫–∞ –≤–æ–∑–ª–µ –î–Ω–µ–ø—Ä–∞,"['–†—É—Å–∞–Ω—ñ–≤—Å—å–∫–∞ –ù–∞–±–µ—Ä–µ–∂–Ω–∞', '–ö–∏—ó–≤', '–£–∫—Ä–∞—ó–Ω–∞']",50.43294411781737,30.594648878291906,96,0,16,102,1,0,['4bf58dd8d48988d165941735'],['Scenic Lookout'],0
5832b7dd8d8e99259a166327,Sport life,"['–ö–∏—ó–≤', '–£–∫—Ä–∞—ó–Ω–∞']",50.436704,30.59724,9,0,5,10,0,7.9,"['4bf58dd8d48988d1f1931735', '4bf58dd8d48988d175941735']","['General Entertainment', 'Gym / Fitness Center']",0
523c053293cdbd116fc1f588,–ë—É–ª.–î–∞–≤—ã–¥–æ–≤–∞ 7,"['–±—É–ª—å–≤–∞—Ä –ê–ª–µ–∫—Å–µ—è –î–∞–≤—ã–¥–æ–≤–∞, 7, –ö–∏–µ–≤, –≥–æ—Ä–æ–¥ –ö–∏–µ–≤, –£–∫—Ä–∞–∏–Ω–∞ (–º–µ–∂–¥—É –≠–Ω—Ç—É–∑–∏–∞—Å—Ç–æ–≤ –∏ –†—É—Å–∞–Ω–æ–≤—Å–∫–∏–π –±—É–ª—å–≤–∞—Ä)', '–ö–∏—ó–≤', '–£–∫—Ä–∞—ó–Ω–∞']",50.436756967325366,30.596687793731693,563,2,31,583,2,0,['4d954b06a243a5684965b473'],['Residential Building (Apartment / Condo)'],0
5559caee498ebc638e0832ea,–ö—ñ–º–Ω–∞—Ç–∞ –ù–∞ –í–∏–º–æ–≥—É,['–£–∫—Ä–∞—ó–Ω–∞'],50.437496185302734,30.597789764404297,78,0,35,166,0,0,['5032891291d4c4b30a586d68'],['Assisted Living'],0
56c5fe82cd10d018b220822b,FDENTIST,"['–±—É–ª—å–≤–∞—Ä –î–∞–≤—ã–¥–æ–≤–∞, 12', '–ö–∏—ó–≤', '–£–∫—Ä–∞—ó–Ω–∞']",50.43818245265471,30.597630467289463,13,0,6,13,0,0,['4bf58dd8d48988d178941735'],"[""Dentist's Office""]",0
4fc0ac65e4b0557038b610e6,–ë–∞–∑–∞—Ä –Ω–∞ –†—É—Å–∞–Ω–æ–≤–∫–µ,"['–ë—É–ª—å–≤–∞—Ä –î–∞–≤—ã–¥–æ–≤–∞ (37)', '–ö–∏—ó–≤', '–£–∫—Ä–∞—ó–Ω–∞']",50.43808338972702,30.597654321248505,40,0,14,40,0,0,['4bf58dd8d48988d1fa941735'],['Farmers Market'],0
50996f83e4b0b01fef172357,–î–∞–≤—ã–¥–æ–≤–∞ 10,"['–±—É–ª—å–≤–∞—Ä –ê.–î–∞–≤—ã–¥–æ–≤–∞, –¥.10', '–ö–∏—ó–≤, 02154', '–£–∫—Ä–∞—ó–Ω–∞']",50.43745610609721,30.59786829188301,473,2,193,718,9,0,['4d954b06a243a5684965b473'],['Residential Building (Apartment / Condo)'],0
51a9e61f498eee8aafb113b7,–ö–∏–µ–≤—Å–∫–∞—è –í–µ–Ω–µ—Ü–∏—è / Kiev Venecia,"['–±—É–ª. –ò. –®–∞–º–æ (–ê. –î–∞–≤—ã–¥–æ–≤–∞), 10 (—É–ª. –≠–Ω—Ç—É–∑–∏–∞—Å—Ç–æ–≤)', '–ö–∏—ó–≤', '–£–∫—Ä–∞—ó–Ω–∞']",50.436971117295826,30.597839784908192,237,3,249,568,24,7.8,['4bf58dd8d48988d110951735'],['Salon / Barbershop'],32
56b1594c498e3c3c13b4b728,–ø—ñ–¥ –ø–∞–¥—ñ–∫–æ–º,['–£–∫—Ä–∞—ó–Ω–∞'],50.437378,30.5978,31,0,7,34,0,0,['4bf58dd8d48988d162941735'],['Other Great Outdoors'],0
4f85884ae4b08d4037ea4893,–®–∫–æ–ª–∞ ‚Ññ141,"['–±—É–ª. –î–∞–≤–∏–¥–æ–≤–∞, 5', '–ö–∏—ó–≤, 02154', '–£–∫—Ä–∞—ó–Ω–∞']",50.43649856132306,30.597293107756588,596,5,316,1254,8,0,['4bf58dd8d48988d13d941735'],['High School'],0
578b66ca498e88772e0c891d,–û—Å—Ç–∞–Ω–æ–≤–∫–∞ —Å–µ—Ä–¥—Ü–∞,"['–ë—É–ª—å–≤–∞—Ä –®–∞–º–æ 7', '–ö–∏—ó–≤', '–£–∫—Ä–∞—ó–Ω–∞']",50.437454,30.597229,77,0,10,83,1,0,['52f2ab2ebcbc57f1066b8b55'],['Trailer Park'],0
52c7378c498e70d0c953d3a3,domik Vir4i‚òÄÔ∏è,"['–î–∞–≤—ã–¥–æ–≤–∞ 7', '–£–∫—Ä–∞—ó–Ω–∞']",50.437123901069995,30.596785721422652,768,0,23,790,0,0,['4d954b06a243a5684965b473'],['Residential Building (Apartment / Condo)'],0
58bc1b9b7d0f6d343193283d,BlackBar,"['–ë—É–ª—å–≤–∞—Ä –î–∞–≤—ã–¥–æ–≤–∞', '–ö–∏—ó–≤', '–£–∫—Ä–∞—ó–Ω–∞']",50.438109,30.597749,13,2,16,23,2,0,['4bf58dd8d48988d1c4941735'],['Restaurant'],0
5867e7b59dc8d02a32111c0c,—É –ö–∞—Ä–∞–±–∞—Å–∞,"['–ö–∏—ó–≤', '–£–∫—Ä–∞—ó–Ω–∞']",50.437595,30.596968,47,0,2,47,0,0,['56aa371be4b08b9a8d573511'],['Cave'],0
583007979dc8d00576a6273d,SportLife,['–£–∫—Ä–∞—ó–Ω–∞'],50.438254,30.596456,119,0,50,205,2,0,['52e81612bcbc57f1066b7a2e'],['Sports Club'],0
4df79d81d22df20cc2d80980,–ê–ª–µ—è –Ω–∞ –±—É–ª. –î–∞–≤–∏–¥–æ–≤–∞,"['–±—É–ª. –î–∞–≤–∏–¥–æ–≤–∞', '–ö–∏—ó–≤', '–£–∫—Ä–∞—ó–Ω–∞']",50.43672976762358,30.597550129086514,4026,13,1498,5628,72,7.9,['52e81612bcbc57f1066b7a25'],['Pedestrian Plaza'],95
4e510455d164978659dfc432,Sport Life,"['–†—É—Å–∞–Ω—ñ–≤—Å—å–∫–∏–π –±—É–ª., 12', '–ö–∏—ó–≤, 02154', '–£–∫—Ä–∞—ó–Ω–∞']",50.43824694631242,30.596537709972147,5876,22,1222,9009,71,7.7,['4bf58dd8d48988d176941735'],['Gym'],104
54fc4190498e83b622e0b1a1,–ë–µ—Å–µ–¥–∫–∞ –Ω–∞ –ù–∞–±–µ—Ä–µ–∂–Ω–æ–π,"['–†—É—Å–∞–Ω–æ–≤—Å–∫–∞—è –ù–∞–±–µ—Ä–µ–∂–Ω–∞—è', '–ö–∏—ó–≤', '–£–∫—Ä–∞—ó–Ω–∞']",50.43832480860787,30.5914468028887,18,0,16,19,1,0,['52e81612bcbc57f1066b7a25'],['Pedestrian Plaza'],0
507b3450e4b074740607d346,Number 2/8,['–£–∫—Ä–∞—ó–Ω–∞'],50.437939553262964,30.592436015046538,1212,0,24,1222,3,0,['4d954b06a243a5684965b473'],['Residential Building (Apartment / Condo)'],0
5651ca9f498e6f7382a0f429,"–ê–ª–∫–æ–ø—Ä–∏—Ç–æ–Ω ""–û–¥–∏–Ω–æ–∫–∏–π –ø–∏—Å–∞—Ç–µ–ª—å""",['–£–∫—Ä–∞—ó–Ω–∞'],50.439032,30.592278,9,0,8,9,0,0,['52e81612bcbc57f1066b7a32'],['Cultural Center'],0
546dfe12498e22b3445850ef,NPS Nikon Professional Services,['–£–∫—Ä–∞—ó–Ω–∞'],50.43733871610334,30.59266453931151,24,0,10,26,0,0,['4eb1bdf03b7b55596b4a7491'],['Camera Store'],0
4dd54971b0fb7a332e7cdbae,–ö–æ—Å–º–æ,"['–†—É—Å–∞–Ω—ñ–≤—Å—å–∫–∞ –Ω–∞–±–µ—Ä–µ–∂–Ω–∞, 10', '–ö–∏—ó–≤, 02154', '–£–∫—Ä–∞—ó–Ω–∞']",50.43980466369563,30.592086214955323,121,0,61,129,5,0,"['4bf58dd8d48988d10c951735', '4bf58dd8d48988d10f951735']","['Cosmetics Shop', 'Pharmacy']",0
58aeed55a370b9538486bc2c,"–ó—É–ø–∏–Ω–∫–∞ ""–†—É—Å–∞–Ω—ñ–≤—Å—å–∫–∏–π –ë—É–ª—å–≤–∞—Ä""","[""Rusanivs'ka Naberezhna Street, 8"", '–ö–∏—ó–≤', '–£–∫—Ä–∞—ó–Ω–∞']",50.4378,30.592045,1,0,1,1,0,0,['52f2ab2ebcbc57f1066b8b4f'],['Bus Stop'],0
52d07670498e071fa12e3282,–ë–ú–ê (–ë—Ä–∏–≥–∞–¥–∞ –ú–æ–±–∏–ª—å–Ω—ã—Ö –ê–ª–∫–æ–≥–æ–ª–∏–∫–æ–≤),"['–†—É—Å–∞–Ω–æ–≤—Å–∫–∞—è –ù–∞–±–µ—Ä–µ–∂–Ω–∞—è', '–ö–∏—ó–≤', '–£–∫—Ä–∞—ó–Ω–∞']",50.43794007344227,30.59230710831659,5,1,5,5,0,0,['4bf58dd8d48988d1e1931735'],['Arcade'],0
5363636e498ed10960cdad72,–ï–∫–æ-–õ–∞–≤–∫–∞,"['Rusanivska Naberezhna, 8', '–ö–∏—ó–≤', '–£–∫—Ä–∞—ó–Ω–∞']",50.43754365122352,30.592335646515927,21,0,18,22,2,0,['52f2ab2ebcbc57f1066b8b45'],['Organic Grocery'],0
520f7569498e2f987659b0a4,–ü–æ—Å—É–¥–∞ De Lux,"['–†—É—Å–∞–Ω–æ–≤—Å–∫–∞—è –ù–∞–±. 8', '–ö–∏—ó–≤', '–£–∫—Ä–∞—ó–Ω–∞']",50.43650512909054,30.592531644362772,58,0,53,62,3,0,['4bf58dd8d48988d1ff941735'],['Miscellaneous Shop'],0
50800f5a72da540295b0ccf8,–õ–µ—Å—Ç–Ω–∏—Ü–∞,"['–†—É—Å–∞–Ω—ñ–≤—Å—å–∫–∞ –Ω–∞–±., 12', '–ö–∏—ó–≤', '–£–∫—Ä–∞—ó–Ω–∞']",50.44128470323507,30.591781275639654,38,2,25,38,7,7.4,['52e81612bcbc57f1066b79ed'],['Outdoor Sculpture'],9
5209005811d2676ef876b99b,–ö–æ—Å–º–æ –ê–ø—Ç–µ–∫–∞,['–£–∫—Ä–∞—ó–Ω–∞'],50.44001496796882,30.592153372878602,41,1,30,44,1,0,['4bf58dd8d48988d10f951735'],['Pharmacy'],0
56b0a375498e07b6ff7ef9c8,sanitas,['–£–∫—Ä–∞—ó–Ω–∞'],50.43819338095321,30.592877258004428,9,0,2,9,1,0,['4bf58dd8d48988d10f951735'],['Pharmacy'],0
4c261ef2a852c928b9fae56c,–ö–∏–µ–≤—Å–∫–∏–π –∫—Ä–µ–π—Å–µ—Ä—Å–∫–∏–π —è—Ö—Ç-–∫–ª—É–±,"[""Dniprovs'ka emb., 12"", '–ö–∏—ó–≤', '–£–∫—Ä–∞—ó–Ω–∞']",50.438730034604774,30.590829849243164,60,0,31,60,0,0,['4bf58dd8d48988d1e0941735'],['Harbor / Marina'],0
4facd206e4b00911a70055a8,–¢—É—Ä–Ω–∏–∫–∏,['–£–∫—Ä–∞—ó–Ω–∞'],50.43985922878552,30.590900792687165,107,1,32,109,1,0,['4f4528bc4b90abdf24c9de85'],['Athletics & Sports'],0
4e2960481f6e88a1546b4720,Watsons,"['–†—É—Å–∞–Ω—ñ–≤—Å—å–∫–∞ –Ω–∞–±., 10', '–ö–∏—ó–≤, 02154', '–£–∫—Ä–∞—ó–Ω–∞']",50.43898468658731,30.59218355352074,602,5,211,665,1,5.6,"['4bf58dd8d48988d10c951735', '4bf58dd8d48988d10f951735']","['Cosmetics Shop', 'Pharmacy']",21
53920d0c498ecd20b1921111,Panorama,['–£–∫—Ä–∞—ó–Ω–∞'],50.43587841834289,30.591688204060787,30,0,23,32,1,0,['4bf58dd8d48988d1c4941735'],['Restaurant'],0
562a93c3498ecf9a71c03d55,–ë–∞–ª–∫–æ–Ω's party,['–£–∫—Ä–∞—ó–Ω–∞'],50.437927553722304,30.59237397268732,33,0,6,34,0,0,['4d954b06a243a5684965b473'],['Residential Building (Apartment / Condo)'],0
520ccbc5498e74c68ccb92ca,–†—É—Å–∞–Ω–æ–≤—Å–∫–∞—è –ù–∞–±–µ—Ä–µ–∂–Ω–∞—è 8,"['–†—É—Å–∞–Ω—ñ–≤—Å—å–∫–∞ –ù–∞–±–µ—Ä–µ–∂–Ω–∞', '–ö–∏—ó–≤, 02100', '–£–∫—Ä–∞—ó–Ω–∞']",50.436973700349945,30.592628739785376,792,0,359,1065,6,0,['4d954b06a243a5684965b473'],['Residential Building (Apartment / Condo)'],0
526b760f498e3c2984aa6b1d,Swarzkopf Professional,"['–†—É—Å–∞–Ω–æ–≤—Å–∫–∞—è –Ω–∞–±–µ—Ä–µ–∂–Ω–∞—è, 10', '–ö–∏—ó–≤', '–£–∫—Ä–∞—ó–Ω–∞']",50.44027918024825,30.592094023886624,240,5,79,271,13,6.9,['4bf58dd8d48988d110951735'],['Salon / Barbershop'],21
5538cb02498eba55eb4f10e4,–ë–∞—Ç—å–∫—ñ–≤—Å—å–∫–∞ –•–∞—Ç–∞,"[""Rusanivs'ka Naberezhna, 10"", '–ö–∏—ó–≤', '–£–∫—Ä–∞—ó–Ω–∞']",50.4395333322199,30.592674608492786,50,0,8,57,0,0,['52e928d0bcbc57f1066b7e96'],['Ukrainian Restaurant'],0
5118d0dae4b0665cef82cb88,–ü—Ä–∏–≤–∞—Ç –±–∞–Ω–∫,"['–†—É—Å–∞–Ω–æ–≤—Å–∫–∏–π –ë—É–ª—å–≤–∞—Ä 2/8', '–ö–∏—ó–≤', '–£–∫—Ä–∞—ó–Ω–∞']",50.43815001578084,30.592979024217815,403,4,210,508,3,5.3,['4bf58dd8d48988d10a951735'],['Bank'],11
4eb92f155c5c5a532196f116,–õ—é–∫—Å–æ–ø—Ç–∏–∫–∞,['–£–∫—Ä–∞—ó–Ω–∞'],50.43742766553475,30.59251265773486,183,2,120,198,8,0,['4d954afda243a5684865b473'],['Optical Shop'],0
54639467498e04b020fc17c9,"–°–µ—Ä–≤–∏—Å–Ω—ã–π —Ü–µ–Ω—Ç—Ä ""–ö–µ–Ω—Ñ–æ—Ä–¥ –£–∫—Ä–∞–Ω–∞""",['–£–∫—Ä–∞—ó–Ω–∞'],50.43721323029875,30.592476985309226,100,0,97,142,0,0,['4bf58dd8d48988d122951735'],['Electronics Store'],0
57b0cdbb498e4efc9b985e25,Panda's Home,"['–†—É—Å–∞–Ω–æ–≤—Å–∫–∞—è –ù–∞–±–µ—Ä–µ–∂–Ω–∞—è, 10', '–ö–∏—ó–≤', '–£–∫—Ä–∞—ó–Ω–∞']",50.439224,30.592283,12,0,1,12,0,0,['4d954b06a243a5684965b473'],['Residential Building (Apartment / Condo)'],0
4f7aec86754a7b4d222d9a36,"–°–µ—Ä–≤–∏—Å–Ω—ã–π —Ü–µ–Ω—Ç—Ä ""–†–ê–í–ò–°""","['–†—É—Å–∞–Ω—ñ–≤—Å—å–∫–∞ –ù–∞–±–µ—Ä–µ–∂–Ω–∞, 8', '–ö–∏—ó–≤, 02154', '–£–∫—Ä–∞—ó–Ω–∞']",50.437056360788844,30.59246980156665,335,13,223,362,4,4.7,"['4f04afc02fb6e1c99f3db0bc', '4bf58dd8d48988d122951735']","['Mobile Phone Shop', 'Electronics Store']",26
5901d3da5d891b426ae6bfe3,–ú–æ–º–µ–Ω—Ç—ã,"['–†—É—Å–∞–Ω–æ–≤—Å–∫–∞—è –Ω–∞–±–µ—Ä–µ–∂–Ω–∞—è 10–±', '–ö–∏—ó–≤', '–£–∫—Ä–∞—ó–Ω–∞']",50.440105,30.592063,8,0,2,8,0,0,['4bf58dd8d48988d1c4941735'],['Restaurant'],0
51e14872498e5597f727a084,Tarantino Italian&Grill,"['–†—É—Å–∞–Ω—ñ–≤—Å—å–∫–∞ –Ω–∞–±., 10', '–ö–∏—ó–≤, 02154', '–£–∫—Ä–∞—ó–Ω–∞']",50.44022767655184,30.591983622642513,8528,230,7110,15536,655,8.0,"['4bf58dd8d48988d110941735', '4bf58dd8d48988d1cc941735']","['Italian Restaurant', 'Steakhouse']",974
56cefe5acd1026a2696ae204,Pesto Cafe,"['–†—É—Å–∞–Ω—ñ–≤—Å—å–∫–∞ –Ω–∞–±., 8', '–ö–∏—ó–≤, 02154', '–£–∫—Ä–∞—ó–Ω–∞']",50.43639957513695,30.59282598333487,1191,92,1895,3084,178,7.7,['4bf58dd8d48988d110941735'],['Italian Restaurant'],296
5905fc3f3d47912d4b97d824,–ú–æ–º–µ–Ω—Ç–∏,"['–≤—É–ª–∏—Ü—è –†—É—Å–∞–Ω—ñ–≤—Å—å–∫–∞ –ù–∞–±–µ—Ä–µ–∂–Ω–∞, 10', '–ö–∏—ó–≤', '–£–∫—Ä–∞—ó–Ω–∞']",50.440113,30.592201,47,0,38,48,4,0,"['52e81612bcbc57f1066b79f9', '4bf58dd8d48988d16d941735']","['Modern European Restaurant', 'Caf√©']",0
4c3e16e3b03795213a0c9ba7,–°—ñ–ª—å–ø–æ / Silpo,"['–†—É—Å–∞–Ω—ñ–≤—Å—å–∫–∞ –Ω–∞–±., 10', '–ö–∏—ó–≤', '–£–∫—Ä–∞—ó–Ω–∞']",50.43953803153366,30.592211851366553,2796,22,2352,6264,65,6.0,['52f2ab2ebcbc57f1066b8b46'],['Supermarket'],114
508ec734498e5bcb63b13f29,Spaghetti –ø–∞—Å—Ç–∞-–±–∞—Ä,"['–†—É—Å–∞–Ω—ñ–≤—Å—å–∫–∏–π –±—É–ª—å–≤–∞—Ä, 1', '–ö–∏—ó–≤', '–£–∫—Ä–∞—ó–Ω–∞']",50.43879836683449,30.592380166053772,2898,120,2439,4429,178,6.2,"['4bf58dd8d48988d110941735', '4bf58dd8d48988d1ca941735']","['Italian Restaurant', 'Pizza Place']",352
4e2022b0fa761d67106e3f00,–ü–∞–º'—è—Ç–Ω–∏–∫ –ú–∏–∫–æ–ª—ñ –ì–æ–≥–æ–ª—é,"['–†—É—Å–∞–Ω—ñ–≤—Å—å–∫–∏–π –±—É–ª. (–†—É—Å–∞–Ω—ñ–≤—Å—å–∫–∞ –Ω–∞–±.)', '–ö–∏—ó–≤', '–£–∫—Ä–∞—ó–Ω–∞']",50.4384120545286,30.592656421544532,2932,12,911,3184,26,0,['4bf58dd8d48988d12d941735'],['Monument / Landmark'],0
4c1214f777cea593c758cc60,–ú—É—Ä–∞–∫–∞–º–∏ / Murakami,"['–≤—É–ª. –†—É—Å–∞–Ω—ñ–≤—Å—å–∫–∞ –Ω–∞–±–µ—Ä–µ–∂–Ω–∞, 10', '–ö–∏—ó–≤', '–£–∫—Ä–∞—ó–Ω–∞']",50.439959999646945,30.592074394226074,7118,133,4556,10202,267,6.3,"['4bf58dd8d48988d1d2941735', '4bf58dd8d48988d111941735']","['Sushi Restaurant', 'Japanese Restaurant']",520
520b8d2ebce6f783e0ef4711,–ë–∞–Ω–∫–∞ –ë–∞—Ä / Banka Bar (–ë–∞–Ω–∫–∞ –ë–∞—Ä),"['–†—É—Å–∞–Ω—ñ–≤—Å—å–∫–∞ –Ω–∞–±., 8/2 (–†—É—Å–∞–Ω—ñ–≤—Å—å–∫–∏–π –±—É–ª.)', '–ö–∏—ó–≤, 02154', '–£–∫—Ä–∞—ó–Ω–∞']",50.43792557524856,30.592262325413756,16046,254,8210,21071,1044,8.4,"['4bf58dd8d48988d11e941735', '4bf58dd8d48988d116941735']","['Cocktail Bar', 'Bar']",1429
520b90d3049393e858e02a8b,–ñ–æ–≤—Ç–æ–∫ / Yolk (–ñ–æ–≤—Ç–æ–∫),"['–†—É—Å–∞–Ω—ñ–≤—Å—å–∫–∞ –Ω–∞–±., 8/2 (–†—É—Å–∞–Ω—ñ–≤—Å—å–∫–∏–π –±—É–ª.)', '–ö–∏—ó–≤, 02154', '–£–∫—Ä–∞—ó–Ω–∞']",50.43807632625914,30.592296456069374,16858,416,10560,26667,1243,8.2,"['4bf58dd8d48988d143941735', '4bf58dd8d48988d147941735']","['Breakfast Spot', 'Diner']",1802
58af0a82f7f8dd15012fb188,Spezzo,"['–†—É—Å–∞–Ω–æ–≤—Å–∫–∞—è –Ω–∞–±–µ—Ä–µ–∂–Ω–∞—è, 8', '–ö–∏—ó–≤', '–£–∫—Ä–∞—ó–Ω–∞']",50.436586,30.592408,310,17,479,630,53,7.1,['4bf58dd8d48988d110941735'],['Italian Restaurant'],80
559f740c498e200a5f9bd763,Soul Cafe,"['–≤—É–ª. –†—É—Å–∞–Ω—ñ–≤—Å—å–∫–∞ –Ω–∞–±–µ—Ä–µ–∂–Ω–∞, 10', '–ö–∏—ó–≤, 02147', '–£–∫—Ä–∞—ó–Ω–∞']",50.43979403069996,30.592060376480372,6780,242,4771,13813,614,8.4,['4bf58dd8d48988d16d941735'],['Caf√©'],892
4e19ee857d8b8af9139bc894,–†—É—Å–∞–Ω—ñ–≤—Å—å–∫–∞ –Ω–∞–±–µ—Ä–µ–∂–Ω–∞,"['–†—É—Å–∞–Ω—ñ–≤—Å—å–∫–∞ –Ω–∞–±.', '–ö–∏—ó–≤', '–£–∫—Ä–∞—ó–Ω–∞']",50.43799204023808,30.5914306640625,30983,89,16809,58830,1008,8.9,['56aa371be4b08b9a8d5734c3'],['Waterfront'],1201
56a29e66498e4d8ed3c7f42f,–ú–∞–ª–∏–Ω–∞ —É –î–∏–º—ã,"['–†—É—Å–∞–Ω–æ–≤—Å–∫–∞—è –ù–∞–±–µ—Ä–µ–∂–Ω–∞—è 8/1', '–£–∫—Ä–∞—ó–Ω–∞']",50.435257,30.595963,1,0,1,1,0,0,['4bf58dd8d48988d11a941735'],['Other Nightlife'],0
5228d987498ec5a69bcf1345,—Ç—É—Ä–Ω—ñ—á–∫–∏ –≤ —à–∫–æ–ª—ñ,['–£–∫—Ä–∞—ó–Ω–∞'],50.43553965833261,30.595937884231873,51,1,10,54,0,0,['4f4528bc4b90abdf24c9de85'],['Athletics & Sports'],0
5322a9ef498e2ee92dcbd1f7,–ó–¥–µ—Å—å –µ—Å—Ç—å –°–ß–ê–°–¢–¨–ï,"['–≠–Ω—Ç—É–∑–∏–∞—Å—Ç–æ–≤ 5/1', '–ö–∏—ó–≤', '–£–∫—Ä–∞—ó–Ω–∞']",50.43487253895578,30.596513834499742,46,0,4,64,0,0,"['4d954b06a243a5684965b473', '4bf58dd8d48988d103941735']","['Residential Building (Apartment / Condo)', 'Home (private)']",0
53974624498e1d03a75dd01f,üå∏üå∏üå∏Kirycevs Houseüå∏üå∏üå∏,['–£–∫—Ä–∞—ó–Ω–∞'],50.434083,30.596887,7,0,3,11,0,0,['4d954b06a243a5684965b473'],['Residential Building (Apartment / Condo)'],0
56573780498e5ca4d4b1c5f6,"–ü—Ä–∏–≤–∞—Ç–Ω–∏–π –∫–ª—É–±""–î—Ä—É–∂–±–∞""",['–£–∫—Ä–∞—ó–Ω–∞'],50.43452846663309,30.59790963969837,4,0,1,4,0,0,['52e81612bcbc57f1066b7a48'],['Language School'],0
54100d1a498e74dbf373845d,WOOLRICH,['–£–∫—Ä–∞—ó–Ω–∞'],50.434364,30.597959,6,0,6,7,1,0,['4bf58dd8d48988d104951735'],['Boutique'],0
53627bb1498ec65206d1bf4c,valley of sorrow,"['–£–ª. –≠–Ω—Ç—É–∑–∏–∞—Å—Ç–æ–≤', '–ö–∏—ó–≤', '–£–∫—Ä–∞—ó–Ω–∞']",50.43427,30.595737,18,2,3,20,1,0,['4d954b06a243a5684965b473'],['Residential Building (Apartment / Condo)'],0
4f75ef9fe4b09b10134e9e62,–ü—É–Ω–∫—Ç –í—ã–¥–∞—á–∏ –ª–∏—Ç–µ—Ä–∞—Ç—É—Ä—ã –ë–∏–±–ª–∏–æ—Ç–µ–∫–∏ –∏–º. –í. –ú–∞—è–∫–æ–≤—Å–∫–æ–≥–æ,['–£–∫—Ä–∞—ó–Ω–∞'],50.43367392598991,30.595970676254865,9,0,7,10,0,0,['4bf58dd8d48988d1a7941735'],['College Library'],0
5467bcdd498e137569682fbc,–£ –ï–≥–æ—Ä—ã—á–∞ –Ω–∞ —Ö–∞—Ç–µ,['–£–∫—Ä–∞—ó–Ω–∞'],50.433522,30.595869,2,0,1,3,0,0,['4d954b06a243a5684965b473'],['Residential Building (Apartment / Condo)'],0
50afab91e4b0602cfb749ed4,–î–∞–≤—ã–¥–æ–≤–∞ 5/1,['–£–∫—Ä–∞—ó–Ω–∞'],50.43497142191932,30.59688857392135,184,1,21,195,1,0,['4bf58dd8d48988d130941735'],['Building'],0
56791cca498e7572ab1229f9,üè° —Ä—É—Å–∞–Ω–æ–≤–∫–∞,"['–≠–Ω—Ç—É–∑–∏–∞—Å—Ç–æ–≤ 5', '–ö–∏—ó–≤', '–£–∫—Ä–∞—ó–Ω–∞']",50.43480647971876,30.59779389080997,9,0,9,11,0,0,['4d954b06a243a5684965b473'],['Residential Building (Apartment / Condo)'],0
5119031fe4b0e64d38a11005,–≠–Ω—Ç—É–∑–∏–∞—Å—Ç–æ–≤ 5,"['—É–ª. –≠–Ω—Ç—É–∑–∏–∞—Å—Ç–æ–≤, 5 (—É–ª. –ê–ª–µ–∫—Å–µ—è –î–∞–≤—ã–¥–æ–≤–∞)', '–ö–∏—ó–≤, 02154', '–£–∫—Ä–∞—ó–Ω–∞']",50.43463361960677,30.597311712286437,370,1,101,459,1,0,['4d954b06a243a5684965b473'],['Residential Building (Apartment / Condo)'],0
4f5792c3e4b01cdf1e70ccec,–ú—É–∑—ã–∫–∞–ª—å–Ω–∞—è –®–∫–æ–ª–∞ ‚Ññ16,"['—É–ª. –≠–Ω—Ç—É–∑–∏–∞—Å—Ç–æ–≤, 5A', '–ö–∏—ó–≤', '–£–∫—Ä–∞—ó–Ω–∞']",50.43459249749981,30.59572246545731,256,1,85,343,1,0,['4f04b10d2fb6e1c99f3db0be'],['Music School'],0
512a101ae4b0a2d7ade1264e,–°–∞–ª–æ–Ω –º–µ–±–ª—ñ–≤ –†—É—Å–∞–Ω—ñ–≤–∫–∞,"['–ï–Ω—Ç—É–∑—ñ–∞—Å—Ç—ñ–≤ 5', '–ö–∏—ó–≤', '–£–∫—Ä–∞—ó–Ω–∞']",50.43422160688304,30.596800105161204,46,0,20,49,2,0,['4bf58dd8d48988d1f8941735'],['Furniture / Home Store'],0
542e7812498ef8a7170fb6e3,–ö–∞–∑–∏–Ω–æ –û–ª–∏–º–ø,"['–ö—Ä–µ—â–∞—Ç–∏–∫ 44', '–ö–∏—ó–≤', '–£–∫—Ä–∞—ó–Ω–∞']",50.43479576121362,30.596912426630453,21,1,14,21,2,0,['4bf58dd8d48988d11f941735'],['Nightclub'],0
5555f01b498ed6e649480e68,"–ú–µ–∫—Å–∏–∫–∞–Ω—Å–∫–∏–π —Ä–µ—Å—Ç–æ—Ä–∞–Ω ""–£ –ø–æ—Ç–Ω–æ–≥–æ –≥–∞—É—á–æ""",['–£–∫—Ä–∞—ó–Ω–∞'],50.43485563727857,30.59689787634273,31,1,19,31,2,0,['4bf58dd8d48988d1c1941735'],['Mexican Restaurant'],0
4f855f04e4b064ded782aa86,–û—Å—Ç—Ä–æ–≤,"['–≤—É–ª. –ï–Ω—Ç—É–∑—ñ–∞—Å—Ç—ñ–≤, 5', '–ö–∏—ó–≤, 02154', '–£–∫—Ä–∞—ó–Ω–∞']",50.43428486002506,30.59781529251699,783,11,659,1558,48,9.0,"['4bf58dd8d48988d103951735', '4bf58dd8d48988d104951735']","['Clothing Store', 'Boutique']",62
52ea813b498e5883f50cdb78,–†–µ—Å—Ç–æ—Ä–∞–Ω –Ω–∞ 1 —ç—Ç–∞–∂–µ –≤ –ì–æ—Ç–µ–ª—å –°–ª–∞–≤—É—Ç–∏—á,"['–ì–æ—Ç–µ–ª—å –°–ª–∞–≤—É—Ç–∏—á', '–ö–∏—ó–≤, 02154', '–£–∫—Ä–∞—ó–Ω–∞']",50.433454488702594,30.593276023864746,161,3,32,172,3,6.1,['52e928d0bcbc57f1066b7e96'],['Ukrainian Restaurant'],9
56337c56498ef8307be103e7,Natali,"['–≠–Ω—Ç—É–∑–∏–∞—Å—Ç–æ–≤, 1', '–ö–∏—ó–≤', '–£–∫—Ä–∞—ó–Ω–∞']",50.43345,30.593707,2,0,1,2,1,0,['4f04aa0c2fb6e1c99f3db0b8'],['Nail Salon'],0
5361433d11d2c40d42f2721c,–ú–æ–π –ù–æ–≤—ã–π –î–æ–º :-),"['–†—É—Å–∞–Ω–æ–≤—Å–∫–∞—è –ù–∞–±–µ—Ä–µ–∂–Ω–∞—è 4/1', '–ö–∏—ó–≤', '–£–∫—Ä–∞—ó–Ω–∞']",50.434165954589844,30.59413719177246,10,0,1,10,0,0,"['4d954b06a243a5684965b473', '4bf58dd8d48988d103941735']","['Residential Building (Apartment / Condo)', 'Home (private)']",0
5284ea4011d20524a4787a0d,"""Backstage Managment""",['–£–∫—Ä–∞—ó–Ω–∞'],50.43376922607422,30.59393882751465,8,0,2,8,0,0,['4bf58dd8d48988d124941735'],['Office'],0
53132eb3498e35fffa1327e2,SWEET HOMEüíñ,['–£–∫—Ä–∞—ó–Ω–∞'],50.434339,30.59352,18,0,1,18,0,0,"['4d954b06a243a5684965b473', '4bf58dd8d48988d103941735']","['Residential Building (Apartment / Condo)', 'Home (private)']",0
4f78aacee4b067aa30bcd9c5,P90X Playground,['–£–∫—Ä–∞—ó–Ω–∞'],50.43577798810115,30.594778060913086,22,0,10,22,0,0,['4bf58dd8d48988d106941735'],['Track'],0
53386c1c498e2dd52183d962,Vinda's home,['–£–∫—Ä–∞—ó–Ω–∞'],50.43489835431467,30.593291360224924,20,0,2,20,0,0,"['4d954b06a243a5684965b473', '4bf58dd8d48988d103941735']","['Residential Building (Apartment / Condo)', 'Home (private)']",0
5059f297498e8786ff9de441,NCT,['–£–∫—Ä–∞—ó–Ω–∞'],50.43483339441906,30.594367741057944,9,0,3,9,0,0,['4bf58dd8d48988d124941735'],['Office'],0
4fd386f4e4b0cb311ecc7388,–°–æ–±–∞—á—å—è –ü–ª–æ—â–∞–¥–∫–∞,['–£–∫—Ä–∞—ó–Ω–∞'],50.434906855337296,30.594384345678534,37,1,13,37,0,0,['4bf58dd8d48988d1e5941735'],['Dog Run'],0
50310930e4b06486386b1e5f,–°–∞–ª–æ–Ω Honda,"['–ü—Ä–æ—Å–ø–µ–∫—Ç –ü–æ–±–µ–¥—ã, 115', '–ö–∏—ó–≤', '–£–∫—Ä–∞—ó–Ω–∞']",50.43511622606839,30.59439445787752,7,0,7,7,0,0,['4bf58dd8d48988d124951735'],['Automotive Shop'],0
546ef86a498e7c8d862990aa,–°–ü–∏–ú,['–£–∫—Ä–∞—ó–Ω–∞'],50.43409286304485,30.59355894374438,10,0,3,11,0,0,['4bf58dd8d48988d124941735'],['Office'],0
5097c64a5262f1967073dcca,Teaser Advertising Agency,"['–≠–Ω—Ç—É–∑–∏–∞—Å—Ç–æ–≤ 1', '–ö–∏—ó–≤', '–£–∫—Ä–∞—ó–Ω–∞']",50.43284007891511,30.593630029592003,168,0,5,172,1,0,['52e81612bcbc57f1066b7a3d'],['Advertising Agency'],0
5401c26e498eb4f0776c0d88,ptichulya house,['–£–∫—Ä–∞—ó–Ω–∞'],50.43585351293471,30.5939593133704,2,0,1,2,0,0,['4bf58dd8d48988d1d6941735'],['Strip Club'],0
5757966dcd10ac4152061c0b,–≤—É–ª. –Ü–≤–∞–Ω–∞ –ú–∏–∫–æ–ª–∞–π—á—É–∫–∞,"['–≤—É–ª. –Ü–≤–∞–Ω–∞ –ú–∏–∫–æ–ª–∞–π—á—É–∫–∞ (–≤—É–ª. –ê–º–≤—Ä–æ—Å—ñ—è –ë—É—á–º–∏)', '–ö–∏—ó–≤', '–£–∫—Ä–∞—ó–Ω–∞']",50.43435969495502,30.594159126503854,8,0,2,8,1,0,['4d954b06a243a5684965b473'],['Residential Building (Apartment / Condo)'],0
51b71be4498e42db8a083526,–ö–∞—Ñ–µ –Ω–∞ 10–º —ç—Ç–∞–∂–µ –æ—Ç–µ–ª—è –°–ª–∞–≤—É—Ç–∏—á,"['–≥–æ—Å—Ç–∏–Ω–∏—Ü–∞ ""–°–ª–∞–≤—É—Ç–∏—á"" (—É–ª. –≠–Ω—Ç—É–∑–∏–∞—Å—Ç–æ–≤, 1)', '–ö–∏—ó–≤, 02154', '–£–∫—Ä–∞—ó–Ω–∞']",50.43386614773442,30.59347385797203,70,3,21,70,1,0,['4bf58dd8d48988d16d941735'],['Caf√©'],0
538870ae498e2d6da87d5ad0,—Å—Ç—É–¥–∏—è,['–£–∫—Ä–∞—ó–Ω–∞'],50.434097634249184,30.595291842718044,5,0,2,5,0,0,['4bf58dd8d48988d1e9931735'],['Rock Club'],0
51d925a1498ebd04e877a790,–¶–µ—Ä–∫–æ–≤—å –í–æ—Å–∫—Ä–µ—Å–µ–Ω–∏–µ,"['–≤—É–ª. –ö—É—Ä–Ω–∞—Ç–æ–≤—Å—å–∫–æ–≥–æ, 20', '–ö–∏—ó–≤, 02139', '–£–∫—Ä–∞—ó–Ω–∞']",50.43376143817108,30.59328490218331,240,1,49,334,6,0,['4bf58dd8d48988d132941735'],['Church'],0
512f66bbe4b05f748572e853,"–≠–Ω—Ç—É–∑–∏–∞—Å—Ç–æ–≤, 3",['–£–∫—Ä–∞—ó–Ω–∞'],50.433893307325455,30.59533829586026,304,0,54,351,2,0,['4d954b06a243a5684965b473'],['Residential Building (Apartment / Condo)'],0
4f2e821be4b010c5f6e07678,—Ä—É—Å–∞–Ω–æ–≤—Å–∫–∞—è –Ω–∞–±–µ—Ä–µ–∂–Ω–∞—è 4/1,"['–†—É—Å–∞–Ω–æ–≤—Å–∫–∞—è –Ω–∞–±–µ—Ä–µ–∂–Ω–∞—è, 4/1', '–ö–∏—ó–≤', '–£–∫—Ä–∞—ó–Ω–∞']",50.4347655743161,30.593892912003547,421,1,77,484,1,0,['4d954b06a243a5684965b473'],['Residential Building (Apartment / Condo)'],0
4d920edc56a3f04d9f4ff141,–î–µ—Ç—Å–∫–∞—è –ø–ª–æ—â–∞–¥–∫–∞ @ –†—É—Å–∞–Ω–æ–≤–∫–∞,['–£–∫—Ä–∞—ó–Ω–∞'],50.4360425147863,30.592992817842045,494,2,142,525,2,5.3,['4bf58dd8d48988d1e7941735'],['Playground'],8
54101647498e436e5cc86c94,–°—Ç—É–¥–∏—è –Ω–æ–≥—Ç–µ–≤–æ–≥–æ —Å–µ—Ä–≤–∏—Å–∞ –û–¥—ã–Ω—Å–∫–æ–π –ê–ª–∏–Ω—ã,"['–†—É—Å–∞–Ω–æ–≤—Å–∫–∞—è –ù–∞–±–µ—Ä–µ–∂–Ω–∞—è 4', '–£–∫—Ä–∞—ó–Ω–∞']",50.435323848467306,30.593058835151766,46,0,11,56,2,0,['4bf58dd8d48988d110951735'],['Salon / Barbershop'],0
4c4de09cd667d13a353a8e9f,–§—É—Ä—à–µ—Ç / Furshet,"['–≤—É–ª. –†—É—Å–∞–Ω—ñ–≤—Å—å–∫–∞ –Ω–∞–±–µ—Ä–µ–∂–Ω–∞, 4', '–ö–∏—ó–≤', '–£–∫—Ä–∞—ó–Ω–∞']",50.43527451457863,30.592723141226745,2014,10,1601,3691,27,5.2,['52f2ab2ebcbc57f1066b8b46'],['Supermarket'],69
518bd1af498ea67bcf40fdc6,Passione Tea & Coffee,"['–†—É—Å–∞–Ω–æ–≤—Å–∫–∞—è –ù–∞–±–µ—Ä–µ–∂–Ω–∞—è', '–£–∫—Ä–∞—ó–Ω–∞']",50.435298770216136,30.592938572190878,171,5,90,185,9,7.0,['4bf58dd8d48988d1e0931735'],['Coffee Shop'],15
52b801fb498e194d91549d73,–®–∫–æ–ª–∞ –ú–æ–Ω—Ç–µ—Å—Å–æ—Ä–∏,"['–ö–∏—ó–≤', '–£–∫—Ä–∞—ó–Ω–∞']",50.43518178108488,30.594530053186908,306,2,115,845,1,0,"['4bf58dd8d48988d13b941735', '4f4533804b9074f6e4fb0105']","['School', 'Elementary School']",0
5130febde4b02d07d52eb950,–í–∞—Ä–µ–Ω–∏—á–Ω–∞—è ¬´–ö–∞—Ç—é—à–∞¬ª,"['–†—É—Å–∞–Ω—ñ–≤—Å—å–∫–∞ –Ω–∞–±–µ—Ä–µ–∂–Ω–∞, 4', '–ö–∏—ó–≤', '–£–∫—Ä–∞—ó–Ω–∞']",50.43460767248777,30.592791432055034,3666,107,3505,6234,193,5.5,['52e928d0bcbc57f1066b7e9a'],['Varenyky restaurant'],403
530c4771498e7d94fe39489f,SweetHome,['–£–∫—Ä–∞—ó–Ω–∞'],50.43168992521272,30.597978013556688,36,0,1,37,0,0,"['4d954b06a243a5684965b473', '4bf58dd8d48988d103941735']","['Residential Building (Apartment / Condo)', 'Home (private)']",0
4fa926e3e4b08ab44fcbf6f3,–ë—Ä—É—Å—è,['–£–∫—Ä–∞—ó–Ω–∞'],50.43295669555664,30.597082138061523,3,0,2,3,0,0,['4cce455aebf7b749d5e191f5'],['Soccer Field'],0
5253a69011d23c4cd4eb3dc3,"–û—Å—Ç–∞–Ω–æ–≤–∫–∞ ""–ì–æ—Ç–µ–ª—å –°–ª–∞–≤—É—Ç–∏—á""","['–ö–∏—ó–≤', '–£–∫—Ä–∞—ó–Ω–∞']",50.431840969248576,30.59587675073065,21,2,13,21,0,0,['4bf58dd8d48988d1fe931735'],['Bus Station'],0
502e8727e4b0c17c81b8d98f,–°–∞–ª–æ–Ω,"['–°–µ—Ä–∞—Ñ–∏–º–æ–≤–∏—á–∞ 3', '–£–∫—Ä–∞—ó–Ω–∞']",50.43149185180664,30.59593391418457,8,0,4,8,1,0,['4bf58dd8d48988d110951735'],['Salon / Barbershop'],0
57d42d6e498ebceb8e16a39e,–ø–∞—Ä–∫ —ñ–º. I–≤–∞–Ω–∞ –í–∞—Å–∏–ª—å–æ–≤–∏—á–∞ –ú–∏–∫–æ–ª–∞–π—á—É–∫–∞,['–£–∫—Ä–∞—ó–Ω–∞'],50.432344,30.597914,8,0,2,8,0,0,['4bf58dd8d48988d163941735'],['Park'],0
53ef1c5e498e08d769c9eeb5,–ü–µ—Å–æ—á–Ω–æ–µ —Ü–∞—Ä—Å—Ç–≤–æ,"['–°–µ—Ä–∞—Ñ–∏–º–æ–≤–∏—á–∞, 7', '–ö–∏–µ–∞', '–£–∫—Ä–∞—ó–Ω–∞']",50.431252902343786,30.597818638909796,13,0,2,15,1,0,['4d954b06a243a5684965b473'],['Residential Building (Apartment / Condo)'],0
56bb40af498e3db71c0ce7c3,Fransaiseüìö,['–£–∫—Ä–∞—ó–Ω–∞'],50.43095197879522,30.59649314220344,16,0,1,16,0,0,['4d954b06a243a5684965b473'],['Residential Building (Apartment / Condo)'],0
4fe57452e4b0b3b9732530e4,–ö–ª–∏–Ω–∏–∫–∞,['–£–∫—Ä–∞—ó–Ω–∞'],50.43202461496829,30.59593422501551,8,0,10,10,0,0,['4f4531b14b9074f6e4fb0103'],['Medical Lab'],0
56d9ebcd498efc5344a673f0,–ú–æ–π –õ—é–±–∏–º—ã–π –î–æ–º:) –° –ñ–µ–Ω–æ–π:),"['–°–µ—Ä–∞—Ñ–∏–º–æ–≤–∏—á–∞ 3', '–ö–∏—ó–≤', '–£–∫—Ä–∞—ó–Ω–∞']",50.431484,30.597895,1,0,1,1,0,0,['52f2ab2ebcbc57f1066b8b55'],['Trailer Park'],0
52af042311d2fb447b2d4a56,–ù–æ—Ç–∞—Ä–∏—É—Å –ß–µ—Ä–Ω—è–≤—Å–∫–∞—è –ù.–Æ.,"['–°–µ—Ä–∞—Ñ–∏–º–æ–≤–∏—á–∞, 7', '–ö–∏—ó–≤', '–£–∫—Ä–∞—ó–Ω–∞']",50.431601585013695,30.5978702471581,45,0,10,48,0,0,['4bf58dd8d48988d130941735'],['Building'],0
5596537b498e62b2aa6d10b1,–ì–æ—Ä–æ–¥—Å–∫–∞—è –ö–ª–∏–Ω–∏—á–µ—Å–∫–∞—è –ë–æ–ª—å–Ω–∏—Ü–∞ –Ω–æ–º–µ—Ä 17,['–£–∫—Ä–∞—ó–Ω–∞'],50.43225436380973,30.59738843840494,19,0,7,19,0,0,['4bf58dd8d48988d196941735'],['Hospital'],0
541c8547498e4556bea080d7,–≤—ñ–ª—å–Ω–∞ –±—ñ–±–ª—ñ–æ—Ç–µ–∫–∞,['–£–∫—Ä–∞—ó–Ω–∞'],50.431005,30.595606,7,0,6,8,1,0,['4bf58dd8d48988d12f941735'],['Library'],0
58fc778fc21cb16c17e5f9d3,"–ó—É–ø–∏–Ω–∫–∞ ""–º–∞—Å–∏–≤ –†—É—Å–∞–Ω—ñ–≤–∫–∞""",['–£–∫—Ä–∞—ó–Ω–∞'],50.432003,30.5961,2,0,2,2,0,0,['52f2ab2ebcbc57f1066b8b4f'],['Bus Stop'],0
4fba4735e4b0613b62a84859,–õ–∞—Ä—å–æ–∫,"['Serafymovycha 7', '–ö–∏—ó–≤', '–£–∫—Ä–∞—ó–Ω–∞']",50.431302946679835,30.59737084303477,173,2,38,174,2,0,['4bf58dd8d48988d1f9941735'],['Food & Drink Shop'],0
57165355498e2145f1f8d260,Olimp,"['–≤—É–ª. –Ü–≤–∞–Ω–∞ –ú–∏–∫–æ–ª–∞–π—á—É–∫–∞, 7', '–ö–∏—ó–≤', '–£–∫—Ä–∞—ó–Ω–∞']",50.43133143643448,30.59763156560573,133,0,2,136,0,0,['4d954b06a243a5684965b473'],['Residential Building (Apartment / Condo)'],0
5360ecd3498efa86c8653c2c,—Å–µ—Ä–∞—Ñ–∏–º–æ–≤–∏—á–∞ 7,['–£–∫—Ä–∞—ó–Ω–∞'],50.431387146708985,30.59765051664027,554,0,148,769,0,0,['4d954b06a243a5684965b473'],['Residential Building (Apartment / Condo)'],0
4eaea09477c8cdc66dcdfa36,–†—É—Å–∞–Ω—ñ–≤—Å—å–∫–∏–π –∫–∞–Ω–∞–ª,"['–≤—É–ª. –ï–Ω—Ç—É–∑i–∞—Å—Çi–≤', '–ö–∏—ó–≤', '–£–∫—Ä–∞—ó–Ω–∞']",50.43474319364685,30.59999551998999,10160,35,7606,21451,304,8.5,['56aa371be4b08b9a8d573562'],['Canal'],387
51bdcd6e498e07f6fdc2cd7f,–°–Ω–∞—Ä—è–¥ –í–æ–∑–ª–µ –î–æ–º–∞,['–£–∫—Ä–∞—ó–Ω–∞'],50.431431,30.598696,3,0,1,3,0,0,"['4cce455aebf7b749d5e191f5', '4bf58dd8d48988d103941735']","['Soccer Field', 'Home (private)']",0
55476d1d498e2e2bf36e5aec,Negreev's house üè°,"['–°–µ—Ä–∞—Ñ–∏–º–æ–≤–∏—á–∞ 7', '–ö–∏—ó–≤', '–£–∫—Ä–∞—ó–Ω–∞']",50.431053,30.598628,2,0,2,2,0,0,['4d954b06a243a5684965b473'],['Residential Building (Apartment / Condo)'],0
50ad0f29e4b0948305994b0b,AEC,['–£–∫—Ä–∞—ó–Ω–∞'],50.43252026798549,30.599708379163836,9,0,3,9,1,0,['4bf58dd8d48988d198941735'],['College Academic Building'],0
53ac5617498e70794b861eb6,249 –º–∞—Ä—à—Ä—É—Ç–∫–∞,['–£–∫—Ä–∞—ó–Ω–∞'],50.43185924663815,30.598209429305047,6,0,6,6,0,0,['4f2a23984b9023bd5841ed2c'],['Moving Target'],0
52f63db711d2c7d4961454b0,üî•Negrunya house üí∞üí∞üí∞üö¨üî´üî™,"['–°–µ—Ä–∞—Ñ–∏–º–æ–≤–∏—á–∞ 7', '–ö–∏—ó–≤', '–£–∫—Ä–∞—ó–Ω–∞']",50.431621806191615,30.59827971564948,113,0,8,118,0,0,"['4d954b06a243a5684965b473', '4bf58dd8d48988d103941735']","['Residential Building (Apartment / Condo)', 'Home (private)']",0
507e6d0fe4b0e454e1a87aaf,Unex Bank,"['7A Serafymovycha St.', '–ö–∏—ó–≤', '–£–∫—Ä–∞—ó–Ω–∞']",50.43192213140269,30.599276856854548,23,0,19,28,0,0,['4bf58dd8d48988d10a951735'],['Bank'],0
56501d8b498ea45f7a21f5d3,–ü–æ–º–æ–≥–∏—Ç–µ –ü–æ–∂–∞–ª—É–π—Å—Ç–∞,['–£–∫—Ä–∞—ó–Ω–∞'],50.43288602806086,30.59931121377329,8,0,2,8,0,0,['4bf58dd8d48988d1af941735'],['College Auditorium'],0
505b3c26498e127bccd3ef0e,"–ú–∞–≥–∞–∑–∏–Ω –º–µ–±–µ–ª–∏ ""–ê–ª—å—Ñ–∞""",['–£–∫—Ä–∞—ó–Ω–∞'],50.431816,30.598932,2,0,2,2,0,0,['4bf58dd8d48988d1f8941735'],['Furniture / Home Store'],0
51b8d094498e8e54a90461d0,Bass Taxi,['–£–∫—Ä–∞—ó–Ω–∞'],50.431045,30.600096,5,0,3,5,0,0,['4f2a23984b9023bd5841ed2c'],['Moving Target'],0
54df90f7498e6c6790c4ad37,–£ –ö—ç—Ä,['–£–∫—Ä–∞—ó–Ω–∞'],50.43171633900925,30.598682402068754,13,0,5,19,0,0,['4d954b06a243a5684965b473'],['Residential Building (Apartment / Condo)'],0
508be5fce4b0306b57bcf08c,–í–∑—É—Ç—Ç—è / Shoe Shop,"['Serafinovicha 13', '–£–∫—Ä–∞—ó–Ω–∞']",50.432798883299746,30.59974545402491,7,0,7,7,1,0,['4bf58dd8d48988d107951735'],['Shoe Store'],0
5453f65d498e63fa5b15c51a,–£–ú–ê–ú–£–õ–ò–ß–ö–ò :)*,"['–ë–µ—Ä–µ–∑–Ω—è–∫–∏', '–ö–∏—ó–≤', '–£–∫—Ä–∞—ó–Ω–∞']",50.430908203125,30.598331451416016,1,0,1,1,0,0,['4d954b06a243a5684965b473'],['Residential Building (Apartment / Condo)'],0
53cbed87498ea26c6f18ea39,—É –ê–Ω—é—Ç—ã –≤ –≥–æ—Å—Ç—è—Öüéäüéàüéâ,['–£–∫—Ä–∞—ó–Ω–∞'],50.431518196329506,30.598690653282734,15,0,4,18,0,0,['4d954b06a243a5684965b473'],['Residential Building (Apartment / Condo)'],0
5745ec30498ee0bce6c68f7b,–ê–ø—Ç–µ–∫–∞ –ò–Ω—Ç–µ–ª–µ–∫—Å,"['–°–µ—Ä–∞—Ñ–∏–º–æ–≤–∏—á–∞, 7', '–£–∫—Ä–∞—ó–Ω–∞']",50.431732,30.598644,2,0,2,2,0,0,['4bf58dd8d48988d10f951735'],['Pharmacy'],0
54593daa498e22f92c26d908,"—Å–µ—Ä–∞—Ñ–∏–º–æ–≤–∏—á–∞,7–∞",['–£–∫—Ä–∞—ó–Ω–∞'],50.43266712633008,30.599413457928026,63,0,91,157,0,0,['4d954b06a243a5684965b473'],['Residential Building (Apartment / Condo)'],0
54cd0721498efcb642b9ee96,Yuka&Modya's,"['–°–µ—Ä–∞—Ñ–∏–º–æ–≤–∏—á–∞ 7', '–ö–∏—ó–≤', '–£–∫—Ä–∞—ó–Ω–∞']",50.43142318725586,30.598121643066406,2,0,2,2,0,0,['4d954b06a243a5684965b473'],['Residential Building (Apartment / Condo)'],0
51178be4e4b0543c8ddba85f,–ú–∞—Ç–µ–º–∞—Ç–∏–∫–∞,['–£–∫—Ä–∞—ó–Ω–∞'],50.431787,30.598985,3,0,1,3,0,0,['4bf58dd8d48988d1a0941735'],['College Classroom'],0
5259bdb711d2f0c576b4c752,–°–µ—Ä–∞—Ñ–∏–º–æ–≤–∏—á–∞ 7/1,['–£–∫—Ä–∞—ó–Ω–∞'],50.43115188872839,30.599635604812814,43,0,25,55,0,0,['4d954b06a243a5684965b473'],['Residential Building (Apartment / Condo)'],0
55f2f62f498edccca596f764,–≤—É–ª. –°–µ—Ä–∞—Ñ–∏–º–æ–≤–∏—á–∞,['–£–∫—Ä–∞—ó–Ω–∞'],50.4333192375083,30.600351650666287,10,0,7,10,0,0,['4bf58dd8d48988d1f9931735'],['Road'],0
57e3a09b498e47220371ac8d,Mobile Zona,['–£–∫—Ä–∞—ó–Ω–∞'],50.432842,30.59865,5,0,2,5,0,0,['4bf58dd8d48988d122951735'],['Electronics Store'],0
55ba436c498e5a4929ad3952,Nash –º–∞–≥–∞–∑–∏–Ω,['–£–∫—Ä–∞—ó–Ω–∞'],50.432198,30.599539,5,0,4,6,0,0,['4bf58dd8d48988d103951735'],['Clothing Store'],0
56a64957498ee1e85dda2923,–°7 Cafe,['–£–∫—Ä–∞—ó–Ω–∞'],50.432477486206615,30.59916580755096,8,0,4,8,1,0,['4bf58dd8d48988d16d941735'],['Caf√©'],0
559a489f498e977a2977890c,–ë–∞—Ä–ª—ñ–≥ –ö—ñ—Ñ—ñ–∫–∞,"['–°–µ—Ä–∞—Ñ—ñ–º–æ–≤–∏—á–∞ 9', '–£–∫—Ä–∞—ó–Ω–∞']",50.43196010425192,30.600468359586298,20,0,11,35,0,0,['52f2ab2ebcbc57f1066b8b55'],['Trailer Park'],0
5885cf84790bea041b2e07ac,TAVER CAPITAL ESTATE,"['–º–∏–∫–æ–ª–∞–π—á—É–∫–∞ 7', '–ö–∏—ó–≤', '–£–∫—Ä–∞—ó–Ω–∞']",50.43151,30.598122,11,0,3,12,0,0,['5032885091d4c4b30a586d66'],['Real Estate Office'],0
50a534f8e4b079eb0776caf8,"–ê–ø—Ç–µ–∫–∞ ""–í—ñ—Ç–∞–ª—é–∫—Å""","['–°–µ—Ä–∞—Ñ–∏–º–æ–≤–∏—á–∞, 7–ê', '–ö–∏—ó–≤', '–£–∫—Ä–∞—ó–Ω–∞']",50.43231964111328,30.59959602355957,24,1,19,26,0,0,['4bf58dd8d48988d10f951735'],['Pharmacy'],0
4ebfbe7eb803bca7de39d7a9,–ù–µ–æ–Ω–∏–ª–∞,['–£–∫—Ä–∞—ó–Ω–∞'],50.43275621834882,30.60032913901556,71,1,20,88,0,0,['4bf58dd8d48988d110951735'],['Salon / Barbershop'],0
4f1ee477e4b0c7cc91be9b96,–ö–ª—É–± –¢–∞–Ω—Ü–∞ –ë–µ—Ä–µ–∑–∏–ª—å,"['–°–µ—Ä–∞—Ñ–∏–º–æ–≤–∏—á–∞', '–ö–∏—ó–≤', '–£–∫—Ä–∞—ó–Ω–∞']",50.43174172963557,30.598077532513837,120,1,41,146,2,0,['4bf58dd8d48988d134941735'],['Dance Studio'],0
50632f62e4b06f1105b0980b,–ê–≤—Ç–æ–±—É—Å ‚Ññ87,"['—Å—Ç.–º. ¬´–û—Å–æ–∫–æ—Ä–∫–∏¬ª (–≤—É–ª. –ê.–õ—É–Ω–∞—á–∞—Ä—Å—å–∫–æ–≥–æ)', '–ö–∏—ó–≤', '–£–∫—Ä–∞—ó–Ω–∞']",50.43304087299685,30.599276247650092,68,0,20,68,0,0,"['4bf58dd8d48988d12b951735', '4f2a23984b9023bd5841ed2c']","['Bus Line', 'Moving Target']",0
56a66ed3498ece5caef3c8d3,—Å7,['–£–∫—Ä–∞—ó–Ω–∞'],50.432524891257486,30.599232528062796,47,0,84,133,2,0,['52e81612bcbc57f1066b79f1'],['Bistro'],0
53c3e636498ec971af77d91c,–í—ñ–¥ –º–∏—à–∫–∏ –¥–æ –∫–æ–º–ø'—é—Ç–µ—Ä–∞,['–£–∫—Ä–∞—ó–Ω–∞'],50.43349049439594,30.601579836699923,6,0,6,8,0,0,['4bf58dd8d48988d122951735'],['Electronics Store'],0
51213919e4b0d2f61f127241,–ü—Ä–æ–¥—É–∫—Ç—ã,"['–≠–Ω—Ç—É–∑–∏–∞—Å—Ç–æ–≤', '–ö–∏—ó–≤', '–£–∫—Ä–∞—ó–Ω–∞']",50.43501875689783,30.602042922253037,4,0,4,4,0,0,['4d954b0ea243a5684a65b473'],['Convenience Store'],0
5548bcf9498e9ebe53255280,–§—É—Ä–Ω–∏—Ç—É—Ä–∞,"['–ë–µ—Ä–µ–∑–Ω—è–∫–∏', '–£–∫—Ä–∞—ó–Ω–∞']",50.434677,30.601025,2,0,1,2,0,0,['52f2ab2ebcbc57f1066b8b26'],['Fabric Shop'],0
52ac9a57498ecff192532c56,—Å–∏—Ä–∞—Ñ–∏–º–æ–≤–∏—á–∞ 15–∞,['–£–∫—Ä–∞—ó–Ω–∞'],50.4340934753418,30.602266311645508,2,0,2,2,0,0,['4bf58dd8d48988d16d941735'],['Caf√©'],0
50ab8917e4b0ade3443021b7,–í–∏–ª–∏—è-–ë—É–¥,['–£–∫—Ä–∞—ó–Ω–∞'],50.435240226965206,30.601470189580294,6,1,7,7,1,0,['4bf58dd8d48988d1ff941735'],['Miscellaneous Shop'],0
50cf280de4b0fb933a427c53,"""Oasis"" kafe","['–£–ª. –°–µ—Ä–∞—Ñ–∏–º–æ–≤–∏—á–∞, 8', '–ö–∏—ó–≤', '–£–∫—Ä–∞—ó–Ω–∞']",50.433872393105965,30.60159568287523,85,4,46,88,5,6.2,"['4bf58dd8d48988d143941735', '4bf58dd8d48988d1ca941735']","['Breakfast Spot', 'Pizza Place']",9
4fe5a836e4b0176e6918a615,–°–∞–ª–æ–Ω-–ø–∞—Ä–∏–∫–º–∞—Ö–µ—Ä—Å–∫–∞—è Cinema,"['–°–µ—Ä–∞—Ñ–∏–º–æ–≤–∏—á–∞', '–ö–∏—ó–≤', '–£–∫—Ä–∞—ó–Ω–∞']",50.434629075962874,30.600895368284473,28,0,7,29,1,0,['4bf58dd8d48988d110951735'],['Salon / Barbershop'],0
535be620498e4889256d639b,–ó–æ–æ–º–∞–≥–∞–∑–∏–Ω,"['–°–µ—Ä–∞—Ñ–∏–º–æ–≤–∏—á–∞, 8', '–ö–∏—ó–≤', '–£–∫—Ä–∞—ó–Ω–∞']",50.43363958939506,30.601598401918558,17,0,9,17,0,0,['4bf58dd8d48988d100951735'],['Pet Store'],0
52e7b6eb498eef8fca520f17,–Ü–Ω—Ñ–æ—Ä–º–∞—Ü—ñ–π–Ω—ñ –¢–µ—Ö–Ω–æ–ª–æ–≥—ñ—ó,"['–ï–Ω—Ç—É–∑–∏–∞—Å—Ç–æ–≤ 11', '–ö–∏—ó–≤', '–£–∫—Ä–∞—ó–Ω–∞']",50.43531036376953,30.601837158203125,4,0,4,4,0,0,['4bf58dd8d48988d124941735'],['Office'],0
574aede1498e429136de8402,–§–æ–Ω—Ç–∞–Ω –Ω–∞ –†—É—Å–∞–Ω–æ–≤—Å–∫–æ–º –∫–∞–Ω–∞–ª–µ,['–£–∫—Ä–∞—ó–Ω–∞'],50.435394,30.600542,7,0,7,7,0,0,['4bf58dd8d48988d1f1931735'],['General Entertainment'],0
575ab57d498ed363272a357b,–±—É–ª. –Ü–≥–æ—Ä—è –®–∞–º–æ,"[""–ø—Ä–æ—Å–ø–µ–∫—Ç –í–æ–∑–∑'—î–¥–Ω–∞–Ω–Ω—è"", '–ö–∏—ó–≤', '–£–∫—Ä–∞—ó–Ω–∞']",50.434273,30.601305,9,0,3,9,0,0,['52f2ab2ebcbc57f1066b8b4f'],['Bus Stop'],0
52b47dce498e812c3d4d4696,italiavogs,['–£–∫—Ä–∞—ó–Ω–∞'],50.43558120727539,30.600711822509766,10,0,10,10,0,0,['4bf58dd8d48988d109951735'],['Lingerie Store'],0
529ca82511d25c582739c4d0,–ù–∞—à–∞ –∞–ø—Ç–µ–∫–∞,"['–≠–Ω—Ç—É–∑–∏–∞—Å—Ç–æ–≤, 7', '–ö–∏—ó–≤', '–£–∫—Ä–∞—ó–Ω–∞']",50.435588218179284,30.601082902206123,7,0,8,8,1,0,['4bf58dd8d48988d10f951735'],['Pharmacy'],0
4fd9dc04e4b01007e9dbe6d8,–ú–æ–Ω–ø–∞–Ω—Å—å–µ,"['–£–ª–∏—Ü–∞ –ß–µ—à—Å–∫–∞—è 1/22', '–ö–∏—ó–≤', '–£–∫—Ä–∞—ó–Ω–∞']",50.433929443359375,30.600788116455078,4,0,3,4,0,0,['4bf58dd8d48988d1fb941735'],['Hobby Shop'],0
5699062e498efe622034a504,–ê–ø—Ç–µ–∫–∞,['–£–∫—Ä–∞—ó–Ω–∞'],50.43345,30.602217,14,0,10,16,0,0,['4bf58dd8d48988d10f951735'],['Pharmacy'],0
4f998a41e4b0d6436e36e386,"–ü–∞—Ä–∏–∫–º–∞—Ö–µ—Ä—Å–∫–∞—è ""–õ–æ–Ω–¥–∞""","['–°–µ—Ä–∞—Ñ–∏–º–æ–≤–∏—á–∞, 8', '–ö–∏—ó–≤', '–£–∫—Ä–∞—ó–Ω–∞']",50.433895417792336,30.60178514068635,132,2,74,162,5,6.1,"['4bf58dd8d48988d110951735', '4f04aa0c2fb6e1c99f3db0b8']","['Salon / Barbershop', 'Nail Salon']",8
5868eb42b6e67d49c1aff889,–ü—Ä–æ—Å–ø–µ–∫—Ç –°–æ–±–æ—Ä–Ω–æ—Å—Ç—ñ,"['–ø—Ä–æ—Å–ø–µ–∫—Ç –°–æ–±–æ—Ä–Ω–æ—Å—Ç—ñ', '–ö–∏—ó–≤', '–£–∫—Ä–∞—ó–Ω–∞']",50.434099,30.601809,12,0,6,12,1,0,['4bf58dd8d48988d1f9931735'],['Road'],0
5667132a498eae021789051d,–ù–æ–≤–∞ –ü–æ—à—Ç–∞ ‚Ññ351,"['–ï–Ω—Ç—É–∑—ñ–∞—Å—Ç—ñ–≤, 7', '–ö–∏—ó–≤', '–£–∫—Ä–∞—ó–Ω–∞']",50.435336,30.600634,26,0,9,35,0,0,['4bf58dd8d48988d172941735'],['Post Office'],0
58d4be06113efc036caa9576,–ú–∞–≥–∞–∑–∏–Ω—á–∏–∫ –≤–æ–∑–ª–µ –º–æ—Å—Ç–∞ –ü–∞—Ç–æ–Ω–∞,['–£–∫—Ä–∞—ó–Ω–∞'],50.434628,30.601181,4,0,1,4,0,0,['4bf58dd8d48988d117951735'],['Candy Store'],0
5517bee7498e19f8bff44c93,"–ó—É–ø–∏–Ω–∫–∞ ""–ë—É–ª—å–≤–∞—Ä –Ü–≥–æ—Ä—è –®–∞–º–æ""","['–ö–∏—ó–≤', '–£–∫—Ä–∞—ó–Ω–∞']",50.43388673656289,30.600794255733486,43,2,16,46,1,0,['52f2ab2ebcbc57f1066b8b4f'],['Bus Stop'],0
50574a97e4b05888533734b3,"–û—Å—Ç–∞–Ω–æ–≤–∫–∞ ""–±—É–ª—å–≤. –ê. –î–∞–≤—ã–¥–æ–≤–∞""","['–ø—Ä–æ—Å–ø. –í–æ—Å—Å–æ–µ–¥–∏–Ω–µ–Ω–∏—è', '–ö–∏—ó–≤', '–£–∫—Ä–∞—ó–Ω–∞']",50.43343837792847,30.600111251973832,333,1,151,384,1,0,"['4bf58dd8d48988d1fe931735', '4bf58dd8d48988d12b951735']","['Bus Station', 'Bus Line']",0
4f649b22e4b03a7ce10de6a6,–ó–æ–æ—Å–≤i—Ç,['–£–∫—Ä–∞—ó–Ω–∞'],50.433399480450376,30.59987009656763,49,1,34,56,1,0,['4d954af4a243a5684765b473'],['Veterinarian'],0
575937a4498ee70d484c0172,–ì–æ—Ä—è—á–∞—è –ì—Ä—É–∑–∏–Ω—Å–∫–∞—è –í—ã–ø–µ—á–∫–∞,"['–≤—É–ª. –ú–∏–∫–æ–ª–∞–π—á—É–∫–∞ (–≤—É–ª. –ê–º–≤—Ä–æ—Å—ñ—è –ë—É—á–º–∏)', '–ö–∏—ó–≤', '–£–∫—Ä–∞—ó–Ω–∞']",50.43366,30.602217,8,0,5,8,0,0,['4bf58dd8d48988d16a941735'],['Bakery'],0
54a024bf498ee55ba15088e3,–°—É—à–∏ Wok,"['–°–µ—Ä–∞—Ñ–∏–º–æ–≤–∏—á–∞ 8', '–ö–∏—ó–≤', '–£–∫—Ä–∞—ó–Ω–∞']",50.43357619199037,30.602251743022915,154,7,281,471,15,6.1,['4bf58dd8d48988d1d2941735'],['Sushi Restaurant'],24
574ad541498e6a1b7de159c4,–†—É—Å–∞–Ω–æ–≤—Å–∫–∏–µ –§–æ–Ω—Ç–∞–Ω—ã I –æ—á–µ—Ä–µ–¥—å,['–£–∫—Ä–∞—ó–Ω–∞'],50.435173,30.601809,33,0,25,33,2,0,['56aa371be4b08b9a8d573547'],['Fountain'],0
52a0af67498e5b44ffd24345,–ê–ø—Ç–µ–∫–∞ –ë–ª–∞–≥–æ–¥—ñ—è,['–£–∫—Ä–∞—ó–Ω–∞'],50.435173851603295,30.600574189263103,17,0,16,17,0,0,['4bf58dd8d48988d104941735'],['Medical Center'],0
55d5cca0498e389528f00ec2,–§–æ—Ä–∞,"['—É–ª.–≠–Ω—Ç—É–∑–∏–∞—Å—Ç–æ–≤,7', '–£–∫—Ä–∞—ó–Ω–∞']",50.43547104360093,30.600624001756007,395,1,524,1447,13,6.7,['4bf58dd8d48988d118951735'],['Grocery Store'],20
556b2953498e9296e84b0e7e,–ù–∞—à –ª–µ—Ç–Ω–∏–π —Ä–µ—Å—Ç–æ—Ä–∞–Ω—á–∏–∫,['–£–∫—Ä–∞—ó–Ω–∞'],50.433862,30.599866,4,0,4,5,0,0,['4bf58dd8d48988d16d941735'],['Caf√©'],0
5358ff19498e875e13091a8d,—à–∞—à–ª—ã—á–∫–∞ –Ω–∞ –Ω–∞–±–µ—Ä–µ–∂–Ω–æ–π,['–£–∫—Ä–∞—ó–Ω–∞'],50.433812251275555,30.59985857070845,43,0,40,70,0,0,['4bf58dd8d48988d1df931735'],['BBQ Joint'],0
527f579411d227d6336457f8,"–±—É–ª—å–≤–∞—Ä –î–∞–≤—ã–¥–æ–≤–∞,–¥.3","['–±—É–ª—å–≤–∞—Ä –î–∞–≤—ã–¥–æ–≤–∞,–¥.3', '–ö–∏—ó–≤', '–£–∫—Ä–∞—ó–Ω–∞']",50.43539494704869,30.598375432092322,70,1,21,78,3,0,['4d954b06a243a5684965b473'],['Residential Building (Apartment / Condo)'],0
569d3976498ebded7c256e99,–ö–ª—É–± –ø–æ –∏–Ω—Ç–µ—Ä–µ—Å–∞–º –£ –ê—Ä—Ç–µ–º–∏—è,['–£–∫—Ä–∞—ó–Ω–∞'],50.434540619477815,30.598136105144782,15,0,3,16,0,0,['4d954b06a243a5684965b473'],['Residential Building (Apartment / Condo)'],0
50b1ef26e4b07a713d7d97fc,–ó–∞—à–µ–ª –∫ —Ä–æ–¥–∏—Ç–µ–ª—è–º :)),"['–≠–Ω—Ç—É–∑–∏–∞—Å—Ç–æ–≤ 7\\1', '–ö–∏—ó–≤', '–£–∫—Ä–∞—ó–Ω–∞']",50.43507709793322,30.598339275707556,35,0,2,35,0,0,['4d954b06a243a5684965b473'],['Residential Building (Apartment / Condo)'],0
5620a629498e6d667556376a,–£ –ú–µ–ª—å–Ω–∏—á–µ–Ω–∫–æ,['–£–∫—Ä–∞—ó–Ω–∞'],50.4351819137946,30.598741996629432,6,0,2,6,0,0,['4d954b06a243a5684965b473'],['Residential Building (Apartment / Condo)'],0
4eb92f905c5c5a5321972a8c,–ü–æ—Å—É–¥ De Luxe,['–£–∫—Ä–∞—ó–Ω–∞'],50.43529579005786,30.598130076071072,111,1,32,112,6,0,['4bf58dd8d48988d1f8941735'],['Furniture / Home Store'],0
4f672e2ae4b0fb96f8352f9b,–ó–∞—Ç–µ—Ä—è–Ω–Ω—ã–π –º–∏—Ä,"['—É–ª. –≠–Ω—Ç—É–∑–∏–∞—Å—Ç–æ–≤, 7', '–ö–∏—ó–≤', '–£–∫—Ä–∞—ó–Ω–∞']",50.435272,30.600351,111,5,79,124,5,6.0,['4bf58dd8d48988d1c4941735'],['Restaurant'],10
5389a0b4498e5c4efdeffe7e,–Ø—Ä–º–∞—Ä–∫–∞ –Ω–∞ –î–∞–≤—ã–¥–æ–≤–∞,"['–ë—É–ª—å–≤–∞—Ä –î–∞–≤—ã–¥–æ–≤–∞ (–†—É—Å–∞–Ω–æ–≤—Å–∫–∏–π –ë—É–ª—å–≤–∞—Ä)', '–ö–∏—ó–≤', '–£–∫—Ä–∞—ó–Ω–∞']",50.43587360707245,30.598605258039385,7,0,5,7,0,0,['50be8ee891d4fa8dcc7199a7'],['Market'],0
52614c7f498eb2d874397257,–¢–∞–Ω—Ü—é–≤–∞–ª—å–Ω–∏–π –∫–ª—É–± –ë–µ—Ä–µ–∑—ñ–ª—å,"['–°–µ—Ä–∞—Ñ–∏–º–æ–≤–∏—á–∞, 7-–∞', '–ö–∏—ó–≤', '–£–∫—Ä–∞—ó–Ω–∞']",50.436410299460235,30.600590121181483,9,0,29,63,1,0,['4bf58dd8d48988d134941735'],['Dance Studio'],0
52b57918498eb66c8f7eac0e,"–ò–∑–æ—Å—Ç—É–¥–∏—è ""–î—Ä—É–∂–±–∞""",['–£–∫—Ä–∞—ó–Ω–∞'],50.43483362736983,30.5990048337225,20,0,3,20,0,0,['4bf58dd8d48988d130941735'],['Building'],0
516d4bd3e4b061120fc26f21,–•–ª–µ–±–Ω—ã–π –ö–∏–æ—Å–∫,['–£–∫—Ä–∞—ó–Ω–∞'],50.43555252584573,30.60005225743556,6,0,4,6,0,0,['4bf58dd8d48988d117951735'],['Candy Store'],0
534189ea498e30b4c7f167a5,–º–∞–π —Ö–∞—É—Å,"['–î–∞–≤—ã–¥–æ–≤–∞ 3', '–ö–∏—ó–≤', '–£–∫—Ä–∞—ó–Ω–∞']",50.43573760986328,30.598609924316406,9,0,3,9,1,0,['4d954b06a243a5684965b473'],['Residential Building (Apartment / Condo)'],0
545a7c9c498ee895b4f91c07,Sweet homeüè©,['–£–∫—Ä–∞—ó–Ω–∞'],50.434987,30.598449,4,0,1,4,0,0,['4d954b06a243a5684965b473'],['Residential Building (Apartment / Condo)'],0
51f89df5498e9281d5764c6b,–î–∏–≤–∞–Ω—á–∏–∫ –•–æ–•–æ–•–æ ;-))),"['–î–∞–≤—ã–¥–æ–≤–∞ 2/7', '–ö–∏—ó–≤', '–£–∫—Ä–∞—ó–Ω–∞']",50.43499377856664,30.599777889217563,79,0,10,83,0,0,['4d954b06a243a5684965b473'],['Residential Building (Apartment / Condo)'],0
52fde5a1498e54d87ff8c154,–õ–∞—Ä–µ–∫ –ú–æ–ª–æ–∫–æ - –•–ª–µ–±,['–£–∫—Ä–∞—ó–Ω–∞'],50.435010976992636,30.600387647315824,6,0,3,6,0,0,['50aa9e744b90af0d42d5de0e'],['Health Food Store'],0
5138a532e4b0dd13be266bc1,Zoo –¢–æ–≤–∞—Ä—ã,"['–≤—É–ª. –°—Ä—ñ–±–Ω–æ–∫—ñ–ª—å—Å—å–∫–∞', '–ö–∏—ó–≤', '–£–∫—Ä–∞—ó–Ω–∞']",50.43367119923602,30.600516838559866,6,0,5,6,0,0,['4bf58dd8d48988d100951735'],['Pet Store'],0
520f484711d2ac1ee515eefb,–ë—É–ª—å–≤–∞—Ä –î–∞–≤—ã–¥–æ–≤–∞ 4,['–£–∫—Ä–∞—ó–Ω–∞'],50.43548464296708,30.5996001102544,11,0,8,11,0,0,['4d954b06a243a5684965b473'],['Residential Building (Apartment / Condo)'],0
52d2c64811d2fd6648b81f2a,–ì–Ω—ñ–∑–¥–æ,"['1/5, –±—É–ª—å–≤–∞—Ä –û–ª–µ–∫—Å—ñ—è –î–∞–≤–∏–¥–æ–≤–∞', '–ö–∏—ó–≤', '–£–∫—Ä–∞—ó–Ω–∞']",50.43494256652103,30.59879332780838,13,0,4,15,0,0,['4d954b06a243a5684965b473'],['Residential Building (Apartment / Condo)'],0
50d1d704e4b0864701227720,"–¢—É—Ä–æ–ø–µ—Ä–∞—Ç–æ—Ä ""–î–æ–±—Ä–æ""","['–≤—É–ª. –ï–Ω—Ç—É–∑—ñ–∞—Å—Ç—ñ–≤, 7', '–ö–∏—ó–≤', '–£–∫—Ä–∞—ó–Ω–∞']",50.43522974715838,30.60030155933104,15,1,9,15,1,0,['4bf58dd8d48988d124941735'],['Office'],0
538b16e9498ebf72701b06cd,–ü—É–±–ª–∏—á–Ω–∞—è –±–∏–±–ª–∏–æ—Ç–µ–∫–∞ –∏–º. –õ.–£–∫—Ä–∞–∏–Ω–∫–∏ –æ—Ç–¥–µ–ª –ª–∏—Ç–µ—Ä–∞—Ç—É—Ä—ã –∏–Ω–æ—Å—Ç—Ä–∞–Ω–Ω—ã—Ö —è–∑—ã–∫–æ–≤,"['–±—É–ª.–î–∞–≤—ã–¥–æ–≤–∞, 2/7 (—É–ª.–≠–Ω—Ç—É–∑–∏–∞—Å—Ç–æ–≤)', '–ö–∏—ó–≤', '–£–∫—Ä–∞—ó–Ω–∞']",50.43507766723633,30.599077224731445,59,2,28,72,3,0,['4bf58dd8d48988d12f941735'],['Library'],0
4edb7bb6d3e346be359cd156,–°—Ç–æ—è–Ω–æ—á–∫–∞ –¥–≤–æ—Ä–æ–≤–∞—è,['–£–∫—Ä–∞—ó–Ω–∞'],50.43530011132071,30.598099652171662,193,0,24,273,0,0,"['4c38df4de52ce0d596b336e1', '4d954b16a243a5684b65b473']","['Parking', 'Rest Area']",0
5548f156498e6999a3fdc318,"Cafe ""Mi Mi""","[""–ü—Ä.–í–æ–∑'—î–¥–Ω–∞–Ω–Ω—è"", '–ö–∏—ó–≤', '–£–∫—Ä–∞—ó–Ω–∞']",50.43391494549329,30.600348225137264,20,0,8,27,0,0,['4bf58dd8d48988d1e0931735'],['Coffee Shop'],0
581b06eccd49d217579915c0,–õ—É—á—à–µ –¥–æ–º–∞ –º–µ—Å—Ç–∞ –Ω–µ—Ç,['–£–∫—Ä–∞—ó–Ω–∞'],50.435339,30.597521,26,0,3,28,0,0,['4d954b06a243a5684965b473'],['Residential Building (Apartment / Condo)'],0
4f965f40e4b024c1fd2dc8cf,Pravex Bank,['–£–∫—Ä–∞—ó–Ω–∞'],50.43524615211337,30.598542873265583,36,2,17,37,0,0,['4bf58dd8d48988d10a951735'],['Bank'],0
57fe56d7498ea64ba580b389,Bon Bon Cafe,['–£–∫—Ä–∞—ó–Ω–∞'],50.435806,30.59882,5,0,4,8,0,0,['4bf58dd8d48988d1e0931735'],['Coffee Shop'],0
52be9e87498eec72ccaf7ff0,–ö–æ—Ñ–µ–¥–∂–∏–æ / Kofejio,"['–ë–µ—Ä–µ–∑–Ω—è–∫–∏, –ö–∏—ó–≤, –º—ñ—Å—Ç–æ –ö–∏—ó–≤', '–ö–∏—ó–≤', '–£–∫—Ä–∞—ó–Ω–∞']",50.43346644818266,30.600365102291107,67,2,30,79,3,0,['4bf58dd8d48988d1e0931735'],['Coffee Shop'],0
4eccd9e1d3e377110cf52b00,–ú–æ–±—ñ–î—ñ–∫,"['–≤—É–ª. –°–µ—Ä–∞—Ñ—ñ–º–æ–≤–∏—á–∞, 4', '–ö–∏—ó–≤', '–£–∫—Ä–∞—ó–Ω–∞']",50.43531196550727,30.598112313421222,91,0,14,91,1,0,['4bf58dd8d48988d122951735'],['Electronics Store'],0
538dfd06498eb2165c00ecee,–±–∏–±–ª–∏–æ—Ç–µ–∫–∞ –Ω–∞ –±—É–ª—å–≤–∞—Ä–µ,"['–±—É–ª –î–∞–≤—ã–¥–æ–≤–∞ 2/7', '–ö–∏—ó–≤', '–£–∫—Ä–∞—ó–Ω–∞']",50.43486785888672,30.59905242919922,8,0,7,10,0,0,['4bf58dd8d48988d12f941735'],['Library'],0
4f57d7cce4b00c68f781642f,–î–∞–≤—ã–¥–æ–≤–∞ 1/5,"['–≤—É–ª. –î–∞–≤–∏–¥–æ–≤–∞, 1/5', '–ö–∏—ó–≤', '–£–∫—Ä–∞—ó–Ω–∞']",50.43508233800486,30.59922620007553,540,0,79,591,2,0,['4d954b06a243a5684965b473'],['Residential Building (Apartment / Condo)'],0
51673621e4b0e55923a2d7ea,–î–∞–≤—ã–¥–æ–≤–∞ 2/7,['–£–∫—Ä–∞—ó–Ω–∞'],50.43510313388969,30.599296631283938,77,0,54,114,2,0,['4d954b06a243a5684965b473'],['Residential Building (Apartment / Condo)'],0
5659a9bd498e95bfdf6f9daa,–≠–Ω—Ç—É–∑–∏–∞—Å—Ç–æ–≤  5/1,['–£–∫—Ä–∞—ó–Ω–∞'],50.434762,30.596849,130,0,15,152,0,0,['4d954b06a243a5684965b473'],['Residential Building (Apartment / Condo)'],0
564b0aeb498eac7f16b42a04,–£–Ω–∏–≤–µ—Ä—Å–∏—Ç–µ—Ç –ë.–ì—Ä–∏–Ω—á–µ–Ω–∫–æ,"['–ë—É–ª—å–≤–∞—Ä –î–∞–≤—ã–¥–æ–≤–∞ 18/2', '–ö–∏—ó–≤', '–£–∫—Ä–∞—ó–Ω–∞']",50.43468798209433,30.600389540806695,27,0,13,28,0,0,['4bf58dd8d48988d1ae941735'],['University'],0
54ccbc14498ecfa9d56acf0b,–≥—Ä–∞—é–Ø,"['–ö–∏—ó–≤', '–£–∫—Ä–∞—ó–Ω–∞']",50.41114651053841,30.54900884628296,11,0,10,11,1,0,['4bf58dd8d48988d1f3941735'],['Toy / Game Store'],0
54b768ce498ec314216c8530,–°–∞–ª–æ–Ω –ö—Ä–∞—Å–æ—Ç—ã,"['–≠–Ω—Ç—É–∑–∏–∞—Å—Ç–æ–≤, 11', '–ö–∏—ó–≤', '–£–∫—Ä–∞—ó–Ω–∞']",50.43567767506302,30.598673804958793,7,0,2,7,0,0,['54541900498ea6ccd0202697'],['Health & Beauty Service'],0
562e64cf498e352cd55aa8be,–£ –°–º–µ—Ä–µ–∫—ñ–≤,['–£–∫—Ä–∞—ó–Ω–∞'],50.434839,30.598294,5,0,1,5,0,0,['5032891291d4c4b30a586d68'],['Assisted Living'],0
571e1428498e15fd26e1d28d,–û–ª–µ–∂–∫–∏–Ω ShadowGuard,"['–ë—É–ª—å–≤–∞—Ä –î–∞–≤—ã–¥–æ–≤–∞ 1/5', '–ö–∏—ó–≤', '–£–∫—Ä–∞—ó–Ω–∞']",50.434937,30.598642,169,0,18,194,0,0,"['4d954b06a243a5684965b473', '4bf58dd8d48988d103941735']","['Residential Building (Apartment / Condo)', 'Home (private)']",0
4d79f3a99f6b721ed20ba0c0,Beauty Shop,"['–±—É–ª. –î–∞–≤–∏–¥–æ–≤–∞, 3', '–ö–∏—ó–≤', '–£–∫—Ä–∞—ó–Ω–∞']",50.43570644436902,30.598567629983545,516,7,366,1033,25,8.1,['4bf58dd8d48988d110951735'],['Salon / Barbershop'],34
5908cd592be4252186123cc5,Mont Blank,"['–ö–∏—ó–≤', '–£–∫—Ä–∞—ó–Ω–∞']",50.435841,30.59909,2,0,2,2,0,0,"['4bf58dd8d48988d1e0931735', '4bf58dd8d48988d16d941735']","['Coffee Shop', 'Caf√©']",0
57aaf789cd104adf22237bf8,sit&cut,"['–ò–≥–æ—Ä—è –®–∞–º–æ 2/7', '–ö–∏—ó–≤, 02154', '–£–∫—Ä–∞—ó–Ω–∞']",50.4352,30.599661,5,0,4,6,0,0,['4bf58dd8d48988d110951735'],['Salon / Barbershop'],0
57e01395498e923fc73fdda5,Coffee DREAM,"['–ö–∏—ó–≤', '–£–∫—Ä–∞—ó–Ω–∞']",50.4337,30.600176,12,0,9,12,0,0,['4bf58dd8d48988d1e0931735'],['Coffee Shop'],0
4e85ac6661af9a699f5094ed,–†—ã–±–∞–ª–∫–∞ / –û–∫–µ–∞–Ω,"['–≤—É–ª. –ï–Ω—Ç—É–∑—ñ–∞—Å—Ç—ñ–≤, 5', '–ö–∏—ó–≤', '–£–∫—Ä–∞—ó–Ω–∞']",50.4346025850111,30.598082542419434,493,4,255,721,9,6.9,['4bf58dd8d48988d1fb941735'],['Hobby Shop'],14
4e4e4da91495fc2ca3ee0de3,–ú—ñ—Å—Ç –Ω–∞ –î–∞–≤–∏–¥–æ–≤–∞,['–£–∫—Ä–∞—ó–Ω–∞'],50.434278927161934,30.600117925557146,3242,11,1351,3820,32,0,['4bf58dd8d48988d1df941735'],['Bridge'],0
574994cc498ede6d156cca11,–†—É—Å–∞–Ω—ñ–≤—Å—å–∫—ñ –§–æ–Ω—Ç–∞–Ω–∏,"['–ö–∏—ó–≤', '–£–∫—Ä–∞—ó–Ω–∞']",50.435214391192716,30.600294905719206,1002,10,1264,2152,56,8.8,['56aa371be4b08b9a8d573547'],['Fountain'],68
57a316afcd10ed172f25cb3e,–ö–∞—Ñ–µ-—Å—ã—Ä–æ–≤–∞—Ä–Ω—è –ú–∞—Ü–æ–Ω–∏,"['–ë—É–ª—å–≤–∞—Ä –ò–≥–æ—Ä—è –®–∞–º–æ, 1/5', '–ö–∏—ó–≤', '–£–∫—Ä–∞—ó–Ω–∞']",50.43494769185172,30.598774552345276,1070,71,1648,2866,166,8.2,['4bf58dd8d48988d1c4941735'],['Restaurant'],256
52dc776b11d289d9173c8acd,–ì–Ω–µ–∑–¥–æ –ê–ª–µ–∫—Å–æ–≤,['–£–∫—Ä–∞—ó–Ω–∞'],50.43326075688665,30.60194104932369,25,0,6,29,0,0,"['4d954b06a243a5684965b473', '4bf58dd8d48988d103941735']","['Residential Building (Apartment / Condo)', 'Home (private)']",0
548024e2498efda25e2b2f30,–°—É—à–∏ –ú–∞—Ä–∫–µ—Ç,"['–°–µ—Ä–∞—Ñ–∏–º–æ–≤–∏—á–∞ 11', '–£–∫—Ä–∞—ó–Ω–∞']",50.432989236852826,30.601054353278254,87,2,55,130,3,5.7,['4bf58dd8d48988d1d2941735'],['Sushi Restaurant'],8
52d186ad11d2b5ffd17522bd,The Roliki-huyeliki,"['–ö–∏—ó–≤', '–£–∫—Ä–∞—ó–Ω–∞']",50.43230108205088,30.601784454269165,73,0,30,100,1,0,[],[],0
5350142a498e13df973d37e9,Iana's homeüè°,['–£–∫—Ä–∞—ó–Ω–∞'],50.432271,30.602006,180,0,15,183,0,0,['4d954b06a243a5684965b473'],['Residential Building (Apartment / Condo)'],0
565881c2498e51f6dee1608d,–°–µ—Ä–∞—Ñ–∏–º–æ–≤–∏—á–∞ 9,"['–°–µ—Ä–∞—Ñ–∏–º–æ–≤–∏—á–∞ 9', '–ö–∏—ó–≤', '–£–∫—Ä–∞—ó–Ω–∞']",50.43248215316838,30.600625324182808,4,0,3,5,0,0,['4d954b06a243a5684965b473'],['Residential Building (Apartment / Condo)'],0
536b78ce498e8e731f56b319,–ê–Ω–≥–ª–∏–π—Å–∫–∏–πüìöüìñ,['–£–∫—Ä–∞—ó–Ω–∞'],50.43167611506949,30.603417915789436,57,0,2,60,0,0,['4d954b06a243a5684965b473'],['Residential Building (Apartment / Condo)'],0
53ec867d498eded9dcdf650f,Serafimovicha street,['–£–∫—Ä–∞—ó–Ω–∞'],50.43191020382802,30.600854193245556,10,0,9,19,0,0,['4bf58dd8d48988d1f9931735'],['Road'],0
562e4ae7498e31587c9403f0,–ß–æ–±i—Ç–æ–∫,"['–£–ª.  –°–µ—Ä–∞—Ñ–∏–º–æ–≤–∏—á–∞ 11', '–ö–∏—ó–≤', '–£–∫—Ä–∞—ó–Ω–∞']",50.43281936645508,30.601423263549805,2,0,2,2,0,0,['52f2ab2ebcbc57f1066b8b39'],['Shoe Repair'],0
50d00f8ce4b05d30a5980cfe,"""–†—É–±–∏–Ω"" Boxing Club","['–£–ª. –°–µ—Ä–∞—Ñ–∏–º–æ–≤–∏—á–∞, 11', '–ö–∏—ó–≤', '–£–∫—Ä–∞—ó–Ω–∞']",50.43333654444393,30.601521543938603,102,1,45,119,1,0,['52f2ab2ebcbc57f1066b8b47'],['Boxing Gym'],0
5442c93e498e4795b0e67c11,–ú–∏–ª—ã –¥–æ–ºüë≠,['–£–∫—Ä–∞—ó–Ω–∞'],50.432903,30.60169,1,0,1,1,0,0,['4d954b06a243a5684965b473'],['Residential Building (Apartment / Condo)'],0
57050ce5cd100defd459c9b2,Sushi & Pizza –ú–∞—Ä–∫–µ—Ç,['–£–∫—Ä–∞—ó–Ω–∞'],50.43264,30.600616,1,0,1,1,0,0,['4bf58dd8d48988d16c941735'],['Burger Joint'],0
4fa945dfe4b00b5cf0e039ed,–¢-–ö—ñ–æ—Å–∫,['–£–∫—Ä–∞—ó–Ω–∞'],50.433257,30.601483,3,0,3,3,0,0,['4bf58dd8d48988d123951735'],['Smoke Shop'],0
531c694d498e8f9d92e5334d,–ö–≤—ñ—Ç–∏ üíêüåπüåª,['–£–∫—Ä–∞—ó–Ω–∞'],50.43249675559723,30.601350889516358,8,0,3,8,0,0,['4bf58dd8d48988d15a941735'],['Garden'],0
51e963c2498e69829dcc4706,"–ú–∞–≥–∞–∑–∏–Ω ""–í—Å–µ –≤—ñ–¥ 10 –≥—Ä–Ω""",['–£–∫—Ä–∞—ó–Ω–∞'],50.433192779971435,30.60203008191996,7,0,2,7,1,0,['4bf58dd8d48988d1ff941735'],['Miscellaneous Shop'],0
51b8d8cb498efc48f624a633,–¥–æ–º–∫–∞:),['–£–∫—Ä–∞—ó–Ω–∞'],50.43183580879398,30.60089636312234,4,0,1,4,0,0,['4d954b06a243a5684965b473'],['Residential Building (Apartment / Condo)'],0
560ce7cc498ea079371851c0,–û–∫–æ—à–∫–æ,['–£–∫—Ä–∞—ó–Ω–∞'],50.431186396795084,30.602116905907906,9,0,3,9,0,0,['4bf58dd8d48988d1a1941735'],['College Cafeteria'],0
52a4d66411d2b4163f76ff6c,–ù–∞  –§–∞–∑–µ–Ω–¥–µ...))),"['–ë—É—á–º—ã 6 –ê', '–ö–∏—ó–≤', '–£–∫—Ä–∞—ó–Ω–∞']",50.432192938877776,30.60301653512574,655,0,85,811,1,0,['4d954b06a243a5684965b473'],['Residential Building (Apartment / Condo)'],0
507702abe4b0de29de3bf7bd,"–ë—É—á–º–∏, 6–≤","['–≤—É–ª. –ê–º–≤—Ä–æ—Å—ñ—è –ë—É—á–º–∏, 6–≤', '–ö–∏—ó–≤', '–£–∫—Ä–∞—ó–Ω–∞']",50.43132120554382,30.603448990178585,161,1,20,167,2,0,"['4d954b06a243a5684965b473', '4bf58dd8d48988d130941735']","['Residential Building (Apartment / Condo)', 'Building']",0
54f4bb08498e8baffb5e4c43,Masha's house,['–£–∫—Ä–∞—ó–Ω–∞'],50.432430403362446,30.600927927685355,75,0,23,127,0,0,['4d954b06a243a5684965b473'],['Residential Building (Apartment / Condo)'],0
5810a66438fa09aad0214417,English Courses,['–£–∫—Ä–∞—ó–Ω–∞'],50.431927,30.602429,3,0,2,4,0,0,['52e81612bcbc57f1066b7a48'],['Language School'],0
50ecc0d5e4b0d7895c9eae64,–ï–≤–∞,"['–°–µ—Ä—Ñ–∏–º–æ–≤–∏—á–∞ 7', '–ö–∏—ó–≤', '–£–∫—Ä–∞—ó–Ω–∞']",50.43314182728522,30.601052384046287,78,1,44,97,2,0,['4bf58dd8d48988d10c951735'],['Cosmetics Shop'],0
58ae924e8ab03f027a5f07f9,–§–æ—Ç–æ—Å–∞–ª–æ–Ω –õ–µ–≤–æ–Ω,"['–Ü–≤–∞–Ω–∞ –ú–∏–∫–æ–ª–∞–π—á—É–∫–∞ 11', '–ö–∏—ó–≤', '–£–∫—Ä–∞—ó–Ω–∞']",50.433068,30.601401,1,0,1,1,0,0,['554a5e17498efabeda6cc559'],['Photography Studio'],0
521626ed498e0384b0b7494e,–í—Å–µ –¥–ª—è –î–æ–º—É,['–£–∫—Ä–∞—ó–Ω–∞'],50.4326286315918,30.601972579956055,2,0,2,2,0,0,['4bf58dd8d48988d1ff941735'],['Miscellaneous Shop'],0
4e3163ecfa76b9130b70f31f,"–î–µ—Ç—Å–∫–∏–π –º–∞–≥–∞–∑–∏–Ω ""–ú–æ–¥–Ω—è—à–∫–∞""","['–°–µ—Ä–∞—Ñ–∏–º–æ–≤–∏—á–∞,11–∞ (–°–µ—Ä–∞—Ñ–∏–º–æ–≤–∏—á–∞)', '–ö–∏–µ–≤', '–£–∫—Ä–∞—ó–Ω–∞']",50.432663,30.602014,12,0,7,12,0,0,['4bf58dd8d48988d105951735'],['Kids Store'],0
56f291c4498e5fc279f2b91a,–®–∞—É—Ä–º–∞,"['–°–µ—Ä–∞—Ñ–∏–º–æ–≤–∏—á–∞ 11', '–ö–∏—ó–≤', '–£–∫—Ä–∞—ó–Ω–∞']",50.433224,30.60111,10,0,5,10,0,0,['4bf58dd8d48988d153941735'],['Burrito Place'],0
50d6f601e4b02f739d2ee3a3,"–°–∞–ª–æ–Ω-–∞—Ç–µ–ª—å–µ ""ARTLI""","['–£–ª. –°–µ—Ä–∞—Ñ–∏–º–æ–≤–∏—á–∞, 11 (2 —ç—Ç–∞–∂)', '–ö–∏—ó–≤', '–£–∫—Ä–∞—ó–Ω–∞']",50.43292487132183,30.601256694271548,20,1,12,20,0,0,['5032781d91d4c4b30a586d5b'],['Tailor Shop'],0
5114f456e4b04c3d59408447,–ê–≤—Ç–æ–±—É—Å ‚Ññ95,"['–∂/–º –ú–∏–∫—ñ–ª—å—Å—å–∫–∞ –°–ª–æ–±—ñ–¥–∫–∞ (—Å—Ç. –õ—ñ–≤–∏–π –ë–µ—Ä–µ–≥)', '–ö–∏—ó–≤', '–£–∫—Ä–∞—ó–Ω–∞']",50.43308242130225,30.600992042248677,18,0,8,18,0,0,"['4bf58dd8d48988d12b951735', '4f2a23984b9023bd5841ed2c']","['Bus Line', 'Moving Target']",0
5684f089498e81a957cf3a53,–í–∞—Ü–∞–∫,['–£–∫—Ä–∞—ó–Ω–∞'],50.433352,30.601929,3,0,3,3,0,0,['4bf58dd8d48988d117951735'],['Candy Store'],0
4e315ea818a837634f3217f0,–ö—Ä–∞—ó–Ω–∞ –∑–¥–æ—Ä–æ–≤'—è,"['–≤—É–ª. –ê–º–≤—Ä–æ—Å—ñ—è –ë—É—á–º–∏, 2 (–≤—É–ª. –°–µ—Ä–∞—Ñ—ñ–º–æ–≤–∏—á–∞)', '–ö–∏—ó–≤', '–£–∫—Ä–∞—ó–Ω–∞']",50.433238029301236,30.60251450815728,69,2,32,71,0,0,['4bf58dd8d48988d10f951735'],['Pharmacy'],0
50d6f929e4b0aceb1a6c9b23,"–¢–û–í ""–ê–õ–õ–û""","['–£–ª. –°–µ—Ä–∞—Ñ–∏–º–æ–≤–∏—á–∞, 11', '–ö–∏—ó–≤', '–£–∫—Ä–∞—ó–Ω–∞']",50.43294792565694,30.601287396402466,28,0,12,43,2,0,['4f04afc02fb6e1c99f3db0bc'],['Mobile Phone Shop'],0
5852e3db13af1c6c7785034d,#–ù–ï–±—ã–¥–ª–æ–¢–û–ß–ö–ê,['–£–∫—Ä–∞—ó–Ω–∞'],50.430913,30.602699,36,0,22,82,0,0,['4bf58dd8d48988d130941735'],['Building'],0
4e40ffacaeb798c6bf3a81c8,–ï–ö–û –ú–∞—Ä–∫–µ—Ç,"['–≤—É–ª. –°–µ—Ä–∞—Ñ–∏–º–æ–≤–∏—á–∞, 11', '–ö–∏—ó–≤', '–£–∫—Ä–∞—ó–Ω–∞']",50.43294603746367,30.60141335779925,720,8,845,1814,6,4.5,['4bf58dd8d48988d118951735'],['Grocery Store'],34
505748f5e4b08e1d3eba5cc8,–ñ–∞—Å–º–∏–Ω,"['–°–µ—Ä–∞—Ñ–∏–º–æ–≤–∏—á–∞ 11', '–ö–∏—ó–≤', '–£–∫—Ä–∞—ó–Ω–∞']",50.432830716371384,30.601080209828496,71,1,31,86,1,0,['4bf58dd8d48988d110951735'],['Salon / Barbershop'],0
54340358498ef9f1282d21e8,–í—É–ª–∏—Ü—è –ê–º–≤—Ä–æ—Å—ñ—è –ë—É—á–º–∏,"['–≤—É–ª. –ê–º–≤—Ä–æ—Å—ñ—è –ë—É—á–º–∏', '–ö–∏—ó–≤', '–£–∫—Ä–∞—ó–Ω–∞']",50.43323129775142,30.60249195470378,141,0,40,176,0,0,['4d954b06a243a5684965b473'],['Residential Building (Apartment / Condo)'],0
4fbf30c5e4b02e98a8d8a8dc,–°–ø–µ—Ü—ñ–∞–ª—ñ–∑–æ–≤–∞–Ω–∞ —à–∫–æ–ª–∞ ‚Ññ327,"['–≤—É–ª. –°–µ—Ä–∞—Ñ–∏–º–æ–≤–∏—á–∞, 9–±', '–ö–∏—ó–≤', '–£–∫—Ä–∞—ó–Ω–∞']",50.43118018176727,30.601399364805584,289,0,122,588,5,0,['4bf58dd8d48988d13b941735'],['School'],0
52162273498edb9f76ed3c5f,Eva,"['–≤—É–ª. –°–µ—Ä–∞—Ñ–∏–º–æ–≤–∏—á–∞ 7–∞', '–ö–∏—ó–≤', '–£–∫—Ä–∞—ó–Ω–∞']",50.432987389330165,30.601070157695617,65,3,28,70,2,0,['4bf58dd8d48988d10c951735'],['Cosmetics Shop'],0
4e1da6191838f4ab744028ce,–†–∏–Ω–æ–∫ ¬´–ë–µ—Ä–µ–∑–Ω—è–∫–∏¬ª,"['–≤—É–ª. –°–µ—Ä–∞—Ñ–∏–º–æ–≤–∏—á–∞, 6', '–ö–∏—ó–≤', '–£–∫—Ä–∞—ó–Ω–∞']",50.433426049048244,30.60126315649086,3118,25,4164,14224,89,5.7,['50be8ee891d4fa8dcc7199a7'],['Market'],189
5677c4fd498ea482765f4267,—á–∞–µ–ø–∏—Ç–∏–µ,['–£–∫—Ä–∞—ó–Ω–∞'],50.437789,30.603685,5,0,1,5,0,0,['4e0e22f5a56208c4ea9a85a0'],['Distillery'],0
56b7a1c4498e68d95cfae45b,spa center –≤–ª–∞–¥—ã —Å–º–∏—Ä–Ω–æ–≤–æ–πüíã,['–£–∫—Ä–∞—ó–Ω–∞'],50.437675,30.603574,1,0,1,1,1,0,['4bf58dd8d48988d110951735'],['Salon / Barbershop'],0
567fac35498ed1ef619f6945,–∫—É—Ä–∏–ª–∫–∞ –ø–æ–¥ –∞–ø–∞—Ä—Ç–∞–º–µ–Ω—Ç–∞–º–∏ –≤–ª–∞–¥—ã —Å–º,['–£–∫—Ä–∞—ó–Ω–∞'],50.437756,30.603696,14,0,4,17,1,0,['4f4528bc4b90abdf24c9de85'],['Athletics & Sports'],0
56780a05498eca17779d24f1,–º–∞–≥–∞–∑–∏–Ω –∫–æ–Ω—Ñ–µ—Ç–æ–∫,['–£–∫—Ä–∞—ó–Ω–∞'],50.437727,30.60378,2,0,1,2,0,0,['52f2ab2ebcbc57f1066b8b31'],['Chocolate Shop'],0
56c60333cd10d983b54bb263,–≤ –≥–æ—Å—Ç—è—Ö —É –∫—É—Ä–∫—É–º—ã,['–£–∫—Ä–∞—ó–Ω–∞'],50.437525,30.604,24,0,23,53,0,0,['4d954b06a243a5684965b473'],['Residential Building (Apartment / Condo)'],0
524e5c72498eb453aa1ac5cf,–∫–æ—Ñ–µ–π–Ω—è –ª—é–±–∏–º–∞—è –Ω–∞ –≠–Ω—Ç—É–∑–∏–∞—Å—Ç–æ–≤,['–£–∫—Ä–∞—ó–Ω–∞'],50.437800467210465,30.60355502312318,56,1,9,57,2,0,['4bf58dd8d48988d1e0931735'],['Coffee Shop'],0
51a08817498ea725415b7313,–†—ã–Ω–æ–∫ –Ω–∞ –≠–Ω—Ç—É–∑–∏–∞—Å—Ç–æ–≤,"['–≠–Ω—Ç—É–∑–∏–∞—Å—Ç–æ–≤, 37 (–ë—É–ª—å–≤–∞—Ä –î–∞–≤—ã–¥–æ–≤–∞)', '–ö–∏—ó–≤', '–£–∫—Ä–∞—ó–Ω–∞']",50.436022799444906,30.60314150915076,14,1,12,14,1,0,['50be8ee891d4fa8dcc7199a7'],['Market'],0
569cdce5498e49dfe04ea55c,–î–ù–ó 485,"['–ï–Ω—Ç—É–∑—ñ–∞—Å—Ç—ñ–≤ 13–±', '–£–∫—Ä–∞—ó–Ω–∞']",50.437949,30.603088,7,0,1,7,0,0,['4f4533814b9074f6e4fb0107'],['Nursery School'],0
562399a3498e25669946d844,–Ω–∞ –æ—Å—Ç–∞–Ω–æ–≤–∫–µ,['–£–∫—Ä–∞—ó–Ω–∞'],50.437243,30.605039,3,0,2,3,0,0,['52f2ab2ebcbc57f1066b8b4f'],['Bus Stop'],0
56b7a6f5498e5b273f9aa77a,kitchen üç∞üéÇ,['–£–∫—Ä–∞—ó–Ω–∞'],50.437649,30.603579,2,0,1,2,1,0,['52e81612bcbc57f1066b79f3'],['Souvlaki Shop'],0
56b7a4f6498e57060d4d96b0,–∫–∏–Ω–æ—Ç–µ–∞—Ç—Ä –í–ª–∞–¥–∞ –°–º–∏—Ä–Ω–æ–≤–∞,['–£–∫—Ä–∞—ó–Ω–∞'],50.437806,30.603621,1,0,1,1,0,0,['4bf58dd8d48988d1d6941735'],['Strip Club'],0
5166e459e4b039f5632e3673,–≠–Ω—Ç—É–∑–∏–∞—Å—Ç–æ–≤ 11,"['Entuziastiv, 11', '–ö–∏—ó–≤, 02154', '–£–∫—Ä–∞—ó–Ω–∞']",50.43682234337725,30.60348914714539,278,1,105,381,2,0,['4d954b06a243a5684965b473'],['Residential Building (Apartment / Condo)'],0
5245af4d11d2536c6e8903ad,–º–∞–≥–∞–∑–∏–Ω –≤–æ–∑–ª–µ –¥–æ–º–∞,['–£–∫—Ä–∞—ó–Ω–∞'],50.438280573002594,30.604271783225958,25,0,16,32,0,0,['4d954b0ea243a5684a65b473'],['Convenience Store'],0
511227ffe4b0668e5fca9efc,"–ê–ø—Ç–µ–∫–∞ ""–ë–ª–∞–≥–æ–¥i—è""","['–ë—É–ª—å–≤–∞—Ä –î–∞–≤—ã–¥–æ–≤–∞, 2/7', '–ö–∏—ó–≤, 02154', '–£–∫—Ä–∞—ó–Ω–∞']",50.43594096240747,30.603512490047734,27,0,20,27,1,0,['4bf58dd8d48988d10f951735'],['Pharmacy'],0
55b65233498e76faa860bead,Rusanovka-net,['–£–∫—Ä–∞—ó–Ω–∞'],50.436500549316406,30.60413932800293,3,0,3,3,0,0,['4bf58dd8d48988d125941735'],['Tech Startup'],0
534fb85e498eaf6c85c58184,IT —Ç–µ—Ö–Ω–æ–ª–æ–≥–∏–∏(–æ—Ñ–∏—Å),"['–≠–Ω—Ç—É–∑–∏–∞—Å—Ç–æ–≤ 11', '–ö–∏—ó–≤', '–£–∫—Ä–∞—ó–Ω–∞']",50.43664262315189,30.603217225295477,55,0,16,62,0,0,['4bf58dd8d48988d124941735'],['Office'],0
52f12239498edafbd596a07f,podushka.ua,"['–≤—É–ª. –ï–Ω—Ç—É–∑—ñ–∞—Å—Ç—ñ–≤, 11', '–£–∫—Ä–∞—ó–Ω–∞']",50.4367825988602,30.60375418852929,79,3,183,225,7,5.9,"['4bf58dd8d48988d1f8941735', '4bf58dd8d48988d128951735']","['Furniture / Home Store', 'Gift Shop']",14
4efc92b877c822653f7e1bb7,–ü–æ–ª–∏–∫–ª–∏–Ω–∏–∫–∞ –°–µ–º–µ–π–Ω–æ–≥–æ –î–æ–∫—Ç–æ—Ä–∞,"['–≤—É–ª. –ï–Ω—Ç—É–∑—ñ–∞—Å—Ç—ñ–≤, 13–∞', '–ö–∏—ó–≤, 02154', '–£–∫—Ä–∞—ó–Ω–∞']",50.43820674472631,30.6029217598411,711,3,483,1354,6,0,['4bf58dd8d48988d177941735'],"[""Doctor's Office""]",0
5277f9de498e38bc8042814e,"–≤—É–ª. –ï–Ω—Ç—É–∑—ñ–∞—Å—Ç—ñ–≤, 13","['–≤—É–ª. –ï–Ω—Ç—É–∑—ñ–∞—Å—Ç—ñ–≤, 13', '–ö–∏—ó–≤', '–£–∫—Ä–∞—ó–Ω–∞']",50.43798298877846,30.60485122257132,72,0,58,128,1,0,['4d954b06a243a5684965b473'],['Residential Building (Apartment / Condo)'],0
5513e937498ec6dd8135ed1d,–°–Ω–∏–∫–µ—Ä—Å–∞ –º–∞—Ä—à—Ä—É—Ç,"['–≠–Ω—Ç—É–∑–∏–∞—Å—Ç–æ–≤ ,–î–∞–≤—ã–¥–æ–≤–∞, —Å—Ç–∞–¥–∏–æ–Ω,–≠–Ω—Ç—É–∑–∏–∞—Å—Ç–æ–≤', '–ö–∏—ó–≤', '–£–∫—Ä–∞—ó–Ω–∞']",50.43819383914959,30.604414113797503,25,0,12,36,0,0,['4bf58dd8d48988d1e5941735'],['Dog Run'],0
4e9186d7dab46521c17a4dd0,–ü–∞—Ä–∏–∫–º–∞—Ö–µ—Ä—Å–∫–∞—è-—Å–∞–ª–æ–Ω,"['–≤—É–ª. –ï–Ω—Ç—É–∑—ñ–∞—Å—Ç—ñ–≤, 11', '–ö–∏—ó–≤, 02154', '–£–∫—Ä–∞—ó–Ω–∞']",50.43718896444816,30.60402220395879,163,3,58,203,3,6.4,['4bf58dd8d48988d110951735'],['Salon / Barbershop'],8
56b7a3c2498eb46e0dc2c448,—Å–ø–∞–ª—å–Ω—è –º–∞—Ä–∫–∏–∑—ã –¥–µ –í–ª–∞–¥—ãüíú‚≠êÔ∏è,['–£–∫—Ä–∞—ó–Ω–∞'],50.437798,30.603526,10,0,5,11,0,0,['4f2a210c4b9023bd5841ed28'],['Housing Development'],0
4d87109cf9f3a1cd9759eb64,–£–∫—Ä–ø–æ—à—Ç–∞ 02154,"['–≤—É–ª. –ï–Ω—Ç—É–∑—ñ–∞—Å—Ç—ñ–≤, 11', '–ö–∏—ó–≤, 02154', '–£–∫—Ä–∞—ó–Ω–∞']",50.43716974635652,30.604605768348154,635,4,620,1595,9,0,['4bf58dd8d48988d172941735'],['Post Office'],0
5904de4de17910528774fccb,Beer Market,"['Entuziastiv Street, 7 (Entuziastiv)', '–ö–∏—ó–≤, 02154', '–£–∫—Ä–∞—ó–Ω–∞']",50.436756,30.603678,4,0,4,4,0,0,['4bf58dd8d48988d117941735'],['Beer Garden'],0
51cf3760498e2c23ff1f280c,"–≠–Ω—Ç—É–∑–∏–∞—Å—Ç–æ–≤, 11/1","['–≠–Ω—Ç—É–∑–∏–∞—Å—Ç–æ–≤, 11/1', '–£–∫—Ä–∞—ó–Ω–∞']",50.437894900895834,30.60406733658317,497,0,144,689,1,0,['4d954b06a243a5684965b473'],['Residential Building (Apartment / Condo)'],0
51bae130498ed788548a412c,–ö–ª—É–± –æ—Ä–≥–∞–Ω–∏—á–µ—Å–∫–æ–≥–æ –∑–µ–º–ª–µ–¥–µ–ª–∏—è,"['–≠–Ω—Ç—É–∑–∏–∞—Å—Ç–æ–≤, 11', '–ö–∏—ó–≤, 02154', '–£–∫—Ä–∞—ó–Ω–∞']",50.43693971617091,30.603530293480436,72,0,22,99,1,0,['4eb1c0253b7b52c0e1adc2e9'],['Garden Center'],0
559d43e5498e914e9cc26406,üíñüíë House of Loveüíèüíû,"['–≠–Ω—Ç—É–∑–∏–∞—Å—Ç–æ–≤ 17', '–ö–∏—ó–≤', '–£–∫—Ä–∞—ó–Ω–∞']",50.438662388647934,30.607080268707577,18,0,14,35,0,0,['4d954b06a243a5684965b473'],['Residential Building (Apartment / Condo)'],0
5392e37d498ea919cf9890f7,Dasha houseüè°üíú,['–£–∫—Ä–∞—ó–Ω–∞'],50.439602,30.606905,2,0,2,2,0,0,['4d954b06a243a5684965b473'],['Residential Building (Apartment / Condo)'],0
56934f3f498eff7b102eac1f,–∫–∞–±–∏–Ω–µ—Ç —Ñ–∏–∑–∏–∫–∏üëøüéâ,['–£–∫—Ä–∞—ó–Ω–∞'],50.439649,30.607062,3,0,1,3,0,0,['503288ae91d4c4b30a586d67'],['Afghan Restaurant'],0
569262fd498edcf03041e560,üè©–≥–Ω–µ–∑–¥–æ –±–µ–ª–∫–∏üêøüë∏üëë,"['–≠–Ω—Ç—É–∑–∏–∞—Å—Ç–æ–≤, 19/1', '–ö–∏—ó–≤', '–£–∫—Ä–∞—ó–Ω–∞']",50.43885795561119,30.60685205787741,31,0,63,136,0,0,['4d954b06a243a5684965b473'],['Residential Building (Apartment / Condo)'],0
54b2b9cb498e1ba84d585efc,–í–∏–æ–ª–µ—Ç—Ç–∞ HOUS,['–£–∫—Ä–∞—ó–Ω–∞'],50.43874490608708,30.606368522333558,1,0,1,2,0,0,['4d954b06a243a5684965b473'],['Residential Building (Apartment / Condo)'],0
54bb9008498e8ddf27c87274,–¢–∞—Ç—É –°–∞–ª–æ–Ω ),['–£–∫—Ä–∞—ó–Ω–∞'],50.44045647393867,30.606167158243867,2,0,2,2,0,0,['4d954b06a243a5684965b473'],['Residential Building (Apartment / Condo)'],0
54107839498e436e5cd2fd50,English Courses,"['–≠–Ω—Ç—É–∑–∏–∞—Å—Ç–æ–≤ 17', '–ö–∏—ó–≤', '–£–∫—Ä–∞—ó–Ω–∞']",50.438570787521314,30.6073845652788,44,0,15,57,0,0,['4bf58dd8d48988d1a0941735'],['College Classroom'],0
56c49c70cd10a75ad2424b47,My Favourite Jobüíºüìö,['–£–∫—Ä–∞—ó–Ω–∞'],50.439565917621806,30.606895340479014,13,0,1,26,0,0,['52e81612bcbc57f1066b7a46'],['Private School'],0
50c635d6e4b09f38ae9bad08,–≠–Ω—Ç—É–∑–∏–∞—Å—Ç–æ–≤ 23,"['–≠–Ω—Ç—É–∑–∏–∞—Å—Ç–æ–≤, 23', '–ö–∏—ó–≤, 02154', '–£–∫—Ä–∞—ó–Ω–∞']",50.439969615442784,30.60563574106357,249,1,57,257,8,0,['4d954b06a243a5684965b473'],['Residential Building (Apartment / Condo)'],0
53286f87498edd9a0566308a,–¶–∏—Ä—é–ª—å–Ω—è,"['–≠–Ω—Ç—É–∑–∏–∞—Å—Ç–æ–≤ 15-17', '–ö–∏—ó–≤, 02154', '–£–∫—Ä–∞—ó–Ω–∞']",50.439078809668864,30.606633779648988,5,0,4,8,0,0,['4bf58dd8d48988d110951735'],['Salon / Barbershop'],0
53fcbaf8498ebbffd7590acb,Denli,"['–≠–Ω—Ç—É–∑–∏–∞—Å—Ç–æ–≤ 17', '–ö–∏—ó–≤', '–£–∫—Ä–∞—ó–Ω–∞']",50.438912,30.607308,11,0,8,28,0,0,['4bf58dd8d48988d125941735'],['Tech Startup'],0
516ee6b1e4b0b6808cac4a3e,–î–∂–µ–Ω—Ç–µ–ª—å–º–µ–Ω—ã –£–¥–∞—á–∏,['–£–∫—Ä–∞—ó–Ω–∞'],50.439587269427435,30.605935784029743,9,0,9,9,0,0,['4bf58dd8d48988d118941735'],['Dive Bar'],0
56643cd4498e4003e2df8a24,–ê–ª—å–±–∞—Ç—Ä–æ—Å,"['–ø—Ä. –í–æ—Å—Å–æ–µ–¥–∏–Ω–µ–Ω–∏—è 30', '–£–∫—Ä–∞—ó–Ω–∞']",50.43911,30.607901,4,0,5,6,1,0,['4d954b0ea243a5684a65b473'],['Convenience Store'],0
56c0645bcd107f5cf4b7d163,Nika's houseüè†,['–£–∫—Ä–∞—ó–Ω–∞'],50.438534,30.606213,58,0,1,58,0,0,['4d954b06a243a5684965b473'],['Residential Building (Apartment / Condo)'],0
542c4c1f498e7104e8d8bef2,APARTMENT88,['–£–∫—Ä–∞—ó–Ω–∞'],50.439275,30.606204,5,0,2,5,0,0,['4d954b06a243a5684965b473'],['Residential Building (Apartment / Condo)'],0
51d932c8498e8f341fb2bbe8,"–ü–∞—Ä–∏–∫–º–∞—Ö–µ—Ä—Å–∫–∞—è ""–®–∞—Ä–º""","['–≠–Ω—Ç—É–∑–∏–∞—Å—Ç–æ–≤, 17', '–ö–∏—ó–≤', '–£–∫—Ä–∞—ó–Ω–∞']",50.43928535277182,30.606730689751664,10,0,8,13,1,0,['4bf58dd8d48988d110951735'],['Salon / Barbershop'],0
4fb9151ee4b04abe15d880e7,–ü–ª–∏—Ç—ã –ü–æ–¥ –ê–Ω–∂–µ–ª–∫–æ–π,['–£–∫—Ä–∞—ó–Ω–∞'],50.440378047186236,30.6057417736833,57,0,20,58,0,0,['4bf58dd8d48988d165941735'],['Scenic Lookout'],0
533ebd49498efef7db6c3cf7,–®—Ç–∞–± –û–ª–µ—Å—è –ú–∞–ª—è—Ä–µ–≤–∏—á–∞,"['–í—É–ª. –ï–Ω—Ç—É–∑—ñ–∞—Å—Ç—ñ–≤,17', '–ö–∏—ó–≤', '–£–∫—Ä–∞—ó–Ω–∞']",50.43885978974422,30.607007752982614,47,0,17,64,2,0,['5032764e91d4c4b30a586d5a'],['Campaign Office'],0
53088f7e11d25521f2825b0b,"—ç–Ω—Ç—É–∑–∏–∞—Å—Ç–æ–≤,11 —Å–∞–ª–æ–Ω –∫—Ä–∞—Å–æ—Ç—ã","['—É–ª. –≠–Ω—Ç—É–∑–∏–∞—Å—Ç–æ–≤, 11', '–ö–∏—ó–≤', '–£–∫—Ä–∞—ó–Ω–∞']",50.43943710560812,30.605713682044932,8,2,3,9,1,0,['4bf58dd8d48988d110951735'],['Salon / Barbershop'],0
5283c652498ed2089ff0dcee,Anna's Apartments,"['–≠–Ω—Ç—É–∑–∏–∞—Å—Ç–æ–≤ 19/1', '–£–∫—Ä–∞—ó–Ω–∞']",50.43869955234226,30.60658725689135,94,0,2,96,1,0,['4d954b06a243a5684965b473'],['Residential Building (Apartment / Condo)'],0
53134d14498e912f9c8cde5a,"–¢–æ–ø–∞–∑, –¥–∞–π –∫–æ–º–∞–Ω–¥—É!",['–£–∫—Ä–∞—ó–Ω–∞'],50.43955701966895,30.60675987554037,40,0,20,51,0,0,['4bf58dd8d48988d160941735'],['Hot Spring'],0
525a8acc11d2ea8f38657d13,JT tattoo studio,"['–≠–Ω—Ç—É–∑–∏–∞—Å—Ç–æ–≤, 23', '–ö–∏—ó–≤', '–£–∫—Ä–∞—ó–Ω–∞']",50.43988800048828,30.60580062866211,19,1,12,22,3,0,['4bf58dd8d48988d1de931735'],['Tattoo Parlor'],0
582c4f9871151c0a0a86d4cb,—Ç—Ä—É–±–∫—É –∫—É—Ä–∏—Ç –±–∞–±—É—à–∫–∞ –º–æ—è,"['–£–ª. –≠–Ω—Ç—É–∑–∏–∞—Å—Ç–æ–≤ 17', '–ö–∏—ó–≤, 02154', '–£–∫—Ä–∞—ó–Ω–∞']",50.43863,30.60675,3,0,1,4,0,0,['4d954b06a243a5684965b473'],['Residential Building (Apartment / Condo)'],0
5439be65498ec74795d91323,‚ô° K.Irina's Sweet home‚ô°,['–£–∫—Ä–∞—ó–Ω–∞'],50.4391641635247,30.606189804153537,84,0,2,89,0,0,['4d954b06a243a5684965b473'],['Residential Building (Apartment / Condo)'],0
5135bffde4b061c20a1b9f37,"—É–ª. –≠–Ω—Ç—É–∑–∏–∞—Å—Ç–æ–≤, 21",['–£–∫—Ä–∞—ó–Ω–∞'],50.43959620044806,30.60584482000217,351,0,235,832,3,0,['4d954b06a243a5684965b473'],['Residential Building (Apartment / Condo)'],0
53e3c1f1498e9b349bf21198,–ì—Ä–æ–º–∞–¥—Å—å–∫–∞ –ø—Ä–∏–π–º–∞–ª—å–Ω—è –¥–µ–ø—É—Ç–∞—Ç–∞ –ú–∞–ª—è—Ä–µ–≤–∏—á–∞,"['–ï–Ω—Ç—É–∑—ñ–∞—Å—Ç—ñ–≤, 17, –æ—Ñ.2', '–ö–∏—ó–≤, 02154', '–£–∫—Ä–∞—ó–Ω–∞']",50.43885080431652,30.60759694997029,17,0,12,29,0,0,['52e81612bcbc57f1066b7a38'],['Town Hall'],0
4fe18c93e4b00170a68cccb6,–•–∞—Ä—ñ–∑–º–∞,"['–≤—É–ª. –ï–Ω—Ç—É–∑—ñ–∞—Å—Ç—ñ–≤, 15', '–ö–∏—ó–≤', '–£–∫—Ä–∞—ó–Ω–∞']",50.43844303816273,30.60683727264404,142,0,42,212,3,0,['4bf58dd8d48988d178941735'],"[""Dentist's Office""]",0
51a85d97498e86a1641e550a,"–°—Ç–æ–º–∞—Ç–æ–ª–æ–≥–∏—è ""Sun Smile""","['–£–ª–∏—Ü–∞ –≠–Ω—Ç—É–∑–∏–∞—Å—Ç–æ–≤, 17', '–ö–∏—ó–≤', '–£–∫—Ä–∞—ó–Ω–∞']",50.43940051729005,30.607132224000278,155,2,88,227,1,0,['4bf58dd8d48988d178941735'],"[""Dentist's Office""]",0
5566f98b498e32ff7777fb2a,–†—É—Å–∞–Ω–æ–≤—Å–∫–∏–π –ø–æ–ª—É–æ—Å—Ç—Ä–æ–≤‚õµÔ∏èüë©üèª,['–£–∫—Ä–∞—ó–Ω–∞'],50.439301259677336,30.606959647907058,127,0,136,253,8,0,['55077a22498e5e9248869ba2'],['Cruise'],0
4e35a27c62e17d2908360a9a,–ê–Ω–∂–µ–ª–∏–∫–∞,"['Entuziastiv, 25', '–ö–∏—ó–≤', '–£–∫—Ä–∞—ó–Ω–∞']",50.440779958585615,30.60537815093994,856,11,800,2220,15,5.5,"['4bf58dd8d48988d1f9941735', '4bf58dd8d48988d186941735']","['Food & Drink Shop', 'Liquor Store']",37
55817d0b498e4d2229eaff55,–ñ–ö ¬´–ö–∏—ó–≤—Å—å–∫–∞ –í–µ–Ω–µ—Ü—ñ—è¬ª,"['Vozzyednannya avenue, 30 (–≤—É–ª. –Ñ–≤–≥–µ–Ω–∞ –°–≤–µ—Ä—Å—Ç—é–∫–∞)', '–ö–∏—ó–≤', '–£–∫—Ä–∞—ó–Ω–∞']",50.43886192696467,30.61007937837741,461,1,409,1253,5,0,['4d954b06a243a5684965b473'],['Residential Building (Apartment / Condo)'],0
55f7690f498e98d11eaeca22,—Ä–µ–±—è—Ç—É—à–∫–∏–∏–∏,"['–≠–Ω—Ç—É–∑–∏–∞—Å—Ç–æ–≤ 25:1', '–£–∫—Ä–∞—ó–Ω–∞']",50.439823,30.603856,2,0,3,5,0,0,['4d954b06a243a5684965b473'],['Residential Building (Apartment / Condo)'],0
54a19962498eaaf395a856bb,"–ê–≤—Ç–æ–º–æ–π–∫–∞ ""–ê–≤—Ç–æ—Ü–µ–Ω—Ç—Ä –®–æ–≥—É–Ω""",['–£–∫—Ä–∞—ó–Ω–∞'],50.44046164329335,30.603351418390027,4,0,2,4,0,0,['4f04ae1f2fb6e1c99f3db0ba'],['Car Wash'],0
502fc2c6e4b047efed8c3bcc,"–ñ–ö ""–û–∑–µ—Ä–Ωi –∑–æ—Äi""","['–®—É–º—Å–∫–æ–≥–æ (–®—É–º—Å–∫–æ–≥–æ)', '–ö–∏–µ–≤', '–£–∫—Ä–∞—ó–Ω–∞']",50.43923109057105,30.605024100861392,8,2,4,12,1,0,['4f2a210c4b9023bd5841ed28'],['Housing Development'],0
54512911498ea24660815528,—É –ö—Å—é üçπ,['–£–∫—Ä–∞—ó–Ω–∞'],50.43911161131219,30.605182643368217,14,0,2,14,0,0,['4f2a210c4b9023bd5841ed28'],['Housing Development'],0
568cc0fb498e9fddf51126fc,–ü—Ä–æ–±–µ–∂–∫–∞ –ø–æ –∫–∞–Ω–∞–ª—É üí™,['–£–∫—Ä–∞—ó–Ω–∞'],50.439932746757805,30.60373518636155,2,0,1,2,0,0,['4f4528bc4b90abdf24c9de85'],['Athletics & Sports'],0
56ab2bc1498ea6e0e990f7e9,–°–¢–û Kia/Hundai,"['–í–∏–±–æ—Ä–∑—å–∫–∞, 91 –ê', '–ö–∏—ó–≤', '–£–∫—Ä–∞—ó–Ω–∞']",50.44024358073596,30.604543030215012,2,0,2,2,0,0,['52f2ab2ebcbc57f1066b8b44'],['Auto Garage'],0
4f47dd12e4b0e4755c2e67e7,–≠–Ω–∏—É–∑–∏–∞—Å—Ç–æ–≤ 25,['–£–∫—Ä–∞—ó–Ω–∞'],50.44077494930858,30.60510622407606,57,0,34,69,1,0,['4d954b06a243a5684965b473'],['Residential Building (Apartment / Condo)'],0
4fa2c2dfe4b06a702f285864,–ê–ø—Ç–µ–∫–∞,['–£–∫—Ä–∞—ó–Ω–∞'],50.44069218452436,30.605306006831977,53,0,29,54,0,0,['4f4531b14b9074f6e4fb0103'],['Medical Lab'],0
57605a0d498e61d2124f4276,–ö—É—Ä—Å—ã –∞–Ω–≥–ª–∏–π—Å–∫–æ–≥–æ,"['–≠–Ω—Ç—É–∑–∏–∞—Å—Ç–æ–≤ 25/1', '–ö–∏—ó–≤', '–£–∫—Ä–∞—ó–Ω–∞']",50.440755,30.603113,3,0,1,3,0,0,['4bf58dd8d48988d1b1941735'],['College Bookstore'],0
56063315498ec583563b94a7,üìÑüìäüìò,"['–≠–Ω—Ç—É–∑–∏–∞—Å—Ç–æ–≤', '–ö–∏—ó–≤', '–£–∫—Ä–∞—ó–Ω–∞']",50.44036921182179,30.603703092055095,8,0,1,8,0,0,['4bf58dd8d48988d1af941735'],['College Auditorium'],0
56674dd6498e2680efcc29fe,–ì—É–ª—è—à –∞–ø–∞—Ä—Ç–∞–º–µ–Ω—Ç—ã üë∏,['–£–∫—Ä–∞—ó–Ω–∞'],50.439861,30.603804,7,0,31,76,0,0,['4d954b06a243a5684965b473'],['Residential Building (Apartment / Condo)'],0
54799ab4498e0910b59e216a,Shwarzkopf,['–£–∫—Ä–∞—ó–Ω–∞'],50.44054113426665,30.6042681900272,8,0,22,24,1,0,['4bf58dd8d48988d110951735'],['Salon / Barbershop'],0
54a42be1498e23ff97e24c0b,–≥–ª–∞–≤–Ω–∞—è –µ–ª–∫–∞ –†—É—Å–∞–Ω–æ–≤–∫–∏,['–£–∫—Ä–∞—ó–Ω–∞'],50.44,30.604995,41,0,73,165,0,0,['4bf58dd8d48988d11f941735'],['Nightclub'],0
504f9d7ce4b0ab03b953d83c,–ï–Ω—Ç—É–∑–∏–∞—Å—Ç—ñ–≤ 25/2,"['–ï–Ω—Ç—É–∑–∏–∞—Å—Ç—ñ–≤ 25/2', '–ö–∏—ó–≤', '–£–∫—Ä–∞—ó–Ω–∞']",50.4408615670106,30.60410850438235,201,1,83,366,1,0,['4d954b06a243a5684965b473'],['Residential Building (Apartment / Condo)'],0
52112905498e7c9ec103d1be,Zhogol Home Studio,"['–≠–Ω—Ç—É–∑–∏–∞—Å—Ç–æ–≤ 21/1', '–ö–∏—ó–≤', '–£–∫—Ä–∞—ó–Ω–∞']",50.43917980316494,30.605120327725864,194,0,71,348,2,0,['554a5e17498efabeda6cc559'],['Photography Studio'],0
5479e384498e3d34e5508889,—É –ì—É—Å–µ–≤—ã—Ö,"['–≠–Ω—Ç—É–∑–∏–∞—Å—Ç–æ–≤ 15', '–ö–∏—ó–≤', '–£–∫—Ä–∞—ó–Ω–∞']",50.43786773751348,30.60645808394784,9,0,3,10,0,0,['4f2a210c4b9023bd5841ed28'],['Housing Development'],0
5534e78c498edd6644cd789a,Queen Bakery,"['–±—É–ª. –†—É—Å–∞–Ω–æ–≤—Å–∫–∏–π, 3', '–£–∫—Ä–∞—ó–Ω–∞']",50.43812249837593,30.60684254986499,11,0,7,16,0,0,['4bf58dd8d48988d16a941735'],['Bakery'],0
552ffe6d498e44b9c15bf381,PL's workshop,"['15 Entuziastiv', '–£–∫—Ä–∞—ó–Ω–∞']",50.438165,30.607175,21,0,26,61,0,0,['507c8c4091d498d9fc8c67a9'],['Public Art'],0
5548b861498e33bf94f8e257,–¢–∫–∞–Ω–∏,"['–ë–µ—Ä–µ–∑–Ω—è–∫–∏', '–£–∫—Ä–∞—ó–Ω–∞']",50.438130874663685,30.6071986394106,4,0,3,4,1,0,['5032781d91d4c4b30a586d5b'],['Tailor Shop'],0
56ab551e498e5de45390fa83,–ú–∞–Ω–∏–∫—é—Ä —É –°–∞—à–∏üíÖüèº,['–£–∫—Ä–∞—ó–Ω–∞'],50.437992,30.605871,13,0,4,14,0,0,['4f04aa0c2fb6e1c99f3db0b8'],['Nail Salon'],0
51018311e4b017637feb6115,–ü—Ä—è–∂–∞,"['–ø—Ä-—Ç –ü.–¢—ã—á–∏–Ω—ã', '–ö–∏–µ–≤', '–£–∫—Ä–∞—ó–Ω–∞']",50.437987903543714,30.606577320646508,13,0,6,13,0,0,['4bf58dd8d48988d127951735'],['Arts & Crafts Store'],0
51be1443498e013b2d4501c5,"–£–ª–∏—Ü–∞ –≠–Ω—Ç—É–∑–∏–∞—Å—Ç–æ–≤, 15",['–£–∫—Ä–∞—ó–Ω–∞'],50.437881466961535,30.60635160718452,429,0,183,687,2,0,['4d954b06a243a5684965b473'],['Residential Building (Apartment / Condo)'],0
5071491ae4b011218b2841b5,–¶–µ—Ä–∫–≤–∞ –ñ–∏–≤–æ–≥–æ –ë–æ–≥–∞,"['–°–µ—Ä–∞—Ñ–∏–º–æ–≤–∏—á–∞ 15–∞', '–£–∫—Ä–∞—ó–Ω–∞']",50.436059862863125,30.60672628926298,16,0,12,20,0,0,['4bf58dd8d48988d132941735'],['Church'],0
56dc5d23498ed1be4ca9bd32,"–ï–Ω—Ç—É–∑—ñ–∞—Å—Ç—ñ–≤, 19/1","['–ï–Ω—Ç—É–∑—ñ–∞—Å—Ç—ñ–≤, 19/1', '–ö–∏—ó–≤', '–£–∫—Ä–∞—ó–Ω–∞']",50.438288824144585,30.606252461998842,359,0,116,557,3,0,['4d954b06a243a5684965b473'],['Residential Building (Apartment / Condo)'],0
51790b71e4b029d2f17632bd,County Place,"['–≤—É–ª. –ï–Ω—Ç—É–∑—ñ–∞—Å—Ç—ñ–≤, 7/2', '–ö–∏—ó–≤', '–£–∫—Ä–∞—ó–Ω–∞']",50.437112664345086,30.601304991609886,10,1,5,10,1,0,['4bf58dd8d48988d16d941735'],['Caf√©'],0
56ed12c4498e167302b218e8,–ó–æ–æ—Ç–æ–≤–∞—Ä—ã,['–£–∫—Ä–∞—ó–Ω–∞'],50.43747548832544,30.599602382814307,5,0,2,5,0,0,['4bf58dd8d48988d100951735'],['Pet Store'],0
524052d611d27373ab6bf97d,–û—Å—Ç–∞–Ω–æ–≤–∫–∞ ¬´–ü–æ—á—Ç–∞ 154¬ª,"['–ö–∏—ó–≤', '–£–∫—Ä–∞—ó–Ω–∞']",50.43828910344546,30.602783351136257,8,0,6,8,0,0,"['4bf58dd8d48988d12b951735', '4bf58dd8d48988d1fe931735']","['Bus Line', 'Bus Station']",0
5334a4b5498eb6f118ab28ba,–ú–æ—è –ë–µ—Ä–ª–æ–≥–∞,['–£–∫—Ä–∞—ó–Ω–∞'],50.438071984506806,30.60257236200591,68,0,25,103,4,0,['4bf58dd8d48988d18e941735'],['Comedy Club'],0
512cbf5fe4b055b6b57d0427,–¥–µ—Ç—Å–∫–∞—è –ø–æ–ª–∏–∫–ª–∏–Ω–∏–∫–∞,"['–≠–Ω—Ç—É–∑–∏–∞—Å—Ç–æ–≤ 13', '–ö–∏—ó–≤', '–£–∫—Ä–∞—ó–Ω–∞']",50.438056354988916,30.60351596456232,37,0,45,75,0,0,['4bf58dd8d48988d177941735'],"[""Doctor's Office""]",0
4f8d27b8e4b076cabbd7ffa5,–°—Ç–æ–ª–æ–≤–∞—è (–°–®. #137),"['–≠–Ω—Ç—É–∑–∏–∞—Å—Ç–æ–≤ 7/4', '–£–∫—Ä–∞—ó–Ω–∞']",50.43862820880386,30.599640530495854,99,0,20,101,1,0,['4bf58dd8d48988d1a1941735'],['College Cafeteria'],0
4e97c3f829c239fa282b4d1e,Clvr.ua,"['–ö–∏—ó–≤', '–£–∫—Ä–∞—ó–Ω–∞']",50.437576,30.60195,7,0,5,8,0,0,['4bf58dd8d48988d124941735'],['Office'],0
53a48707498eac9e6417d68a,–≠–Ω—Ç—É–∑–∏–∞—Å—Ç–æ–≤ 7/2,"['–ö–∏–µ–≤', '–£–∫—Ä–∞—ó–Ω–∞']",50.436990113704674,30.600278328557632,70,0,22,103,0,0,['4d954b06a243a5684965b473'],['Residential Building (Apartment / Condo)'],0
53e69099498e59eb2d514f6e,–°–æ–∫–æ–ª–∏–Ω–æ–µ –≥–Ω–µ–∑–¥–æ,['–£–∫—Ä–∞—ó–Ω–∞'],50.436694578547915,30.60107247990695,143,1,7,178,1,0,"['4d954b06a243a5684965b473', '4bf58dd8d48988d103941735']","['Residential Building (Apartment / Condo)', 'Home (private)']",0
5247bad611d2273ad8c0bb65,–æ—Å—Ç–∞–Ω–æ–≤–∫–∞ –∑–∞–ª.—Å—Ç.–†—É—Å–∞–Ω–æ–≤–∫–∞,['–£–∫—Ä–∞—ó–Ω–∞'],50.437660217285156,30.602663040161133,14,0,4,14,0,0,['4bf58dd8d48988d12b951735'],['Bus Line'],0
525889f011d2ea8f238c90c7,"–±—É–ª. –î–∞–≤–∏–¥–æ–≤–∞, 6","['–±—É–ª. –î–∞–≤–∏–¥–æ–≤–∞, 6', '–£–∫—Ä–∞—ó–Ω–∞']",50.43660337322819,30.599773037879316,288,1,67,404,3,0,['4d954b06a243a5684965b473'],['Residential Building (Apartment / Condo)'],0
5574b480498edadbea64edf6,Uncle Slavik's Alco Residence,['–£–∫—Ä–∞—ó–Ω–∞'],50.438304125560734,30.602009170285413,19,0,14,38,0,0,['5032891291d4c4b30a586d68'],['Assisted Living'],0
52f38407498eee976641949d,—É–ª–∏—Ü–∞ –≠–Ω—Ç—É–∑–∏–∞—Å—Ç–æ–≤ 7/4,"['–£–ª. –≠–Ω—Ç—É–∑–∏–∞—Å—Ç–æ–≤ 7/4', '–ö–∏—ó–≤', '–£–∫—Ä–∞—ó–Ω–∞']",50.437029853540686,30.598242936983667,26,0,5,26,0,0,['4bf58dd8d48988d130941735'],['Building'],0
52ed0df5498e284de2f874c5,–°—Ç—É–¥–∏—è —Ç–≤–æ—Ä—á–µ—Å—Ç–≤–∞ –ï –ö—Ä–∞—Å–∏–ª—å–Ω–∏–∫–æ–≤–æ–π,"['–ö–∏—ó–≤', '–£–∫—Ä–∞—ó–Ω–∞']",50.44065408997492,30.601002163254382,5,0,4,6,0,0,['4bf58dd8d48988d1e2931735'],['Art Gallery'],0
551fe44e498ebcff82f0a937,–î–æ–º üè°,"['–≠–Ω—Ç—É–∑–∏–∞—Å—Ç–æ–≤ 7/1', '–£–∫—Ä–∞—ó–Ω–∞']",50.43661962535913,30.599953635637974,113,0,18,130,0,0,['4d954b06a243a5684965b473'],['Residential Building (Apartment / Condo)'],0
54453a62498e5512d2c4c3c0,–£–Ω–∏–≤–µ—Äüìö,"['–î–∞–≤—ã–¥–æ–≤–∞', '–£–∫—Ä–∞—ó–Ω–∞']",50.43959469508087,30.602481037702816,29,0,1,29,0,0,['4bf58dd8d48988d1ae941735'],['University'],0
52c17874498e7c70a88531d9,Italiavogs,"['—É–ª. –≠–Ω—Ç—É–∑–∏–∞—Å—Ç–æ–≤ 7', '–ö–∏—ó–≤', '–£–∫—Ä–∞—ó–Ω–∞']",50.43652657503834,30.601895363156185,13,1,14,15,1,0,['4bf58dd8d48988d102951735'],['Accessories Store'],0
563fe5facd10a899c2c545f8,–¥–Ω–æ,['–£–∫—Ä–∞—ó–Ω–∞'],50.436777,30.598318,3,0,3,3,0,0,['4bf58dd8d48988d15c941735'],['Cemetery'],0
50576b92e4b0e95b100723f4,–¢—É—Ä–Ω–∏—á–∫–∏,['–£–∫—Ä–∞—ó–Ω–∞'],50.43612331940025,30.600639279089037,56,0,12,56,0,0,['4bf58dd8d48988d176941735'],['Gym'],0
56e1eba6cd10c99b7c8c662a,–ö—Ä–∏—ó–≤–∫–∞ –∫–Ω–∏–≥–æ–¥—Ä–æ—á–µ—Ä—ñ–≤,"['–ë—É–ª—å–≤–∞—Ä –î–∞–≤–∏–¥–æ–≤–∞, 10', '–ö–∏—ó–≤', '–£–∫—Ä–∞—ó–Ω–∞']",50.43726339077133,30.59807394740076,40,0,28,104,0,0,['5032891291d4c4b30a586d68'],['Assisted Living'],0
51c42eae498e8f1d04beae3d,Kapushon,['–£–∫—Ä–∞—ó–Ω–∞'],50.437606,30.601514,6,0,2,6,0,0,['4d954b06a243a5684965b473'],['Residential Building (Apartment / Condo)'],0
56d7344b498e5ca774754672,–í—ñ–¥–¥—ñ–ª –º—ñ–ª—ñ—Ü—ñ—ó –†—É—Å–∞–Ω—ñ–≤–∫–∞,['–£–∫—Ä–∞—ó–Ω–∞'],50.437355,30.601432,2,0,2,2,0,0,['4e52adeebd41615f56317744'],['Military Base'],0
51d2dc3e498e200c099538db,Fandorina's Castle,['–£–∫—Ä–∞—ó–Ω–∞'],50.43823733951977,30.59839770896695,90,1,8,90,1,0,"['4d954b06a243a5684965b473', '4bf58dd8d48988d103941735']","['Residential Building (Apartment / Condo)', 'Home (private)']",0
4c3e1e7e98ea9c74904fc0b5,"–Ü–Ω—Å—Ç–∏—Ç—É—Ç –¥–æ—à–∫—ñ–ª—å–Ω–æ—ó, –ø–æ—á–∞—Ç–∫–æ–≤–æ—ó —Ç–∞ —Ö—É–¥–æ–∂–Ω—å–æ—ó –æ—Å–≤—ñ—Ç–∏ –ö–∏—ó–≤—Å—å–∫–æ–≥–æ –º—ñ—Å—å–∫–ø–µ–¥—É–Ω—ñ–≤–µ—Ä—Å–∏—Ç–µ—Ç—É —ñ–º. –ë. –î. –ì—Ä—ñ–Ω—á–µ–Ω–∫–∞","['–±—É–ª. –î–∞–≤–∏–¥–æ–≤–∞, 18/2', '–ö–∏—ó–≤', '–£–∫—Ä–∞—ó–Ω–∞']",50.4393040222685,30.602331161499023,968,0,139,1156,0,0,"['4bf58dd8d48988d198941735', '4bf58dd8d48988d1ae941735']","['College Academic Building', 'University']",0
55028c5f498e10d15402f9dd,"—ç–Ω—Ç—É–∑–∏–∞—Å—Ç–æ–≤ , 7/3",['–£–∫—Ä–∞—ó–Ω–∞'],50.43767374780173,30.600533446297483,804,0,150,1091,0,0,['4d954b06a243a5684965b473'],['Residential Building (Apartment / Condo)'],0
5374c455498e9411a6232120,"–û–ø—Ç–∏–∫–∞ ""–ú–∞–π—Å—Ç–µ—Ä –æ–ø—Ç–∏–∫""",['–£–∫—Ä–∞—ó–Ω–∞'],50.43660136635161,30.60105143566275,4,0,3,4,0,0,['4d954afda243a5684865b473'],['Optical Shop'],0
5166e629e4b09b7cc7429e50,"–≠–Ω—Ç—É–∑–∏–∞—Å—Ç–æ–≤, 9","['–≠–Ω—Ç—É–∑–∏–∞—Å—Ç–æ–≤, 9', '–ö–∏—ó–≤, 02154', '–£–∫—Ä–∞—ó–Ω–∞']",50.43689031911996,30.601595252114315,391,0,225,746,1,0,['4d954b06a243a5684965b473'],['Residential Building (Apartment / Condo)'],0
52b410bf498e1c2b824f688b,–°–ø–µ—Ü—ñ–∞–ª—ñ–∑–æ–≤–∞–Ω–∞ —à–∫–æ–ª–∞ #137,"['–≤—É–ª. –ï–Ω—Ç—É–∑—ñ–∞—Å—Ç—ñ–≤, 7/4', '–ö–∏—ó–≤', '–£–∫—Ä–∞—ó–Ω–∞']",50.43840152006115,30.599235669921832,1073,4,254,1576,3,0,['4bf58dd8d48988d13b941735'],['School'],0
51151a33e4b0073182653f9a,–û—â–∞–¥–±–∞–Ω–∫,"['–£–ª–∏—Ü–∞ –≠–Ω—Ç—É–∑–∏–∞—Å—Ç–æ–≤, 11', '–ö–∏—ó–≤, 02154', '–£–∫—Ä–∞—ó–Ω–∞']",50.437035465171974,30.602806866977566,136,1,27,136,0,0,['4bf58dd8d48988d10a951735'],['Bank'],0
51bdfaff498e4da943667a8f,–≠–Ω—Ç—É–∑–∏–∞—Å—Ç–æ–≤ 7/1,['–£–∫—Ä–∞—ó–Ω–∞'],50.43656153672062,30.60012576592582,137,0,73,233,1,0,['4d954b06a243a5684965b473'],['Residential Building (Apartment / Condo)'],0
57b0b31f498ee6fc55f3959e,Rusanovka Island,"['–ö–∏—ó–≤', '–£–∫—Ä–∞—ó–Ω–∞']",50.43728,30.600119,1,0,1,1,0,0,['50aaa4314b90af0d42d5de10'],['Island'],0
57d96e84498eb231f13b7028,–ê–¢–ë,"['–ï–Ω—Ç—É–∑—ñ–∞—Å—Ç—ñ–≤, 7', '–ö–∏—ó–≤', '–£–∫—Ä–∞—ó–Ω–∞']",50.435935,30.601079,24,0,24,63,0,0,['52f2ab2ebcbc57f1066b8b46'],['Supermarket'],0
566c5017498efdbbe24bde33,–ö–æ—Ä—Ç—ã –Ω–∞ –†—É—Å–∞–Ω–æ–≤–∫–µ,"['–ë—É–ª—å–≤–∞ –î–∞–≤—ã–¥–æ–≤–∞ 4–∞', '–ö–∏—ó–≤', '–£–∫—Ä–∞—ó–Ω–∞']",50.43908755700084,30.598730158209698,40,1,46,84,2,0,['4e39a956bd410d7aed40cbc3'],['Tennis Court'],0
575eacce498ea839780dd297,–µ–Ω—Ç—É–∑–∏–∞—Å—Ç–æ–≤ 9,['–£–∫—Ä–∞—ó–Ω–∞'],50.43677,30.602055,9,0,3,11,0,0,['4f04aa0c2fb6e1c99f3db0b8'],['Nail Salon'],0
536f638c498efcd06978a4d5,–≠–Ω—Ç—É–∑–∏–∞—Å—Ç–æ–≤ 9/1,['–£–∫—Ä–∞—ó–Ω–∞'],50.4374163897003,30.601782676232688,96,0,69,205,0,0,['4d954b06a243a5684965b473'],['Residential Building (Apartment / Condo)'],0
4f747be5e4b09bd57df9bc9b,"–°—Ç–∞–¥–∏–æ–Ω ""–†—É—Å–∞–Ω–æ–≤–µ—Ü""",['–£–∫—Ä–∞—ó–Ω–∞'],50.43953104628137,30.59916978324096,160,1,64,179,3,0,"['4bf58dd8d48988d184941735', '4cce455aebf7b749d5e191f5']","['Stadium', 'Soccer Field']",0
4d96e727a2c65481ba32cb53,–ì—ñ–º–Ω–∞–∑—ñ—è ‚Ññ136,"['–≤—É–ª. –ï–Ω—Ç—É–∑—ñ–∞—Å—Ç—ñ–≤, 29/3', '–ö–∏—ó–≤, 02147', '–£–∫—Ä–∞—ó–Ω–∞']",50.44012957010736,30.60116008830834,907,4,386,1585,11,0,['4bf58dd8d48988d13b941735'],['School'],0
4f1016eee4b0d59e1e849d4b,evolution,"['–±—É–ª. –î–∞–≤—ã–¥–æ–≤–∞, 12', '–ö–∏–µ–≤, 02154', '–£–∫—Ä–∞—ó–Ω–∞']",50.43853060373389,30.598347621832215,1329,1,335,2355,20,8.6,['4bf58dd8d48988d176941735'],['Gym'],22
58b3fe02076be15eeb564890,–ë–∏–±–ª–∏–æ—Ç–µ–∫–∞ –£–Ω–∏–≤–µ—Ä—Å–∏—Ç–µ—Ç–∞ –ì—Ä–∏–Ω—á–µ–Ω–∫–∞,"['–±—É–ª—å–≤–∞—Ä –Ü–≥–æ—Ä—è –®–∞–º–æ, 18/2', '–ö–∏—ó–≤, 02000', '–£–∫—Ä–∞—ó–Ω–∞']",50.439495,30.602,4,0,1,4,0,0,['4bf58dd8d48988d1a7941735'],['College Library'],0
